Tick#,offsetTime,IMU_ATTI(0):Longitude,IMU_ATTI(0):Latitude,IMU_ATTI(0):numSats,IMU_ATTI(0):barometer:Raw,IMU_ATTI(0):barometer:Smooth,IMU_ATTI(0):accel:X,IMU_ATTI(0):accel:Y,IMU_ATTI(0):accel:Z,IMU_ATTI(0):accel:Composite,IMU_ATTI(0):gyro:X,IMU_ATTI(0):gyro:Y,IMU_ATTI(0):gyro:Z,IMU_ATTI(0):gyro:Composite,IMU_ATTI(0):mag:X,IMU_ATTI(0):mag:Y,IMU_ATTI(0):mag:Z,IMU_ATTI(0):mag:Mod,IMU_ATTI(0):velN,IMU_ATTI(0):velE,IMU_ATTI(0):velD,IMU_ATTI(0):velComposite,IMU_ATTI(0):velH,IMU_ATTI(0):GPS-H,IMU_ATTI(0):roll,IMU_ATTI(0):pitch,IMU_ATTI(0):yaw,IMU_ATTI(0):yaw360,IMU_ATTI(0):totalGyro:Z,IMU_ATTI(0):totalGyro:X,IMU_ATTI(0):totalGyro:Y,IMU_ATTI(0):magYaw,IMU_ATTI(0):distanceHP,IMU_ATTI(0):distanceTravelled,IMU_ATTI(0):directionOfTravel[mag],IMU_ATTI(0):directionOfTravel[true],IMU_ATTI(0):temperature,General:relativeHeight,General:absoluteHeight,GPS(0):Long,GPS(0):Lat,GPS(0):Date,GPS(0):Time,GPS:dateTimeStamp,GPS(0):heightMSL,GPS(0):hDOP,GPS(0):pDOP,GPS(0):sAcc,GPS(0):numGPS,GPS(0):numGLNAS,GPS(0):numSV,GPS(0):velN,GPS(0):velE,GPS(0):velD,HP:Longitude,HP:Latitude,HP:rthHeight,BatBlackBox:tick,BatBlackBox:id,BatBlackBox:rsoc,BatBlackBox:index,BatBlackBox:rm,BatBlackBox:fcc,BatBlackBox:cell_min,BatBlackBox:cell_max,BatBlackBox:current,BatBlackBox:voltage,BatBlackBox:temp,BatBlackBox:flag,BatBlackBox:reserve,BatBlackBox:user_data,OA:avoidObst,OA:emergBrake,OA:radiusLimit,OA:airportLimit,OA:groundForceLanding,OA:horizNearBoundary,OA:vertLowLimit,OA:vertAirportLimit,OA:roofLimit,OA:hitGroundLimit,Motor:Speed:RFront,Motor:Speed:LFront,Motor:Speed:LBack,Motor:Speed:RBack,Motor:EscTemp:RFront,Motor:EscTemp:LFront,Motor:EscTemp:LBack,Motor:EscTemp:RBack,Motor:PPMrecv:RFront,Motor:PPMrecv:LFront,Motor:PPMrecv:LBack,Motor:PPMrecv:RBack,Motor:PPMsend:RFront,Motor:PPMsend:LFront,Motor:PPMsend:LBack,Motor:PPMsend:RBack,Motor:V_out:RFront,Motor:V_out:LFront,Motor:V_out:LBack,Motor:V_out:RBack,Motor:Volts:RFront,Motor:Volts:LFront,Motor:Volts:LBack,Motor:Volts:RBack,Motor:Current:RFront,Motor:Current:LFront,Motor:Current:LBack,Motor:Current:RBack,Motor:Status:RFront,Motor:Status:LFront,Motor:Status:LBack,Motor:Status:RBack,Motor:thrustAngle,IMU_ATTI(1):Longitude,IMU_ATTI(1):Latitude,IMU_ATTI(1):numSats,IMU_ATTI(1):barometer:Raw,IMU_ATTI(1):barometer:Smooth,IMU_ATTI(1):accel:X,IMU_ATTI(1):accel:Y,IMU_ATTI(1):accel:Z,IMU_ATTI(1):accel:Composite,IMU_ATTI(1):gyro:X,IMU_ATTI(1):gyro:Y,IMU_ATTI(1):gyro:Z,IMU_ATTI(1):gyro:Composite,IMU_ATTI(1):mag:X,IMU_ATTI(1):mag:Y,IMU_ATTI(1):mag:Z,IMU_ATTI(1):mag:Mod,IMU_ATTI(1):velN,IMU_ATTI(1):velE,IMU_ATTI(1):velD,IMU_ATTI(1):velComposite,IMU_ATTI(1):velH,IMU_ATTI(1):GPS-H,IMU_ATTI(1):roll,IMU_ATTI(1):pitch,IMU_ATTI(1):yaw,IMU_ATTI(1):yaw360,IMU_ATTI(1):totalGyro:Z,IMU_ATTI(1):totalGyro:X,IMU_ATTI(1):totalGyro:Y,IMU_ATTI(1):magYaw,IMU_ATTI(1):distanceHP,IMU_ATTI(1):distanceTravelled,IMU_ATTI(1):directionOfTravel[mag],IMU_ATTI(1):directionOfTravel[true],IMU_ATTI(1):temperature,IMUEX(0):err,IMUEX(0):rtk_Longitude,IMUEX(0):rtk_Latitude,IMUEX(0):rtk_Alti,IMUEX(1):err,IMUEX(1):rtk_Longitude,IMUEX(1):rtk_Latitude,IMUEX(1):rtk_Alti,BattInfo:Voltage,BattInfo:BatVoltage,BattInfo:AdVoltage,BattInfo:AvgCurrent,BattInfo:R_time,BattInfo:R_CAP_MAH,BattInfo:LowCellVoltage,BattInfo:LowCellVolThreshold,BattInfo:BatCurrent,BattInfo:Remaining%,BattInfo:Temp,BattInfo:status,battery_info:BatDynCnt,battery_info:Vol1Protect,battery_info:Vol2Protect,battery_info:Cap1Protect,battery_info:Cap2Protect,battery_info:Batpresent,battery_info:sopPercentage,battery_info:sopValue,battery_info:sopScale,battery_info:sopFlg,BattInfo:WindHeading:WindDir,battery_info:home_dir,BattInfo:Wind:rangeMin,BattInfo:Wind:rangeMax,battery_info:cap_speed,battery_info:against_wind,battery_info:emergency_land_cap,battery_info:intel_bat_land_cap,battery_info:intel_bat_gh_cap,BattInfo:Smart:SmartGh,BattInfo:Smart:SmartLand,BattInfo:GoHome:CntDown,BattInfo:GoHome:GhCmd,BattInfo:GoHome:CapLevel,BattInfo:GoHome:LandCapLv,Attribute|Value,ConvertDatV3,3.6.6-Tablet
7091520,1.843,,,,,,,,,,,,,,,,,,,,,,,,,,,,,,,,,,,,,,,,,,,,,,,,,,,,,,,,,,,,,,,,,,,,,,,,,,,,,,,,,,,,,,,,,,,,,,,,,,,,,,,,,,,,,,,,,,,,,,,,,,,,,,,,,,,,,,,,,,,,,,,,,,,,,,,,,,,,,,,,,,,,,,,,,OK,,,,,,,,,,,,,,,,,,,,,,,,,,Firmware Date| Jul 26 2019
7895244,2.052,,,,,,,,,,,,,,,,,,,,,,,,,,,,,,,,,,,,,,,,,,,,,,,,,,,,,,,,,,,,,,,,,,,,,,,,,,,,,,,,,,,,,,,,,,,,,,,,,,,,,,,,,,,,,,,,,,,,,,,,,,,,,,,,,,,,,,,,,,,,,,,,,,,,,,,,,,,,,,,,,,,,,,,,,OK,,,,,,,,,,,,,,,,,,,,,,,,,,ACType|MavicEnterprise
38772490,10.077,,,,,,,,,,,,,,,,,,,,,,,,,,,,,,,,,,,,,,,,,,,,,,,,,,,,,,,,,,,,,,,,,,,,,,,,,,,,,,,,,,,,,,,,,,,,,,,,,,,,,,,,,,,,,,,,,,,,,,,,,,,,,,,,,,,,,,,,,,,,,,,,,,,,,,,,,,,,,,,,,,,,,,,,,OK,,,,,,,,,,,,,,,,,,,,,,,,,,
38925280,10.117,,,,,,,,,,,,,,,,,,,,,,,,,,,,,,,,,,,,,,,,,,,,,,,,,,,,,,,,,,,,,,,,,,,,,,,,,,,,,,,,,0,0,0,0,48,61,62,48,703,755,804,855,700,750,800,850,0.0,0.0,0.0,0.0,1502.5,1498.8,1499.4,1503.1,0.0,0.0,0.0,0.0,0,0,0,0,-45.0,,,,,,,,,,,,,,,,,,,,,,,,,,,,,,,,,,,,,,,,,,,,,,,,,,,,,,,,OK,,,,,,,,,,,,,,,,,,,,,,,,,,
39058247,10.151,9.094163143852876,62.69292628334861,15,565.5542,565.1189,0.057060182,-0.058037974,-0.99902683,1.0023367,-0.22167534,-0.61397725,-1.2875462,1.4435662,33,-331,1478,1514.0,0.0016672255,-4.7453813E-4,0.20119198,0.20119944,0.0017334437542770823,-0.0017334437542770823,3.2400155067253693,3.3052576126436692,77.89986599150082,77.8998659915008,0.0,0.0,0.0,74.2264613453058,,0.0,,,64.64,,,,,,,,,,,,,,,,,,,,,,,,,,,,,,,,,,,,,,,,,,,,,0,0,0,0,48,61,62,48,703,755,804,855,700,750,800,850,0.0,0.0,0.0,0.0,1502.5,1498.8,1499.4,1503.1,0.0,0.0,0.0,0.0,0,0,0,0,-45.0,0.0,0.0,,,,,,,,,,,,,,,,,,,,,,,,,,,,,,,,,,,,,,,,,,,15.116,15.116,15.196,1.6954253,0,1131,3.774,12.0,1.469,34,26.1,OK,8,0,0,0,0,0,65,99,0.0,0,0.0,-7.246905E35,8.7E-44,0.0,-4.950627E20,66,7.3897485E-14,-7.389794E-14,-8.328608E37,False,False,0,None,1.5966042E29,1.0842437E-19,
39209942,10.190,9.094163143852876,62.69292628334861,15,565.5542,565.1189,0.057060182,-0.058037974,-0.99902683,1.0023367,-0.22167534,-0.61397725,-1.2875462,1.4435662,33,-331,1478,1514.0,0.0016672255,-4.7453813E-4,0.20119198,0.20119944,0.0017334437542770823,-0.0017334437542770823,3.2400155067253693,3.3052576126436692,77.89986599150082,77.8998659915008,0.0,0.0,0.0,74.2264613453058,,0.0,,,64.64,,,9.0941632,62.6929272,20190920,185228,2019-09-20T18:52:28Z,623.434,0.72,1.16,13.14,8,7,15,0.01,0.0,0.01,,,,,,,,,,,,,,,,,,,,,,,,,,,,0,0,0,0,48,61,62,48,703,755,804,855,700,750,800,850,0.0,0.0,0.0,0.0,1502.5,1498.8,1499.4,1503.1,0.0,0.0,0.0,0.0,0,0,0,0,-45.0,0.0,0.0,,,,,,,,,,,,,,,,,,,,,,,,,,,,,,,,,,,,,,,,,,,15.116,15.116,15.196,1.6954253,0,1131,3.774,12.0,1.469,34,26.1,OK,8,0,0,0,0,0,65,99,0.0,0,0.0,-7.246905E35,8.7E-44,0.0,-4.950627E20,66,7.3897485E-14,-7.389794E-14,-8.328608E37,False,False,0,None,1.5966042E29,1.0842437E-19,
39384888,10.236,9.094163039515236,62.69292632232705,15,565.20013,565.1172,0.056089092,-0.053071205,-0.99654,0.99952716,0.23402907,-0.0054388284,0.10782682,0.25773206,30,-334,1478,1515.0,0.0021572022,1.11832065E-4,0.18549795,0.18551053,0.002160099063059411,0.1488029976248322,3.24653388462845,3.3033421741628626,77.91253004489788,77.91253004489789,0.005380341769887257,0.011677580407571359,-2.7138660935721636E-4,74.72998705799237,,0.006863942072708342,-50.84316404419291,-50.84316404419291,64.68,,,9.0941632,62.6929272,20190920,185228,2019-09-20T18:52:28Z,623.434,0.72,1.16,13.14,8,7,15,0.01,0.0,0.01,,,,,,,,,,,,,,,,,,false,false,false,false,false,false,false,false,false,false,0,0,0,0,48,63,62,49,703,754,804,855,700,750,800,850,0.0,0.0,0.0,0.0,1501.2,1497.6,1500.0,1503.7,0.0,0.0,0.0,0.0,0,0,0,0,-45.0,0.0,0.0,,,,,,,,,,,,,,,,,,,,,,,,,,,,,,,,,,,NONE,0.0,0.0,0.0,,,,,15.116,15.116,15.196,1.6954253,0,1131,3.774,12.0,1.469,34,26.1,OK,8,0,0,0,0,0,65,99,0.0,0,0.0,-7.246905E35,8.7E-44,0.0,-4.950627E20,66,7.3897485E-14,-7.389794E-14,-8.328608E37,False,False,0,None,1.5966042E29,1.0842437E-19,
39593966,10.290,9.094163039515236,62.69292632232705,15,565.20013,565.1172,0.056089092,-0.053071205,-0.99654,0.99952716,0.23402907,-0.0054388284,0.10782682,0.25773206,30,-334,1478,1515.0,0.0021572022,1.11832065E-4,0.18549795,0.18551053,0.002160099063059411,-0.002160099063059411,3.24653388462845,3.3033421741628626,77.91253004489788,77.91253004489789,0.005380341769887257,0.011677580407571359,-2.7138660935721636E-4,74.72998705799237,,0.006863942072708342,-50.84316404419291,-50.84316404419291,64.68,,,9.0941632,62.6929272,20190920,185228,2019-09-20T18:52:28Z,623.434,0.72,1.16,13.14,8,7,15,0.01,0.0,0.01,,,,,,,,,,,,,,,,,,false,false,false,false,false,false,false,false,false,false,0,0,0,0,48,63,62,49,703,754,804,855,700,750,800,850,0.0,0.0,0.0,0.0,1501.2,1497.6,1500.0,1503.7,0.0,0.0,0.0,0.0,0,0,0,0,-45.0,0.0,0.0,,,,,,,,,,,,,,,,,,,,,,,,,,,,,,,,,,,NONE,0.0,0.0,0.0,,,,,15.116,15.116,15.196,1.6954253,0,1131,3.774,12.0,1.469,34,26.1,OK,8,0,0,0,0,0,65,99,0.0,0,0.0,-7.246905E35,8.7E-44,0.0,-4.950627E20,66,7.3897485E-14,-7.389794E-14,-8.328608E37,False,False,0,None,1.5966042E29,1.0842437E-19,
39768929,10.336,9.094162935319682,62.69292636034612,15,565.4538,565.0886,0.057923112,-0.058591787,-0.99648684,0.99988705,0.19263987,-0.021926459,-0.14589095,0.24264184,33,-337,1487,1525.0,0.0023551509,5.4265046E-4,0.19827873,0.19829345,0.002416858532429998,0.14693651324730475,3.2441255173636687,3.3013477424096362,77.90743587876166,77.90743587876165,0.003480741175357627,0.0329706083391776,-0.001637058631459882,74.41188086598486,,0.013655353561831125,-51.502419155183,-51.502419155183,64.69,,,9.0941632,62.6929272,20190920,185228,2019-09-20T18:52:28Z,623.434,0.72,1.16,13.14,8,7,15,0.01,0.0,0.01,,,,,,,,,,,,,,,,,,false,false,false,false,false,false,false,false,false,false,0,0,0,0,48,63,61,48,703,755,804,855,700,750,800,850,0.0,0.0,0.0,0.0,1503.7,1498.2,1498.8,1502.5,0.0,0.0,0.0,0.0,0,0,0,0,-45.0,0.0,0.0,,,,,,,,,,,,,,,,,,,,,,,,,,,,,,,,,,,NONE,0.0,0.0,0.0,,,,,15.112,15.112,15.191,1.6954253,0,1131,3.774,12.0,1.469,34,26.1,OK,8,0,0,0,0,0,65,99,0.0,0,0.0,-1.3671612E35,8.8E-44,0.0,-4.950627E20,66,7.3897485E-14,-7.389794E-14,-8.480742E37,False,False,0,None,1.6500387E29,1.0842437E-19,
39929964,10.378,9.094162935319682,62.69292636034612,15,565.4538,565.0886,0.057923112,-0.058591787,-0.99648684,0.99988705,0.19263987,-0.021926459,-0.14589095,0.24264184,33,-337,1487,1525.0,0.0023551509,5.4265046E-4,0.19827873,0.19829345,0.002416858532429998,-0.002416858532429998,3.2441255173636687,3.3013477424096362,77.90743587876166,77.90743587876165,0.003480741175357627,0.0329706083391776,-0.001637058631459882,74.41188086598486,,0.013655353561831125,-51.502419155183,-51.502419155183,64.69,,,9.0941632,62.6929272,20190920,185228,2019-09-20T18:52:28Z,623.434,0.72,1.16,13.14,8,7,15,0.01,0.0,0.01,,,,,,,,,,,,,,,,,,false,false,false,false,false,false,false,false,false,false,0,0,0,0,48,63,61,48,703,755,804,855,700,750,800,850,0.0,0.0,0.0,0.0,1503.7,1498.2,1498.8,1502.5,0.0,0.0,0.0,0.0,0,0,0,0,-45.0,0.0,0.0,,,,,,,,,,,,,,,,,,,,,,,,,,,,,,,,,,,NONE,0.0,0.0,0.0,,,,,15.112,15.112,15.191,1.6954253,0,1131,3.774,12.0,1.469,34,26.1,OK,8,0,0,0,0,0,65,99,0.0,0,0.0,-1.3671612E35,8.8E-44,0.0,-4.950627E20,66,7.3897485E-14,-7.389794E-14,-8.480742E37,False,False,0,None,1.6500387E29,1.0842437E-19,
40077210,10.416,9.094162935319682,62.69292636034612,15,565.4538,565.0886,0.057923112,-0.058591787,-0.99648684,0.99988705,0.19263987,-0.021926459,-0.14589095,0.24264184,33,-337,1487,1525.0,0.0023551509,5.4265046E-4,0.19827873,0.19829345,0.002416858532429998,-0.002416858532429998,3.2441255173636687,3.3013477424096362,77.90743587876166,77.90743587876165,0.003480741175357627,0.0329706083391776,-0.001637058631459882,74.41188086598486,,0.013655353561831125,-51.502419155183,-51.502419155183,64.69,,,9.094163,62.6929274,20190920,185228,2019-09-20T18:52:28Z,623.454,0.72,1.16,12.87,8,7,15,-0.02,0.0,0.0,,,,,,,,,,,,,,,,,,false,false,false,false,false,false,false,false,false,false,0,0,0,0,48,63,61,48,703,755,804,855,700,750,800,850,0.0,0.0,0.0,0.0,1503.7,1498.2,1498.8,1502.5,0.0,0.0,0.0,0.0,0,0,0,0,-45.0,0.0,0.0,,,,,,,,,,,,,,,,,,,,,,,,,,,,,,,,,,,NONE,0.0,0.0,0.0,,,,,15.112,15.112,15.191,1.6954253,0,1131,3.774,12.0,1.469,34,26.1,OK,8,0,0,0,0,0,65,99,0.0,0,0.0,-1.3671612E35,8.8E-44,0.0,-4.950627E20,66,7.3897485E-14,-7.389794E-14,-8.480742E37,False,False,0,None,1.6500387E29,1.0842437E-19,dateTime|2019-9-20 18:52:28 GMT
40361898,10.490,9.094162450261898,62.692926794431685,15,565.4327,565.1376,0.05759847,-0.055872753,-0.99645084,0.99967676,0.08883668,-0.023638194,-0.30077302,0.31450775,36,-337,1490,1528.0,0.0026831466,0.0014297062,0.14207937,0.1421119,0.0030402854513675265,0.7300502691991696,3.231872213442735,3.300588253719229,77.91429297475952,77.91429297475952,-0.018805849094622632,0.04701506467146058,-0.003910536623296025,74.00892874538611,,0.06789609057936162,-27.140982304983986,-27.140982304983986,64.7,,,9.094163,62.6929274,20190920,185228,2019-09-20T18:52:28Z,623.454,0.72,1.16,12.87,8,7,15,-0.02,0.0,0.0,,,,,,,,,,,,,,,,,,false,false,false,false,false,false,false,false,false,false,0,0,0,0,49,61,61,49,703,755,804,854,700,750,800,850,0.0,0.0,0.0,0.0,1501.8,1498.8,1499.4,1502.5,0.0,0.0,0.0,0.0,0,0,0,0,-45.0,0.0,0.0,,,,,,,,,,,,,,,,,,,,,,,,,,,,,,,,,,,NONE,0.0,0.0,0.0,,,,,15.112,15.112,15.191,1.6954253,0,1131,3.774,12.0,1.469,34,26.1,OK,8,0,0,0,0,0,65,99,0.0,0,0.0,-1.3671612E35,8.8E-44,0.0,-4.950627E20,66,7.3897485E-14,-7.389794E-14,-8.480742E37,False,False,0,None,1.6500387E29,1.0842437E-19,
40536958,10.535,9.094162349556342,62.69292684661395,15,565.56213,565.1579,0.057413716,-0.057804372,-0.9958995,0.99922645,0.16933051,0.010835815,-0.09014566,0.1921366,33,-334,1475,1512.0,0.0091103725,0.0014646081,0.10348257,0.103893146,0.009227348577411771,0.16110645623608041,3.229047571948412,3.2996313343234323,77.914447481911,77.914447481911,-0.0383158170024943,0.05989967138475369,-0.004549477726103777,74.35899629784299,,0.07564582051429676,-41.5200938575409,-41.5200938575409,64.74,,,9.094163,62.6929274,20190920,185228,2019-09-20T18:52:28Z,623.454,0.72,1.16,12.87,8,7,15,-0.02,0.0,0.0,,,,,,,,,,,,,,,,,,false,false,false,false,false,false,false,false,false,false,0,0,0,0,48,61,62,48,944,946,945,854,940,940,940,940,0.0,0.0,0.0,0.0,1502.5,1498.2,1498.8,1501.8,0.0,0.0,0.0,0.0,0,0,0,0,-45.0,0.0,0.0,,,,,,,,,,,,,,,,,,,,,,,,,,,,,,,,,,,NONE,0.0,0.0,0.0,,,,,15.114,15.114,15.191,1.7343694,0,1131,3.774,12.0,1.343,34,26.1,OK,9,0,0,0,0,0,65,99,0.0,0,0.0,1.3822519E-18,9.0E-44,0.0,-4.950627E20,66,7.3897485E-14,-7.389794E-14,-1.0322094E38,False,False,0,None,1.9780928E29,1.0842437E-19,
40745941,10.590,9.094162349556342,62.69292684661395,15,565.56213,565.1579,0.057413716,-0.057804372,-0.9958995,0.99922645,0.16933051,0.010835815,-0.09014566,0.1921366,33,-334,1475,1512.0,0.0091103725,0.0014646081,0.10348257,0.103893146,0.009227348577411771,-0.009227348577411771,3.229047571948412,3.2996313343234323,77.914447481911,77.914447481911,-0.0383158170024943,0.05989967138475369,-0.004549477726103777,74.35899629784299,,0.07564582051429676,-41.5200938575409,-41.5200938575409,64.74,,,9.0941629,62.6929276,20190920,185228,2019-09-20T18:52:28Z,623.504,0.72,1.16,12.71,8,7,15,-0.01,-0.01,-0.01,,,,,,,,,,,,,,,,,,false,false,false,false,false,false,false,false,false,false,0,0,0,0,48,61,62,48,944,946,945,854,940,940,940,940,0.0,0.0,0.0,0.0,1502.5,1498.2,1498.8,1501.8,0.0,0.0,0.0,0.0,0,0,0,0,-45.0,0.0,0.0,,,,,,,,,,,,,,,,,,,,,,,,,,,,,,,,,,,NONE,0.0,0.0,0.0,,,,,15.114,15.114,15.191,1.7343694,0,1131,3.774,12.0,1.343,34,26.1,OK,9,0,0,0,0,0,65,99,0.0,0,0.0,1.3822519E-18,9.0E-44,0.0,-4.950627E20,66,7.3897485E-14,-7.389794E-14,-1.0322094E38,False,False,0,None,1.9780928E29,1.0842437E-19,
40920938,10.635,9.094162269070733,62.692926935989775,15,565.44324,565.15155,0.057446063,-0.056678765,-0.9958126,0.9990772,0.19315448,0.012645928,0.004609684,0.19362289,33,-331,1466,1503.0,0.009273743,0.0013878322,0.097103894,0.09755559,0.009377013955011332,0.22704805618635884,3.267987302469146,3.3085319175340846,77.91446219474034,77.91446219474034,-0.04258383502529083,0.07798670871296795,-0.0033778011615769174,74.30694580144124,,0.08639865415505081,-22.44681437568507,-22.44681437568507,64.73,,,9.0941629,62.6929276,20190920,185228,2019-09-20T18:52:28Z,623.504,0.72,1.16,12.71,8,7,15,-0.01,-0.01,-0.01,,,,,,,,,,,,,,,,,,false,false,false,false,false,false,false,false,false,false,0,0,0,0,47,62,62,48,944,946,945,945,940,940,940,940,0.0,0.0,0.0,0.0,1502.5,1500.0,1500.0,1502.5,0.0,0.0,0.0,0.0,0,0,0,0,-45.0,0.0,0.0,,,,,,,,,,,,,,,,,,,,,,,,,,,,,,,,,,,NONE,0.0,0.0,0.0,,,,,15.114,15.114,15.191,1.7343694,0,1131,3.774,12.0,1.343,34,26.1,OK,9,0,0,0,0,0,65,99,0.0,0,0.0,1.3822519E-18,9.0E-44,0.0,-4.950627E20,66,7.3897485E-14,-7.389794E-14,-1.0322094E38,False,False,0,None,1.9780928E29,1.0842437E-19,
41129900,10.689,9.094162269070733,62.692926935989775,15,565.44324,565.15155,0.057446063,-0.056678765,-0.9958126,0.9990772,0.19315448,0.012645928,0.004609684,0.19362289,33,-331,1466,1503.0,0.009273743,0.0013878322,0.097103894,0.09755559,0.009377013955011332,-0.009377013955011332,3.267987302469146,3.3085319175340846,77.91446219474034,77.91446219474034,-0.04258383502529083,0.07798670871296795,-0.0033778011615769174,74.30694580144124,,0.08639865415505081,-22.44681437568507,-22.44681437568507,64.73,,,9.0941629,62.6929276,20190920,185228,2019-09-20T18:52:28Z,623.504,0.72,1.16,12.71,8,7,15,-0.01,-0.01,-0.01,,,,,,,,,,,,,,,,,,false,false,false,false,false,false,false,false,false,false,0,0,0,0,47,62,62,48,944,946,945,945,940,940,940,940,0.0,0.0,0.0,0.0,1502.5,1500.0,1500.0,1502.5,0.0,0.0,0.0,0.0,0,0,0,0,-45.0,0.0,0.0,,,,,,,,,,,,,,,,,,,,,,,,,,,,,,,,,,,NONE,0.0,0.0,0.0,,,,,15.114,15.114,15.191,1.7343694,0,1131,3.774,12.0,1.343,34,26.1,OK,9,0,0,0,0,0,65,99,0.0,0,0.0,1.3822519E-18,9.0E-44,0.0,-4.950627E20,66,7.3897485E-14,-7.389794E-14,-1.0322094E38,False,False,0,None,1.9780928E29,1.0842437E-19,
41304919,10.735,9.094162187023054,62.69292702640872,15,565.3956,565.14484,0.05732191,-0.05703528,-0.99550885,0.9987876,0.21951333,0.099360585,-0.043526247,0.24485335,36,-334,1475,1512.0,-0.007005197,3.618878E-4,0.08722758,0.08750917,0.007014538262738894,0.2324073394073282,3.266510209061854,3.308462435587062,77.91445363515085,77.91445363515083,-0.04452567304518699,0.09857778893019933,0.002211040709902439,73.98597919941582,,0.09728915435203536,-22.60127317646698,-22.60127317646698,64.73,,,9.0941629,62.6929276,20190920,185228,2019-09-20T18:52:28Z,623.504,0.72,1.16,12.71,8,7,15,-0.01,-0.01,-0.01,,,,,,,,,,,,,,,,,,false,false,false,false,false,false,false,false,false,false,0,0,0,0,48,62,61,49,944,945,945,946,940,940,940,940,0.0,0.0,0.0,0.0,1501.8,1498.2,1499.4,1501.8,0.0,0.0,0.0,0.0,0,0,0,0,-45.0,0.0,0.0,,,,,,,,,,,,,,,,,,,,,,,,,,,,,,,,,,,NONE,0.0,0.0,0.0,,,,,15.117,15.117,15.19,1.7343694,0,1131,3.774,12.0,1.343,34,26.1,OK,9,0,0,0,0,0,65,99,0.0,0,0.0,6.1096486E-17,9.0E-44,0.0,-4.950627E20,66,7.3897485E-14,-7.389794E-14,-1.0968016E38,False,False,0,None,2.0915867E29,1.0842437E-19,
41513943,10.789,9.094162187023054,62.69292702640872,15,565.3956,565.14484,0.05732191,-0.05703528,-0.99550885,0.9987876,0.21951333,0.099360585,-0.043526247,0.24485335,36,-334,1475,1512.0,-0.007005197,3.618878E-4,0.08722758,0.08750917,0.007014538262738894,-0.007014538262738894,3.266510209061854,3.308462435587062,77.91445363515085,77.91445363515083,-0.04452567304518699,0.09857778893019933,0.002211040709902439,73.98597919941582,,0.09728915435203536,-22.60127317646698,-22.60127317646698,64.73,,,9.0941629,62.6929277,20190920,185229,2019-09-20T18:52:29Z,623.541,0.72,1.16,12.54,8,7,15,-0.01,0.0,-0.01,,,,,,,,,,,,,,,,,,false,false,false,false,false,false,false,false,false,false,0,0,0,0,48,62,61,49,944,945,945,946,940,940,940,940,0.0,0.0,0.0,0.0,1501.8,1498.2,1499.4,1501.8,0.0,0.0,0.0,0.0,0,0,0,0,-45.0,0.0,0.0,,,,,,,,,,,,,,,,,,,,,,,,,,,,,,,,,,,NONE,0.0,0.0,0.0,,,,,15.117,15.117,15.19,1.7343694,0,1131,3.774,12.0,1.343,34,26.1,OK,9,0,0,0,0,0,65,99,0.0,0,0.0,6.1096486E-17,9.0E-44,0.0,-4.950627E20,66,7.3897485E-14,-7.389794E-14,-1.0968016E38,False,False,0,None,2.0915867E29,1.0842437E-19,
41688918,10.835,9.094161904704164,62.69292748589801,15,565.64667,565.1915,0.057285827,-0.057140186,-0.99589926,0.9991807,0.21929182,0.16480632,-0.13171111,0.30429894,33,-334,1475,1512.0,-0.010018509,-4.527713E-4,0.0659308,0.06668917,0.010028734638283725,1.1572834269707384,3.2517145518891337,3.3199556486867525,77.91344596257429,77.91344596257431,-0.053269983943561264,0.1204740833074883,0.015392918480759642,74.31523913196746,0.14583261829301652,0.15037293049818468,-18.24186476477137,-15.74156950849206,64.77,,,9.0941629,62.6929277,20190920,185229,2019-09-20T18:52:29Z,623.541,0.72,1.16,12.54,8,7,15,-0.01,0.0,-0.01,9.09416317631787,62.69292631127927,30,,,,,,,,,,,,,,,false,false,false,false,false,false,false,false,false,false,0,0,0,0,49,62,61,49,944,945,944,945,940,940,940,940,0.0,0.0,0.0,0.0,1502.5,1498.8,1499.4,1503.1,0.0,0.0,0.0,0.0,0,0,0,0,-45.0,0.0,0.0,,,,,,,,,,,,,,,,,,,,,,,,,,,,,,0.0,,,,,NONE,0.0,0.0,0.0,,,,,15.117,15.117,15.19,1.7343694,0,1131,3.774,12.0,1.343,34,26.1,OK,9,0,0,0,0,0,65,99,0.0,0,0.0,6.1096486E-17,9.0E-44,0.0,-4.950627E20,66,7.3897485E-14,-7.389794E-14,-1.0968016E38,False,False,0,None,2.0915867E29,1.0842437E-19,geoDeclination|2.50 degrees
41897930,10.889,9.094161904704164,62.69292748589801,15,565.64667,565.1915,0.057285827,-0.057140186,-0.99589926,0.9991807,0.21929182,0.16480632,-0.13171111,0.30429894,33,-334,1475,1512.0,-0.010018509,-4.527713E-4,0.0659308,0.06668917,0.010028734638283725,-0.010028734638283725,3.2517145518891337,3.3199556486867525,77.91344596257429,77.91344596257431,-0.053269983943561264,0.1204740833074883,0.015392918480759642,74.31523913196746,0.14583261829301652,0.15037293049818468,-18.24186476477137,-15.74156950849206,64.77,,,9.0941629,62.6929277,20190920,185229,2019-09-20T18:52:29Z,623.541,0.72,1.16,12.54,8,7,15,-0.01,0.0,-0.01,9.09416317631787,62.69292631127927,30,,,,,,,,,,,,,,,false,false,false,false,false,false,false,false,false,false,0,0,0,0,49,62,61,49,944,945,944,945,940,940,940,940,0.0,0.0,0.0,0.0,1502.5,1498.8,1499.4,1503.1,0.0,0.0,0.0,0.0,0,0,0,0,-45.0,0.0,0.0,,,,,,,,,,,,,,,,,,,,,,,,,,,,,,0.0,,,,,NONE,0.0,0.0,0.0,,,,,15.117,15.117,15.19,1.7343694,0,1131,3.774,12.0,1.343,34,26.1,OK,9,0,0,0,0,0,65,99,0.0,0,0.0,6.1096486E-17,9.0E-44,0.0,-4.950627E20,66,7.3897485E-14,-7.389794E-14,-1.0968016E38,False,False,0,None,2.0915867E29,1.0842437E-19,geoInclination|74.35 degrees
42072894,10.935,9.09416178561207,62.69292762452648,15,565.52246,565.17725,0.057483472,-0.057383243,-0.9960298,0.999336,0.26830998,-0.043283183,-0.11466064,0.29497582,30,-331,1469,1506.0,-0.0091559645,-0.006946768,0.06715909,0.068135396,0.0114930099204212,0.3528758675243423,3.25397840898281,3.3213813993907233,77.9132939285462,77.91329392854618,-0.06556315097404386,0.14480386410531754,0.021456536995613285,74.62066219682943,0.16234692155470837,0.16694164330667952,-24.01009510174181,-21.509799845462496,64.79,,,9.0941629,62.6929277,20190920,185229,2019-09-20T18:52:29Z,623.541,0.72,1.16,12.54,8,7,15,-0.01,0.0,-0.01,9.09416317631787,62.69292631127927,30,,,,,,,,,,,,,,,false,false,false,false,false,false,false,false,false,false,0,0,0,0,48,61,62,48,944,946,945,946,940,940,940,940,0.0,0.0,0.0,0.0,1502.5,1500.0,1499.4,1501.8,0.0,0.0,0.0,0.0,0,0,0,0,-45.0,0.0,0.0,,,,,,,,,,,,,,,,,,,,,,,,,,,,,,0.0,,,,,NONE,0.0,0.0,0.0,,,,,15.119,15.119,15.19,1.7343694,0,1131,3.774,12.0,1.343,34,26.1,OK,9,0,0,0,0,0,65,99,0.0,0,0.0,1.7991442E-12,9.0E-44,0.0,-4.950627E20,66,7.3897485E-14,-7.389794E-14,-1.3072454E38,False,False,0,None,2.4612763E29,1.0842437E-19,geoIntensity|51658.88 nanoTesla
42272312,10.986,9.09416178561207,62.69292762452648,15,565.52246,565.17725,0.057483472,-0.057383243,-0.9960298,0.999336,0.26830998,-0.043283183,-0.11466064,0.29497582,30,-331,1469,1506.0,-0.0091559645,-0.006946768,0.06715909,0.068135396,0.0114930099204212,-0.0114930099204212,3.25397840898281,3.3213813993907233,77.9132939285462,77.91329392854618,-0.06556315097404386,0.14480386410531754,0.021456536995613285,74.62066219682943,0.16234692155470837,0.16694164330667952,-24.01009510174181,-21.509799845462496,64.79,,,9.0941627,62.6929278,20190920,185229,2019-09-20T18:52:29Z,623.576,0.72,1.16,12.37,8,7,15,-0.01,-0.01,0.0,9.09416317631787,62.69292631127927,30,,,,,,,,,,,,,,,false,false,false,false,false,false,false,false,false,false,0,0,0,0,48,61,62,48,944,946,945,946,940,940,940,940,0.0,0.0,0.0,0.0,1502.5,1500.0,1499.4,1501.8,0.0,0.0,0.0,0.0,0,0,0,0,-45.0,0.0,0.0,,,,,,,,,,,,,,,,,,,,,,,,,,,,,,0.0,,,,,NONE,0.0,0.0,0.0,,,,,15.119,15.119,15.19,1.7343694,0,1131,3.774,12.0,1.343,34,26.1,OK,9,0,0,0,0,0,65,99,0.0,0,0.0,1.7991442E-12,9.0E-44,0.0,-4.950627E20,66,7.3897485E-14,-7.389794E-14,-1.3072454E38,False,False,0,None,2.4612763E29,1.0842437E-19,
42456884,11.034,9.094161713227974,62.692927763935636,15,565.1869,565.17865,0.057775605,-0.057485558,-0.99678546,1.0001119,0.33674744,0.08618066,-0.14036992,0.37487283,30,-334,1463,1500.0,-0.008584997,-0.007053182,0.057027172,0.058099467,0.011110784986909998,0.321085906280236,3.259217825290517,3.3082378659682172,77.91406737263225,77.91406737263225,-0.07828882988630376,0.17499540685434112,0.02359706264070205,74.80688654748374,0.1779371792487424,0.18287693132304245,-15.898322076591311,-13.398026820311998,64.82,,,9.0941627,62.6929278,20190920,185229,2019-09-20T18:52:29Z,623.576,0.72,1.16,12.37,8,7,15,-0.01,-0.01,0.0,9.09416317631787,62.69292631127927,30,,,,,,,,,,,,,,,false,false,false,false,false,false,false,false,false,false,0,0,0,0,49,62,63,48,944,944,944,945,940,940,940,940,0.0,0.0,0.0,0.0,1501.8,1498.8,1499.4,1500.6,0.0,0.0,0.0,0.0,0,0,0,0,-45.0,0.0,0.0,,,,,,,,,,,,,,,,,,,,,,,,,,,,,,0.0,,,,,NONE,0.0,0.0,0.0,,,,,15.119,15.119,15.19,1.7343694,0,1131,3.774,12.0,1.343,34,26.1,OK,9,0,0,0,0,0,65,99,0.0,0,0.0,1.7991442E-12,9.0E-44,0.0,-4.950627E20,66,7.3897485E-14,-7.389794E-14,-1.3072454E38,False,False,0,None,2.4612763E29,1.0842437E-19,
42675558,11.091,9.094161713227974,62.692927763935636,15,565.1869,565.17865,0.057775605,-0.057485558,-0.99678546,1.0001119,0.33674744,0.08618066,-0.14036992,0.37487283,30,-334,1463,1500.0,-0.008584997,-0.007053182,0.057027172,0.058099467,0.011110784986909998,-0.011110784986909998,3.259217825290517,3.3082378659682172,77.91406737263225,77.91406737263225,-0.07828882988630376,0.17499540685434112,0.02359706264070205,74.80688654748374,0.1779371792487424,0.18287693132304245,-15.898322076591311,-13.398026820311998,64.82,,,9.0941627,62.6929278,20190920,185229,2019-09-20T18:52:29Z,623.576,0.72,1.16,12.37,8,7,15,-0.01,-0.01,0.0,9.09416317631787,62.69292631127927,30,,,,,,,,,,,,,,,false,false,false,false,false,false,false,false,false,false,0,0,0,0,49,62,63,48,944,944,944,945,940,940,940,940,0.0,0.0,0.0,0.0,1501.8,1498.8,1499.4,1500.6,0.0,0.0,0.0,0.0,0,0,0,0,-45.0,0.0,0.0,,,,,,,,,,,,,,,,,,,,,,,,,,,,,,0.0,,,,,NONE,0.0,0.0,0.0,,,,,15.119,15.119,15.19,1.7343694,0,1131,3.774,12.0,1.343,34,26.1,OK,9,0,0,0,0,0,65,99,0.0,0,0.0,1.7991442E-12,9.0E-44,0.0,-4.950627E20,66,7.3897485E-14,-7.389794E-14,-1.3072454E38,False,False,0,None,2.4612763E29,1.0842437E-19,
42840912,11.134,9.094161639081957,62.69292790693409,15,565.78406,565.18146,0.057918902,-0.05685154,-0.9949562,0.99826074,0.28677943,0.13531266,-0.15669324,0.35370147,33,-331,1466,1503.0,-0.008616875,-0.0036439383,0.04669658,0.04762457,0.009355684059657891,0.3709690093416602,3.2581259271038707,3.310011177291114,77.91620199136983,77.9162019913698,-0.09311334528048959,0.20611162918129933,0.03465037191440727,74.29267996005322,0.1939849985466121,0.19922129532041272,-15.880628399861259,-13.380333143581945,64.85,,,9.0941627,62.6929278,20190920,185229,2019-09-20T18:52:29Z,623.576,0.72,1.16,12.37,8,7,15,-0.01,-0.01,0.0,9.09416317631787,62.69292631127927,30,,,,,,,,,,,,,,,false,false,false,false,false,false,false,false,false,false,0,0,0,0,48,62,62,48,944,946,945,945,940,940,940,940,0.0,0.0,0.0,0.0,1502.5,1498.8,1500.6,1502.5,0.0,0.0,0.0,0.0,0,0,0,0,-45.0,0.0,0.0,,,,,,,,,,,,,,,,,,,,,,,,,,,,,,0.0,,,,,NONE,0.0,0.0,0.0,,,,,15.12,15.12,15.191,1.7343694,0,1131,3.774,12.0,1.343,34,26.1,OK,9,0,0,0,0,0,65,99,0.0,0,0.0,3.9537262E-11,9.0E-44,0.0,-4.950627E20,66,7.3897485E-14,-7.389794E-14,-1.4074048E38,False,False,0,None,2.6371991E29,1.0842437E-19,
43049971,11.188,9.094161639081957,62.69292790693409,15,565.78406,565.18146,0.057918902,-0.05685154,-0.9949562,0.99826074,0.28677943,0.13531266,-0.15669324,0.35370147,33,-331,1466,1503.0,-0.008616875,-0.0036439383,0.04669658,0.04762457,0.009355684059657891,-0.009355684059657891,3.2581259271038707,3.310011177291114,77.91620199136983,77.9162019913698,-0.09311334528048959,0.20611162918129933,0.03465037191440727,74.29267996005322,0.1939849985466121,0.19922129532041272,-15.880628399861259,-13.380333143581945,64.85,,,9.0941624,62.692928,20190920,185229,2019-09-20T18:52:29Z,623.602,0.72,1.16,12.21,8,7,15,0.01,0.0,-0.01,9.09416317631787,62.69292631127927,30,,,,,,,,,,,,,,,false,false,false,false,false,false,false,false,false,false,0,0,0,0,48,62,62,48,944,946,945,945,940,940,940,940,0.0,0.0,0.0,0.0,1502.5,1498.8,1500.6,1502.5,0.0,0.0,0.0,0.0,0,0,0,0,-45.0,0.0,0.0,,,,,,,,,,,,,,,,,,,,,,,,,,,,,,0.0,,,,,NONE,0.0,0.0,0.0,,,,,15.12,15.12,15.191,1.7343694,0,1131,3.774,12.0,1.343,34,26.1,OK,9,0,0,0,0,0,65,99,0.0,0,0.0,3.9537262E-11,9.0E-44,0.0,-4.950627E20,66,7.3897485E-14,-7.389794E-14,-1.4074048E38,False,False,0,None,2.6371991E29,1.0842437E-19,
43224897,11.234,9.094161639124406,62.69292798393512,15,565.4538,565.17206,0.056955837,-0.05676055,-0.99501485,0.99825865,0.27353653,0.14850643,0.039979633,0.3138069,30,-334,1466,1503.0,-0.008623405,-0.0038129697,0.048299827,0.049211536,0.009428778056227334,0.17890504937787555,3.2539102696431645,3.322166037417184,77.91639548789173,77.91639548789175,-0.09893711936244978,0.23407027024443558,0.048812373786053555,74.74091928343961,0.20184519605070778,0.20778341895212463,-2.485804286782673,0.014490969496640707,64.8,,,9.0941624,62.692928,20190920,185229,2019-09-20T18:52:29Z,623.602,0.72,1.16,12.21,8,7,15,0.01,0.0,-0.01,9.09416317631787,62.69292631127927,30,,,,,,,,,,,,,,,false,false,false,false,false,false,false,false,false,false,0,0,0,0,48,63,61,49,944,945,944,945,940,940,940,940,0.0,0.0,0.0,0.0,1502.5,1498.2,1500.6,1502.5,0.0,0.0,0.0,0.0,0,0,0,0,-45.0,0.0,0.0,,,,,,,,,,,,,,,,,,,,,,,,,,,,,,0.0,,,,,NONE,0.0,0.0,0.0,,,,,15.12,15.12,15.191,1.7343694,0,1131,3.774,12.0,1.343,34,26.1,OK,9,0,0,0,0,0,65,99,0.0,0,0.0,3.9537262E-11,9.0E-44,0.0,-4.950627E20,66,7.3897485E-14,-7.389794E-14,-1.4074048E38,False,False,0,None,2.6371991E29,1.0842437E-19,
43443559,11.291,9.094161639124406,62.69292798393512,15,565.4538,565.17206,0.056955837,-0.05676055,-0.99501485,0.99825865,0.27353653,0.14850643,0.039979633,0.3138069,30,-334,1466,1503.0,-0.008623405,-0.0038129697,0.048299827,0.049211536,0.009428778056227334,-0.009428778056227334,3.2539102696431645,3.322166037417184,77.91639548789173,77.91639548789175,-0.09893711936244978,0.23407027024443558,0.048812373786053555,74.74091928343961,0.20184519605070778,0.20778341895212463,-2.485804286782673,0.014490969496640707,64.8,,,9.0941624,62.692928,20190920,185229,2019-09-20T18:52:29Z,623.602,0.72,1.16,12.21,8,7,15,0.01,0.0,-0.01,9.09416317631787,62.69292631127927,30,,,,,,,,,,,,,,,false,false,false,false,false,false,false,false,false,false,0,0,0,0,48,63,61,49,944,945,944,945,940,940,940,940,0.0,0.0,0.0,0.0,1502.5,1498.2,1500.6,1502.5,0.0,0.0,0.0,0.0,0,0,0,0,-45.0,0.0,0.0,,,,,,,,,,,,,,,,,,,,,,,,,,,,,,0.0,,,,,NONE,0.0,0.0,0.0,,,,,15.12,15.12,15.191,1.7343694,0,1131,3.774,12.0,1.343,34,26.1,OK,9,0,0,0,0,0,65,99,0.0,0,0.0,3.9537262E-11,9.0E-44,0.0,-4.950627E20,66,7.3897485E-14,-7.389794E-14,-1.4074048E38,False,False,0,None,2.6371991E29,1.0842437E-19,
43608907,11.334,9.094161761820725,62.69292816029603,15,565.4723,565.18604,0.05745847,-0.055965472,-0.9963699,0.9995932,0.23916742,-0.11996064,-0.090033315,0.28230765,33,-331,1466,1503.0,-0.00903469,-0.008348371,0.037767425,0.039720263,0.01230125717663208,0.46671903609624865,3.2526847103601195,3.3186810002521234,77.92120483489397,77.92120483489396,-0.10143486015477678,0.2596548332075269,0.05023684406640369,74.25946108034952,0.2178953011027183,0.2283684561047312,15.200919889420076,17.70121514569939,64.8,,,9.0941624,62.692928,20190920,185229,2019-09-20T18:52:29Z,623.602,0.72,1.16,12.21,8,7,15,0.01,0.0,-0.01,9.09416317631787,62.69292631127927,30,,,,,,,,,,,,,,,false,false,false,false,false,false,false,false,false,false,0,0,0,0,49,62,61,48,944,946,944,945,940,940,940,940,0.0,0.0,0.0,0.0,1501.2,1498.2,1500.0,1501.8,0.0,0.0,0.0,0.0,0,0,0,0,-45.0,0.0,0.0,,,,,,,,,,,,,,,,,,,,,,,,,,,,,,0.0,,,,,NONE,0.0,0.0,0.0,,,,,15.12,15.12,15.189,1.7343694,0,1131,3.774,12.0,1.343,34,26.1,OK,9,0,0,0,0,0,65,99,0.0,0,0.0,4.476442E-8,9.0E-44,0.0,-4.950627E20,66,7.3897485E-14,-7.389794E-14,-1.4890537E38,False,False,0,None,2.7806745E29,1.0842437E-19,
43817950,11.388,9.094161761820725,62.69292816029603,15,565.4723,565.18604,0.05745847,-0.055965472,-0.9963699,0.9995932,0.23916742,-0.11996064,-0.090033315,0.28230765,33,-331,1466,1503.0,-0.00903469,-0.008348371,0.037767425,0.039720263,0.01230125717663208,-0.01230125717663208,3.2526847103601195,3.3186810002521234,77.92120483489397,77.92120483489396,-0.10143486015477678,0.2596548332075269,0.05023684406640369,74.25946108034952,0.2178953011027183,0.2283684561047312,15.200919889420076,17.70121514569939,64.8,,,9.094162,62.692928,20190920,185229,2019-09-20T18:52:29Z,623.596,0.72,1.16,12.08,8,7,15,0.0,-0.02,0.0,9.09416317631787,62.69292631127927,30,,,,,,,,,,,,,,,false,false,false,false,false,false,false,false,false,false,0,0,0,0,49,62,61,48,944,946,944,945,940,940,940,940,0.0,0.0,0.0,0.0,1501.2,1498.2,1500.0,1501.8,0.0,0.0,0.0,0.0,0,0,0,0,-45.0,0.0,0.0,,,,,,,,,,,,,,,,,,,,,,,,,,,,,,0.0,,,,,NONE,0.0,0.0,0.0,,,,,15.12,15.12,15.189,1.7343694,0,1131,3.774,12.0,1.343,34,26.1,OK,9,0,0,0,0,0,65,99,0.0,0,0.0,4.476442E-8,9.0E-44,0.0,-4.950627E20,66,7.3897485E-14,-7.389794E-14,-1.4890537E38,False,False,0,None,2.7806745E29,1.0842437E-19,
43992881,11.434,9.094161688584698,62.69292820499323,15,565.42474,565.19147,0.05597631,-0.05693187,-0.9942525,0.9974531,0.14513482,-0.04213524,-0.25158265,0.2934848,33,-331,1466,1503.0,-0.008523257,-0.0081269555,0.030425308,0.03262503,0.01177681257859396,0.12498306636454713,3.230074136906361,3.3015474418395883,77.9279878683819,77.92798786838193,-0.11848032268400793,0.27883019451454427,0.0421488172797938,74.29296131807776,0.2238300099597761,0.23458607764055847,-39.431509496365756,-36.93121424008644,64.86,,,9.094162,62.692928,20190920,185229,2019-09-20T18:52:29Z,623.596,0.72,1.16,12.08,8,7,15,0.0,-0.02,0.0,9.09416317631787,62.69292631127927,30,,,,,,,,,,,,,,,false,false,false,false,false,false,false,false,false,false,0,0,0,0,49,62,62,49,944,946,944,945,940,940,940,940,0.0,0.0,0.0,0.0,1503.1,1498.8,1500.0,1502.5,0.0,0.0,0.0,0.0,0,0,0,0,-45.0,0.0,0.0,,,,,,,,,,,,,,,,,,,,,,,,,,,,,,0.0,,,,,NONE,0.0,0.0,0.0,,,,,15.12,15.12,15.189,1.7343694,0,1131,3.774,12.0,1.343,34,26.1,OK,9,0,0,0,0,0,65,99,0.0,0,0.0,4.476442E-8,9.0E-44,0.0,-4.950627E20,66,7.3897485E-14,-7.389794E-14,-1.4890537E38,False,False,0,None,2.7806745E29,1.0842437E-19,
44301526,11.514,9.094161688584698,62.69292820499323,15,565.42474,565.19147,0.05597631,-0.05693187,-0.9942525,0.9974531,0.14513482,-0.04213524,-0.25158265,0.2934848,33,-331,1466,1503.0,-0.008523257,-0.0081269555,0.030425308,0.03262503,0.01177681257859396,-0.01177681257859396,3.230074136906361,3.3015474418395883,77.9279878683819,77.92798786838193,-0.11848032268400793,0.27883019451454427,0.0421488172797938,74.29296131807776,0.2238300099597761,0.23458607764055847,-39.431509496365756,-36.93121424008644,64.86,,,9.094162,62.692928,20190920,185229,2019-09-20T18:52:29Z,623.596,0.72,1.16,12.08,8,7,15,0.0,-0.02,0.0,9.09416317631787,62.69292631127927,30,,,,,,,,,,,,,,,false,false,false,false,false,false,false,false,false,false,0,0,0,0,49,63,63,49,944,945,945,945,940,940,940,940,0.0,0.0,0.0,0.0,1503.1,1499.4,1500.0,1502.5,0.0,0.0,0.0,0.0,0,0,0,0,-45.0,0.0,0.0,,,,,,,,,,,,,,,,,,,,,,,,,,,,,,0.0,,,,,NONE,0.0,0.0,0.0,,,,,15.12,15.12,15.189,1.7343694,0,1131,3.774,12.0,1.343,34,26.1,OK,9,0,0,0,0,0,65,99,0.0,0,0.0,4.476442E-8,9.0E-44,0.0,-4.950627E20,66,7.3897485E-14,-7.389794E-14,-1.4890537E38,False,False,0,None,2.7806745E29,1.0842437E-19,
44480492,11.560,9.094161608506964,62.69292825287183,15,565.50665,565.19244,0.056680523,-0.05665423,-0.9933948,0.9966221,0.20348895,-0.11861372,-0.08942353,0.25193956,33,-331,1466,1503.0,0.003016226,-0.0038625447,0.026197914,0.026652347,0.004900700986249723,0.13937095511606581,3.2284143554292113,3.2993260047387656,77.92932029453483,77.92932029453482,-0.1354967327252644,0.296226725444042,0.034127349410358915,74.29854041944017,0.23023255211215718,0.24129650756129215,-39.998685059381266,-37.49838980310195,64.79,,,9.094162,62.692928,20190920,185229,2019-09-20T18:52:29Z,623.596,0.72,1.16,12.08,8,7,15,0.0,-0.02,0.0,9.09416317631787,62.69292631127927,30,,,,,,,,,,,,,,,false,false,false,false,false,false,false,false,false,false,0,0,0,0,49,63,63,49,944,945,945,945,940,940,940,940,0.0,0.0,0.0,0.0,1503.1,1499.4,1500.0,1502.5,0.0,0.0,0.0,0.0,0,0,0,0,-45.0,0.0,0.0,,,,,,,,,,,,,,,,,,,,,,,,,,,,,,0.0,,,,,NONE,0.0,0.0,0.0,,,,,15.12,15.12,15.191,1.7317821,0,1130,3.774,12.0,1.41,34,26.1,OK,10,0,0,0,0,0,65,99,0.0,0,0.0,1.48052095E-8,9.0E-44,0.0,-4.950627E20,66,7.3897485E-14,-7.389794E-14,-1.5293459E38,False,False,0,None,2.8514692E29,1.0842437E-19,
44685237,11.613,9.094161608506964,62.69292825287183,15,565.50665,565.19244,0.056680523,-0.05665423,-0.9933948,0.9966221,0.20348895,-0.11861372,-0.08942353,0.25193956,33,-331,1466,1503.0,0.003016226,-0.0038625447,0.026197914,0.026652347,0.004900700986249723,-0.004900700986249723,3.2284143554292113,3.2993260047387656,77.92932029453483,77.92932029453482,-0.1354967327252644,0.296226725444042,0.034127349410358915,74.29854041944017,0.23023255211215718,0.24129650756129215,-39.998685059381266,-37.49838980310195,64.79,,,9.0941617,62.692928,20190920,185229,2019-09-20T18:52:29Z,623.6,0.72,1.16,11.93,8,7,15,-0.01,0.01,0.0,9.09416317631787,62.69292631127927,30,,,,,,,,,,,,,,,false,false,false,false,false,false,false,false,false,false,0,0,0,0,49,63,63,49,944,945,945,945,940,940,940,940,0.0,0.0,0.0,0.0,1503.1,1499.4,1500.0,1502.5,0.0,0.0,0.0,0.0,0,0,0,0,-45.0,0.0,0.0,,,,,,,,,,,,,,,,,,,,,,,,,,,,,,0.0,,,,,NONE,0.0,0.0,0.0,,,,,15.12,15.12,15.191,1.7317821,0,1130,3.774,12.0,1.41,34,26.1,OK,10,0,0,0,0,0,65,99,0.0,0,0.0,1.48052095E-8,9.0E-44,0.0,-4.950627E20,66,7.3897485E-14,-7.389794E-14,-1.5293459E38,False,False,0,None,2.8514692E29,1.0842437E-19,
45069336,11.713,9.094161449170898,62.692928338098675,15,565.4934,565.2042,0.057572097,-0.056229386,-0.99460095,0.9978514,0.29702702,0.015828019,-0.004940301,0.29748946,30,-331,1466,1503.0,0.0037589346,-0.0043246355,0.016687438,0.01764377,0.005729926722225316,0.11933770270737941,3.2365721910061276,3.3240296020104783,77.93008223457436,77.93008223457434,-0.14020545772592133,0.3212023107398436,0.02899837588444865,74.61190794019694,0.24198138925081242,0.2537814599734557,-43.11914544231132,-40.618850186032006,64.8,,,9.0941617,62.692928,20190920,185229,2019-09-20T18:52:29Z,623.6,0.72,1.16,11.93,8,7,15,-0.01,0.01,0.0,9.09416317631787,62.69292631127927,30,,,,,,,,,,,,,,,false,false,false,false,false,false,false,false,false,false,0,0,0,0,49,62,63,48,944,946,945,944,940,940,940,940,0.0,0.0,0.0,0.0,1501.8,1498.2,1499.4,1501.8,0.0,0.0,0.0,0.0,0,0,0,0,-45.0,0.0,0.0,,,,,,,,,,,,,,,,,,,,,,,,,,,,,,0.0,,,,,NONE,0.0,0.0,0.0,,,,,15.12,15.12,15.191,1.7317821,0,1130,3.774,12.0,1.41,34,26.1,OK,10,0,0,0,0,0,65,99,0.0,0,0.0,1.48052095E-8,9.0E-44,0.0,-4.950627E20,66,7.3897485E-14,-7.389794E-14,-1.5293459E38,False,False,0,None,2.8514692E29,1.0842437E-19,
45298513,11.773,9.094161079068382,62.692928403028624,15,565.60175,565.21466,0.056886505,-0.056325793,-0.9939261,0.9971448,0.31620106,-0.08306308,-0.08705622,0.3383214,30,-331,1469,1506.0,0.002986245,-0.0153356455,0.021420311,0.026512817,0.015623690039886947,0.32373614108549553,3.2366041610360248,3.3231367222086368,77.93363246489389,77.93363246489389,-0.14479610252203184,0.3518025147833501,0.02564333293359306,74.59846895248877,0.2560168584510854,0.2739944360417099,-71.57254370334964,-69.07224844707032,64.84,,,9.0941617,62.692928,20190920,185229,2019-09-20T18:52:29Z,623.6,0.72,1.16,11.93,8,7,15,-0.01,0.01,0.0,9.09416317631787,62.69292631127927,30,,,,,,,,,,,,,,,false,false,false,false,false,false,false,false,false,false,0,0,0,0,49,62,63,48,944,946,945,944,940,940,940,940,0.0,0.0,0.0,0.0,1501.8,1498.2,1499.4,1501.8,0.0,0.0,0.0,0.0,0,0,0,0,-45.0,0.0,0.0,,,,,,,,,,,,,,,,,,,,,,,,,,,,,,0.0,,,,,NONE,0.0,0.0,0.0,,,,,15.12,15.12,15.194,1.7317821,0,1130,3.774,12.0,1.41,34,26.1,OK,10,0,0,0,0,0,65,99,0.0,0,0.0,2.0239366E-11,9.0E-44,0.0,-4.950627E20,66,7.3897485E-14,-7.389794E-14,-1.6055688E38,False,False,0,None,2.9853698E29,1.0842437E-19,
45440799,11.810,9.094161079068382,62.692928403028624,15,565.60175,565.21466,0.056886505,-0.056325793,-0.9939261,0.9971448,0.31620106,-0.08306308,-0.08705622,0.3383214,30,-331,1469,1506.0,0.002986245,-0.0153356455,0.021420311,0.026512817,0.015623690039886947,-0.015623690039886947,3.2366041610360248,3.3231367222086368,77.93363246489389,77.93363246489389,-0.14479610252203184,0.3518025147833501,0.02564333293359306,74.59846895248877,0.2560168584510854,0.2739944360417099,-71.57254370334964,-69.07224844707032,64.84,,,9.0941613,62.6929281,20190920,185230,2019-09-20T18:52:30Z,623.587,0.72,1.16,11.78,8,7,15,0.01,-0.01,0.0,9.09416317631787,62.69292631127927,30,,,,,,,,,,,,,,,false,false,false,false,false,false,false,false,false,false,0,0,0,0,49,62,63,48,944,946,945,944,940,940,940,940,0.0,0.0,0.0,0.0,1501.8,1498.2,1499.4,1501.8,0.0,0.0,0.0,0.0,0,0,0,0,-45.0,0.0,0.0,,,,,,,,,,,,,,,,,,,,,,,,,,,,,,0.0,,,,,NONE,0.0,0.0,0.0,,,,,15.12,15.12,15.194,1.7317821,0,1130,3.774,12.0,1.41,34,26.1,OK,10,0,0,0,0,0,65,99,0.0,0,0.0,2.0239366E-11,9.0E-44,0.0,-4.950627E20,66,7.3897485E-14,-7.389794E-14,-1.6055688E38,False,False,0,None,2.9853698E29,1.0842437E-19,
45837340,11.913,9.09416084407638,62.692928409475876,15,565.3481,565.21924,0.05692216,-0.057294216,-0.99491435,0.998187,0.3367887,0.13159634,-0.23531075,0.4314109,30,-331,1472,1509.0,0.0032742762,-0.015095104,0.017295312,0.023188595,0.0154461345957914,0.10107675262719852,3.255843585914863,3.2878329031144227,77.93529631751235,77.93529631751233,-0.16088357660025454,0.3843894642330706,0.02806534787152596,74.71514765728233,0.26189167026122506,0.28600319509836497,-89.07780369438443,-86.57750843810511,64.86,,,9.0941613,62.6929281,20190920,185230,2019-09-20T18:52:30Z,623.587,0.72,1.16,11.78,8,7,15,0.01,-0.01,0.0,9.09416317631787,62.69292631127927,30,,,,,,,,,,,,,,,false,false,false,false,false,false,false,false,false,false,0,0,0,0,49,63,61,48,944,946,945,945,940,940,940,940,0.0,0.0,0.0,0.0,1501.8,1499.4,1500.0,1501.8,0.0,0.0,0.0,0.0,0,0,0,0,-45.0,0.0,0.0,,,,,,,,,,,,,,,,,,,,,,,,,,,,,,0.0,,,,,NONE,0.0,0.0,0.0,,,,,15.12,15.12,15.194,1.7317821,0,1130,3.774,12.0,1.41,34,26.1,OK,10,0,0,0,0,0,65,99,0.0,0,0.0,2.0239366E-11,9.0E-44,0.0,-4.950627E20,66,7.3897485E-14,-7.389794E-14,-1.6055688E38,False,False,0,None,2.9853698E29,1.0842437E-19,
46121942,11.987,9.094160601352959,62.69292841583468,15,565.47754,565.22125,0.057206716,-0.056380205,-0.9940955,0.997335,0.22853161,0.026394859,-0.19343784,0.30056876,33,-331,1466,1503.0,-0.0034774195,-6.0537574E-4,0.015818229,0.016207261,0.0035297203846759127,0.16413886586168586,3.252399207527609,3.2879520151304464,77.93711747966621,77.9371174796662,-0.18227838506700994,0.41259928136858925,0.03594920199466912,74.35837545535968,0.2683600823546685,0.29840510142757126,-89.23193188856283,-86.73163663228351,64.89,,,9.094161,62.6929281,20190920,185230,2019-09-20T18:52:30Z,623.58,0.72,1.16,11.63,8,7,15,-0.01,0.01,0.01,9.09416317631787,62.69292631127927,30,,,,,,,,,,,,,,,false,false,false,false,false,false,false,false,false,false,0,0,0,0,49,63,61,48,944,946,945,945,940,940,940,940,0.0,0.0,0.0,0.0,1501.8,1499.4,1500.0,1501.8,0.0,0.0,0.0,0.0,0,0,0,0,-45.0,0.0,0.0,,,,,,,,,,,,,,,,,,,,,,,,,,,,,,0.0,,,,,NONE,0.0,0.0,0.0,,,,,15.119,15.119,15.194,1.7317821,0,1130,3.775,12.0,1.41,34,26.1,OK,10,0,0,0,0,0,65,99,0.0,0,0.0,2.7102886E-14,9.0E-44,0.0,-4.950627E20,66,7.3897485E-14,-7.389794E-14,-1.6494437E38,False,False,0,None,3.0624509E29,1.0842437E-19,
46296879,12.032,9.094160404208802,62.692928391544775,15,565.68365,565.2321,0.05689415,-0.0569966,-0.9949456,0.9981995,0.1542034,0.0088627655,-0.11454756,0.19229764,30,-331,1463,1500.0,-0.0031076325,-0.0014289175,0.0053617875,0.0063598705,0.0034204071470862745,0.2256119779391951,3.220205647036337,3.305241605719659,77.94120919581786,77.94120919581786,-0.19764503688645618,0.43169549758681053,0.03770834908062048,74.67366862576608,0.2711151096493392,0.3088181373580853,-107.53346583937106,-105.03317058309175,64.87,,,9.094161,62.6929281,20190920,185230,2019-09-20T18:52:30Z,623.58,0.72,1.16,11.63,8,7,15,-0.01,0.01,0.01,9.09416317631787,62.69292631127927,30,,,,,,,,,,,,,,,false,false,false,false,false,false,false,false,false,false,0,0,0,0,49,62,62,48,944,946,945,945,940,940,940,940,0.0,0.0,0.0,0.0,1501.8,1498.2,1500.0,1501.8,0.0,0.0,0.0,0.0,0,0,0,0,-45.0,0.0,0.0,,,,,,,,,,,,,,,,,,,,,,,,,,,,,,0.0,,,,,NONE,0.0,0.0,0.0,,,,,15.119,15.119,15.194,1.7317821,0,1130,3.775,12.0,1.41,34,26.1,OK,10,0,0,0,0,0,65,99,0.0,0,0.0,2.7102886E-14,9.0E-44,0.0,-4.950627E20,66,7.3897485E-14,-7.389794E-14,-1.6494437E38,False,False,0,None,3.0624509E29,1.0842437E-19,
46605305,12.113,9.094160404208802,62.692928391544775,15,565.68365,565.2321,0.05689415,-0.0569966,-0.9949456,0.9981995,0.1542034,0.0088627655,-0.11454756,0.19229764,30,-331,1463,1500.0,-0.0031076325,-0.0014289175,0.0053617875,0.0063598705,0.0034204071470862745,-0.0034204071470862745,3.220205647036337,3.305241605719659,77.94120919581786,77.94120919581786,-0.19764503688645618,0.43169549758681053,0.03770834908062048,74.67366862576608,0.2711151096493392,0.3088181373580853,-107.53346583937106,-105.03317058309175,64.87,,,9.094161,62.6929281,20190920,185230,2019-09-20T18:52:30Z,623.58,0.72,1.16,11.63,8,7,15,-0.01,0.01,0.01,9.09416317631787,62.69292631127927,30,,,,,,,,,,,,,,,false,false,false,false,false,false,false,false,false,false,0,0,0,0,49,61,62,49,944,945,944,945,940,940,940,940,0.0,0.0,0.0,0.0,1502.5,1500.0,1500.0,1502.5,0.0,0.0,0.0,0.0,0,0,0,0,-45.0,0.0,0.0,,,,,,,,,,,,,,,,,,,,,,,,,,,,,,0.0,,,,,NONE,0.0,0.0,0.0,,,,,15.119,15.119,15.194,1.7317821,0,1130,3.775,12.0,1.41,34,26.1,OK,10,0,0,0,0,0,65,99,0.0,0,0.0,2.7102886E-14,9.0E-44,0.0,-4.950627E20,66,7.3897485E-14,-7.389794E-14,-1.6494437E38,False,False,0,None,3.0624509E29,1.0842437E-19,
46889938,12.186,9.094160404208802,62.692928391544775,15,565.68365,565.2321,0.05689415,-0.0569966,-0.9949456,0.9981995,0.1542034,0.0088627655,-0.11454756,0.19229764,30,-331,1463,1500.0,-0.0031076325,-0.0014289175,0.0053617875,0.0063598705,0.0034204071470862745,-0.0034204071470862745,3.220205647036337,3.305241605719659,77.94120919581786,77.94120919581786,-0.19764503688645618,0.43169549758681053,0.03770834908062048,74.67366862576608,0.2711151096493392,0.3088181373580853,-107.53346583937106,-105.03317058309175,64.87,,,9.0941606,62.6929282,20190920,185230,2019-09-20T18:52:30Z,623.597,0.72,1.16,11.47,8,7,15,-0.01,0.0,0.0,9.09416317631787,62.69292631127927,30,,,,,,,,,,,,,,,false,false,false,false,false,false,false,false,false,false,0,0,0,0,49,61,62,49,944,945,944,945,940,940,940,940,0.0,0.0,0.0,0.0,1502.5,1500.0,1500.0,1502.5,0.0,0.0,0.0,0.0,0,0,0,0,-45.0,0.0,0.0,,,,,,,,,,,,,,,,,,,,,,,,,,,,,,0.0,,,,,NONE,0.0,0.0,0.0,,,,,15.119,15.119,15.194,1.7317821,0,1130,3.775,12.0,1.41,34,26.1,OK,10,0,0,0,0,0,65,99,0.0,0,0.0,2.7102886E-14,9.0E-44,0.0,-4.950627E20,66,7.3897485E-14,-7.389794E-14,-1.6494437E38,False,False,0,None,3.0624509E29,1.0842437E-19,
47064899,12.232,9.094159718803764,62.69292816902225,15,565.6308,565.2311,0.05744443,-0.056441557,-0.99325484,0.99651426,0.29071525,0.044302903,-0.053175256,0.2988406,33,-334,1472,1509.0,0.007573446,-0.0068950993,0.01255028,0.016199043,0.010242044450990669,0.9317379476128586,3.245531703151107,3.284734550861011,77.94165301082,77.94165301082,-0.2143841902982878,0.4760994802437582,0.04301441444229863,74.4386875969811,0.2716238146047283,0.35165145632564593,-127.78688148968708,-125.28658623340776,64.88,,,9.0941606,62.6929282,20190920,185230,2019-09-20T18:52:30Z,623.597,0.72,1.16,11.47,8,7,15,-0.01,0.0,0.0,9.09416317631787,62.69292631127927,30,,,,,,,,,,,,,,,false,false,false,false,false,false,false,false,false,false,0,0,0,0,49,62,62,48,944,946,945,945,940,940,940,940,0.0,0.0,0.0,0.0,1502.5,1498.8,1500.0,1502.5,0.0,0.0,0.0,0.0,0,0,0,0,-45.0,0.0,0.0,,,,,,,,,,,,,,,,,,,,,,,,,,,,,,0.0,,,,,NONE,0.0,0.0,0.0,,,,,15.119,15.119,15.194,1.7317821,0,1130,3.775,12.0,1.41,34,26.1,OK,10,0,0,0,0,0,65,99,0.0,0,0.0,2.7102886E-14,9.0E-44,0.0,-4.950627E20,66,7.3897485E-14,-7.389794E-14,-1.6494437E38,False,False,0,None,3.0624509E29,1.0842437E-19,
47360778,12.309,9.094159718803764,62.69292816902225,15,565.6308,565.2311,0.05744443,-0.056441557,-0.99325484,0.99651426,0.29071525,0.044302903,-0.053175256,0.2988406,33,-334,1472,1509.0,0.007573446,-0.0068950993,0.01255028,0.016199043,0.010242044450990669,-0.010242044450990669,3.245531703151107,3.284734550861011,77.94165301082,77.94165301082,-0.2143841902982878,0.4760994802437582,0.04301441444229863,74.4386875969811,0.2716238146047283,0.35165145632564593,-127.78688148968708,-125.28658623340776,64.88,,,9.0941606,62.6929282,20190920,185230,2019-09-20T18:52:30Z,623.597,0.72,1.16,11.47,8,7,15,-0.01,0.0,0.0,9.09416317631787,62.69292631127927,30,,,,,,,,,,,,,,,false,false,false,false,false,false,false,false,false,false,0,0,0,0,49,62,62,48,944,946,945,945,940,940,940,940,0.0,0.0,0.0,0.0,1502.5,1498.8,1500.0,1502.5,0.0,0.0,0.0,0.0,0,0,0,0,-45.0,0.0,0.0,,,,,,,,,,,,,,,,,,,,,,,,,,,,,,0.0,,,,,NONE,0.0,0.0,0.0,,,,,15.119,15.119,15.194,1.7317821,0,1130,3.775,12.0,1.41,34,26.1,OK,10,0,0,0,0,0,65,99,0.0,0,0.0,2.7102886E-14,9.0E-44,0.0,-4.950627E20,66,7.3897485E-14,-7.389794E-14,-1.6494437E38,False,False,0,None,3.0624509E29,1.0842437E-19,
47657938,12.386,9.094159496543066,62.692928198323635,15,565.2133,565.2264,0.058326248,-0.056448236,-0.99365586,0.9969655,0.22592413,-0.07354198,-0.088146314,0.25341648,33,-331,1466,1503.0,-0.0010685027,0.003500698,0.016693808,0.017090343,0.0036601343143674385,0.14908717176306804,3.2441730395730373,3.282527802665241,77.94241977525787,77.94241977525786,-0.22143607308447946,0.5018795516098136,0.04155539782630209,74.36800124838113,0.2815389167824441,0.36344821529177396,-76.46726238394797,-73.96696712766865,64.9,,,9.0941603,62.6929282,20190920,185230,2019-09-20T18:52:30Z,623.61,0.72,1.16,11.33,8,7,15,0.0,-0.01,0.0,9.09416317631787,62.69292631127927,30,,,,,,,,,,,,,,,false,false,false,false,false,false,false,false,false,false,0,0,0,0,49,63,61,49,944,945,945,945,940,940,940,940,0.0,0.0,0.0,0.0,1502.5,1498.8,1499.4,1503.1,0.0,0.0,0.0,0.0,0,0,0,0,-45.0,0.0,0.0,,,,,,,,,,,,,,,,,,,,,,,,,,,,,,0.0,,,,,NONE,0.0,0.0,0.0,,,,,15.117,15.117,15.192,1.7317821,0,1130,3.775,12.0,1.41,34,26.1,OK,10,0,0,0,0,0,65,99,0.0,0,0.0,7.5328366E-23,9.0E-44,0.0,-4.950627E20,66,7.3897485E-14,-7.389794E-14,-1.688386E38,False,False,0,None,3.1308277E29,1.0842437E-19,
47837959,12.433,9.094159496543066,62.692928198323635,15,565.2133,565.2264,0.058326248,-0.056448236,-0.99365586,0.9969655,0.22592413,-0.07354198,-0.088146314,0.25341648,33,-331,1466,1503.0,-0.0010685027,0.003500698,0.016693808,0.017090343,0.0036601343143674385,-0.0036601343143674385,3.2441730395730373,3.282527802665241,77.94241977525787,77.94241977525786,-0.22143607308447946,0.5018795516098136,0.04155539782630209,74.36800124838113,0.2815389167824441,0.36344821529177396,-76.46726238394797,-73.96696712766865,64.9,,,9.0941603,62.6929282,20190920,185230,2019-09-20T18:52:30Z,623.61,0.72,1.16,11.33,8,7,15,0.0,-0.01,0.0,9.09416317631787,62.69292631127927,30,,,,,,,,,,,,,,,false,false,false,false,false,false,false,false,false,false,0,0,0,0,49,62,62,49,944,947,945,945,940,940,940,940,0.0,0.0,0.0,0.0,1503.1,1499.4,1500.0,1502.5,0.0,0.0,0.0,0.0,0,0,0,0,-45.0,0.0,0.0,,,,,,,,,,,,,,,,,,,,,,,,,,,,,,0.0,,,,,NONE,0.0,0.0,0.0,,,,,15.117,15.117,15.192,1.7317821,0,1130,3.775,12.0,1.41,34,26.1,OK,10,0,0,0,0,0,65,99,0.0,0,0.0,7.5328366E-23,9.0E-44,0.0,-4.950627E20,66,7.3897485E-14,-7.389794E-14,-1.688386E38,False,False,0,None,3.1308277E29,1.0842437E-19,
48141435,12.512,9.094159496543066,62.692928198323635,15,565.2133,565.2264,0.058326248,-0.056448236,-0.99365586,0.9969655,0.22592413,-0.07354198,-0.088146314,0.25341648,33,-331,1466,1503.0,-0.0010685027,0.003500698,0.016693808,0.017090343,0.0036601343143674385,-0.0036601343143674385,3.2441730395730373,3.282527802665241,77.94241977525787,77.94241977525786,-0.22143607308447946,0.5018795516098136,0.04155539782630209,74.36800124838113,0.2815389167824441,0.36344821529177396,-76.46726238394797,-73.96696712766865,64.9,,,9.0941603,62.6929282,20190920,185230,2019-09-20T18:52:30Z,623.61,0.72,1.16,11.33,8,7,15,0.0,-0.01,0.0,9.09416317631787,62.69292631127927,30,,,,,,,,,,,,,,,false,false,false,false,false,false,false,false,false,false,0,0,0,0,49,61,62,49,944,945,945,944,940,940,940,940,0.0,0.0,0.0,0.0,1503.1,1498.8,1500.0,1502.5,0.0,0.0,0.0,0.0,0,0,0,0,-45.0,0.0,0.0,,,,,,,,,,,,,,,,,,,,,,,,,,,,,,0.0,,,,,NONE,0.0,0.0,0.0,,,,,15.117,15.117,15.192,1.7317821,0,1130,3.775,12.0,1.41,34,26.1,OK,10,0,0,0,0,0,65,99,0.0,0,0.0,7.5328366E-23,9.0E-44,0.0,-4.950627E20,66,7.3897485E-14,-7.389794E-14,-1.688386E38,False,False,0,None,3.1308277E29,1.0842437E-19,
48298274,12.553,9.094159496543066,62.692928198323635,15,565.2133,565.2264,0.058326248,-0.056448236,-0.99365586,0.9969655,0.22592413,-0.07354198,-0.088146314,0.25341648,33,-331,1466,1503.0,-0.0010685027,0.003500698,0.016693808,0.017090343,0.0036601343143674385,-0.0036601343143674385,3.2441730395730373,3.282527802665241,77.94241977525787,77.94241977525786,-0.22143607308447946,0.5018795516098136,0.04155539782630209,74.36800124838113,0.2815389167824441,0.36344821529177396,-76.46726238394797,-73.96696712766865,64.9,,,9.0941603,62.6929282,20190920,185230,2019-09-20T18:52:30Z,623.61,0.72,1.16,11.33,8,7,15,0.0,-0.01,0.0,9.09416317631787,62.69292631127927,30,,,,,,,,,,,,,,,false,false,false,false,false,false,false,false,false,false,0,0,0,0,49,61,62,49,944,945,945,944,940,940,940,940,0.0,0.0,0.0,0.0,1503.1,1498.8,1500.0,1502.5,0.0,0.0,0.0,0.0,0,0,0,0,-45.0,0.0,0.0,,,,,,,,,,,,,,,,,,,,,,,,,,,,,,0.0,,,,,NONE,0.0,0.0,0.0,,,,,15.117,15.117,15.192,1.7317821,0,1130,3.775,12.0,1.41,34,26.1,OK,10,0,0,0,0,0,65,99,0.0,0,0.0,7.5328366E-23,9.0E-44,0.0,-4.950627E20,66,7.3897485E-14,-7.389794E-14,-1.688386E38,False,False,0,None,3.1308277E29,1.0842437E-19,
48445232,12.591,9.094159496543066,62.692928198323635,15,565.2133,565.2264,0.058326248,-0.056448236,-0.99365586,0.9969655,0.22592413,-0.07354198,-0.088146314,0.25341648,33,-331,1466,1503.0,-0.0010685027,0.003500698,0.016693808,0.017090343,0.0036601343143674385,-0.0036601343143674385,3.2441730395730373,3.282527802665241,77.94241977525787,77.94241977525786,-0.22143607308447946,0.5018795516098136,0.04155539782630209,74.36800124838113,0.2815389167824441,0.36344821529177396,-76.46726238394797,-73.96696712766865,64.9,,,9.0941601,62.6929283,20190920,185230,2019-09-20T18:52:30Z,623.624,0.72,1.16,11.19,8,7,15,-0.01,0.01,0.01,9.09416317631787,62.69292631127927,30,,,,,,,,,,,,,,,false,false,false,false,false,false,false,false,false,false,0,0,0,0,49,61,62,49,944,945,945,944,940,940,940,940,0.0,0.0,0.0,0.0,1503.1,1498.8,1500.0,1502.5,0.0,0.0,0.0,0.0,0,0,0,0,-45.0,0.0,0.0,,,,,,,,,,,,,,,,,,,,,,,,,,,,,,0.0,,,,,NONE,0.0,0.0,0.0,,,,,15.117,15.117,15.192,1.7317821,0,1130,3.775,12.0,1.41,34,26.1,OK,10,0,0,0,0,0,65,99,0.0,0,0.0,7.5328366E-23,9.0E-44,0.0,-4.950627E20,66,7.3897485E-14,-7.389794E-14,-1.688386E38,False,False,0,None,3.1308277E29,1.0842437E-19,
48600908,12.631,9.09415893057655,62.692928196478604,15,565.51984,565.21875,0.057279576,-0.05655039,-0.99449104,0.9977431,0.19348966,-0.075312324,0.05165963,0.21396007,30,-331,1469,1506.0,-0.0041834572,0.001997234,0.02005636,0.020585136,0.0046357585674100575,0.7089579776894654,3.2215377504256173,3.302452366144686,77.94308797866711,77.94308797866711,-0.22689818022357705,0.5646663770295189,0.019271703633787062,74.65135650765154,0.3014140780631042,0.39231985769776334,-92.90743407035373,-90.40713881407441,64.92,,,9.0941601,62.6929283,20190920,185230,2019-09-20T18:52:30Z,623.624,0.72,1.16,11.19,8,7,15,-0.01,0.01,0.01,9.09416317631787,62.69292631127927,30,,,,,,,,,,,,,,,false,false,false,false,false,false,false,false,false,false,0,0,0,0,49,61,62,49,944,945,945,944,940,940,940,940,0.0,0.0,0.0,0.0,1503.1,1498.8,1500.0,1502.5,0.0,0.0,0.0,0.0,0,0,0,0,-45.0,0.0,0.0,,,,,,,,,,,,,,,,,,,,,,,,,,,,,,0.0,,,,,NONE,0.0,0.0,0.0,,,,,15.117,15.117,15.192,1.7317821,0,1130,3.775,12.0,1.41,34,26.1,OK,10,0,0,0,0,0,65,99,0.0,0,0.0,7.5328366E-23,9.0E-44,0.0,-4.950627E20,66,7.3897485E-14,-7.389794E-14,-1.688386E38,False,False,0,None,3.1308277E29,1.0842437E-19,
48755563,12.671,9.09415893057655,62.692928196478604,15,565.51984,565.21875,0.057279576,-0.05655039,-0.99449104,0.9977431,0.19348966,-0.075312324,0.05165963,0.21396007,30,-331,1469,1506.0,-0.0041834572,0.001997234,0.02005636,0.020585136,0.0046357585674100575,-0.0046357585674100575,3.2215377504256173,3.302452366144686,77.94308797866711,77.94308797866711,-0.22689818022357705,0.5646663770295189,0.019271703633787062,74.65135650765154,0.3014140780631042,0.39231985769776334,-92.90743407035373,-90.40713881407441,64.92,,,9.0941601,62.6929283,20190920,185230,2019-09-20T18:52:30Z,623.624,0.72,1.16,11.19,8,7,15,-0.01,0.01,0.01,9.09416317631787,62.69292631127927,30,,,,,,,,,,,,,,,false,false,false,false,false,false,false,false,false,false,0,0,0,0,49,61,62,49,944,945,945,944,940,940,940,940,0.0,0.0,0.0,0.0,1503.1,1498.8,1500.0,1502.5,0.0,0.0,0.0,0.0,0,0,0,0,-45.0,0.0,0.0,,,,,,,,,,,,,,,,,,,,,,,,,,,,,,0.0,,,,,NONE,0.0,0.0,0.0,,,,,15.117,15.117,15.192,1.7317821,0,1130,3.775,12.0,1.41,34,26.1,OK,10,0,0,0,0,0,65,99,0.0,0,0.0,7.5328366E-23,9.0E-44,0.0,-4.950627E20,66,7.3897485E-14,-7.389794E-14,-1.688386E38,False,False,0,None,3.1308277E29,1.0842437E-19,
48909688,12.711,9.09415893057655,62.692928196478604,15,565.51984,565.21875,0.057279576,-0.05655039,-0.99449104,0.9977431,0.19348966,-0.075312324,0.05165963,0.21396007,30,-331,1469,1506.0,-0.0041834572,0.001997234,0.02005636,0.020585136,0.0046357585674100575,-0.0046357585674100575,3.2215377504256173,3.302452366144686,77.94308797866711,77.94308797866711,-0.22689818022357705,0.5646663770295189,0.019271703633787062,74.65135650765154,0.3014140780631042,0.39231985769776334,-92.90743407035373,-90.40713881407441,64.92,,,9.0941601,62.6929283,20190920,185230,2019-09-20T18:52:30Z,623.624,0.72,1.16,11.19,8,7,15,-0.01,0.01,0.01,9.09416317631787,62.69292631127927,30,,,,,,,,,,,,,,,false,false,false,false,false,false,false,false,false,false,0,0,0,0,49,63,62,50,944,946,945,945,940,940,940,940,0.0,0.0,0.0,0.0,1502.5,1500.0,1500.0,1501.2,0.0,0.0,0.0,0.0,0,0,0,0,-45.0,0.0,0.0,,,,,,,,,,,,,,,,,,,,,,,,,,,,,,0.0,,,,,NONE,0.0,0.0,0.0,,,,,15.117,15.117,15.192,1.7317821,0,1130,3.775,12.0,1.41,34,26.1,OK,10,0,0,0,0,0,65,99,0.0,0,0.0,7.5328366E-23,9.0E-44,0.0,-4.950627E20,66,7.3897485E-14,-7.389794E-14,-1.688386E38,False,False,0,None,3.1308277E29,1.0842437E-19,
