Tick#,offsetTime,IMU_ATTI(0):Longitude,IMU_ATTI(0):Latitude,IMU_ATTI(0):numSats,IMU_ATTI(0):barometer:Raw,IMU_ATTI(0):barometer:Smooth,IMU_ATTI(0):accel:X,IMU_ATTI(0):accel:Y,IMU_ATTI(0):accel:Z,IMU_ATTI(0):accel:Composite,IMU_ATTI(0):gyro:X,IMU_ATTI(0):gyro:Y,IMU_ATTI(0):gyro:Z,IMU_ATTI(0):gyro:Composite,IMU_ATTI(0):mag:X,IMU_ATTI(0):mag:Y,IMU_ATTI(0):mag:Z,IMU_ATTI(0):mag:Mod,IMU_ATTI(0):velN,IMU_ATTI(0):velE,IMU_ATTI(0):velD,IMU_ATTI(0):velComposite,IMU_ATTI(0):velH,IMU_ATTI(0):GPS-H,IMU_ATTI(0):roll,IMU_ATTI(0):pitch,IMU_ATTI(0):yaw,IMU_ATTI(0):yaw360,IMU_ATTI(0):totalGyro:Z,IMU_ATTI(0):totalGyro:X,IMU_ATTI(0):totalGyro:Y,IMU_ATTI(0):magYaw,IMU_ATTI(0):distanceHP,IMU_ATTI(0):distanceTravelled,IMU_ATTI(0):directionOfTravel[mag],IMU_ATTI(0):directionOfTravel[true],IMU_ATTI(0):temperature,General:relativeHeight,General:absoluteHeight,GPS(0):Long,GPS(0):Lat,GPS(0):Date,GPS(0):Time,GPS:dateTimeStamp,GPS(0):heightMSL,GPS(0):hDOP,GPS(0):pDOP,GPS(0):sAcc,GPS(0):numGPS,GPS(0):numGLNAS,GPS(0):numSV,GPS(0):velN,GPS(0):velE,GPS(0):velD,HP:Longitude,HP:Latitude,HP:rthHeight,BatBlackBox:tick,BatBlackBox:id,BatBlackBox:rsoc,BatBlackBox:index,BatBlackBox:rm,BatBlackBox:fcc,BatBlackBox:cell_min,BatBlackBox:cell_max,BatBlackBox:current,BatBlackBox:voltage,BatBlackBox:temp,BatBlackBox:flag,BatBlackBox:reserve,BatBlackBox:user_data,OA:avoidObst,OA:emergBrake,OA:radiusLimit,OA:airportLimit,OA:groundForceLanding,OA:horizNearBoundary,OA:vertLowLimit,OA:vertAirportLimit,OA:roofLimit,OA:hitGroundLimit,Motor:Speed:RFront,Motor:Speed:LFront,Motor:Speed:LBack,Motor:Speed:RBack,Motor:EscTemp:RFront,Motor:EscTemp:LFront,Motor:EscTemp:LBack,Motor:EscTemp:RBack,Motor:PPMrecv:RFront,Motor:PPMrecv:LFront,Motor:PPMrecv:LBack,Motor:PPMrecv:RBack,Motor:PPMsend:RFront,Motor:PPMsend:LFront,Motor:PPMsend:LBack,Motor:PPMsend:RBack,Motor:V_out:RFront,Motor:V_out:LFront,Motor:V_out:LBack,Motor:V_out:RBack,Motor:Volts:RFront,Motor:Volts:LFront,Motor:Volts:LBack,Motor:Volts:RBack,Motor:Current:RFront,Motor:Current:LFront,Motor:Current:LBack,Motor:Current:RBack,Motor:Status:RFront,Motor:Status:LFront,Motor:Status:LBack,Motor:Status:RBack,Motor:thrustAngle,IMU_ATTI(1):Longitude,IMU_ATTI(1):Latitude,IMU_ATTI(1):numSats,IMU_ATTI(1):barometer:Raw,IMU_ATTI(1):barometer:Smooth,IMU_ATTI(1):accel:X,IMU_ATTI(1):accel:Y,IMU_ATTI(1):accel:Z,IMU_ATTI(1):accel:Composite,IMU_ATTI(1):gyro:X,IMU_ATTI(1):gyro:Y,IMU_ATTI(1):gyro:Z,IMU_ATTI(1):gyro:Composite,IMU_ATTI(1):mag:X,IMU_ATTI(1):mag:Y,IMU_ATTI(1):mag:Z,IMU_ATTI(1):mag:Mod,IMU_ATTI(1):velN,IMU_ATTI(1):velE,IMU_ATTI(1):velD,IMU_ATTI(1):velComposite,IMU_ATTI(1):velH,IMU_ATTI(1):GPS-H,IMU_ATTI(1):roll,IMU_ATTI(1):pitch,IMU_ATTI(1):yaw,IMU_ATTI(1):yaw360,IMU_ATTI(1):totalGyro:Z,IMU_ATTI(1):totalGyro:X,IMU_ATTI(1):totalGyro:Y,IMU_ATTI(1):magYaw,IMU_ATTI(1):distanceHP,IMU_ATTI(1):distanceTravelled,IMU_ATTI(1):directionOfTravel[mag],IMU_ATTI(1):directionOfTravel[true],IMU_ATTI(1):temperature,BattInfo:Voltage,BattInfo:BatVoltage,BattInfo:AdVoltage,BattInfo:AvgCurrent,BattInfo:R_time,BattInfo:R_CAP_MAH,BattInfo:LowCellVoltage,BattInfo:LowCellVolThreshold,BattInfo:BatCurrent,BattInfo:Remaining%,BattInfo:Temp,BattInfo:status,battery_info:BatDynCnt,battery_info:Vol1Protect,battery_info:Vol2Protect,battery_info:Cap1Protect,battery_info:Cap2Protect,battery_info:Batpresent,battery_info:sopPercentage,battery_info:sopValue,battery_info:sopScale,battery_info:sopFlg,BattInfo:WindHeading:WindDir,battery_info:home_dir,BattInfo:Wind:rangeMin,BattInfo:Wind:rangeMax,battery_info:cap_speed,battery_info:against_wind,battery_info:emergency_land_cap,battery_info:intel_bat_land_cap,battery_info:intel_bat_gh_cap,BattInfo:Smart:SmartGh,BattInfo:Smart:SmartLand,BattInfo:GoHome:CntDown,BattInfo:GoHome:GhCmd,BattInfo:GoHome:CapLevel,BattInfo:GoHome:LandCapLv,IMUEX(0):err,IMUEX(0):rtk_Longitude,IMUEX(0):rtk_Latitude,IMUEX(0):rtk_Alti,IMUEX(1):err,IMUEX(1):rtk_Longitude,IMUEX(1):rtk_Latitude,IMUEX(1):rtk_Alti,Attribute|Value,ConvertDatV3,3.6.6-Tablet
7035512,1.828,,,,,,,,,,,,,,,,,,,,,,,,,,,,,,,,,,,,,,,,,,,,,,,,,,,,,,,,,,,,,,,,,,,,,,,,,,,,,,,,,,,,,,,,,,,,,,,,,,,,,,,,,,,,,,,,,,,,,,,,,,,,,,,,,,,,,,,,,,,,,,,,,,,,,,,,,,,,,,,,,OK,,,,,,,,,,,,,,,,,,,,,,,,,,,,,,,,,,Firmware Date| Jul 26 2019
7840644,2.038,,,,,,,,,,,,,,,,,,,,,,,,,,,,,,,,,,,,,,,,,,,,,,,,,,,,,,,,,,,,,,,,,,,,,,,,,,,,,,,,,,,,,,,,,,,,,,,,,,,,,,,,,,,,,,,,,,,,,,,,,,,,,,,,,,,,,,,,,,,,,,,,,,,,,,,,,,,,,,,,,OK,,,,,,,,,,,,,,,,,,,,,,,,,,,,,,,,,,ACType|MavicEnterprise
123734790,32.158,,,,,,,,,,,,,,,,,,,,,,,,,,,,,,,,,,,,,,,,,,,,,,,,,,,,,,,,,,,,,,,,,,,,,,,false,false,false,false,false,false,false,false,false,false,,,,,,,,,,,,,,,,,,,,,,,,,,,,,,,,,,,,,,,,,,,,,,,,,,,,,,,,,,,,,,,,,,,,,,,,,,,,,,,,,OK,,,,,,,,,,,,,,,,,,,,,,,,,,,,,,,,,,
123925597,32.208,,,0,606.024,605.96704,0.06307267,-0.0013261042,-0.999061,1.0010508,0.12339768,0.046158526,0.17554314,0.21948348,475,-176,1412,1500.0,0.010611615,-0.010331573,0.0077504404,0.016715774,0.014810393996306766,-0.014810393996306766,0.08882650387145843,3.598154664531856,20.656372594995393,20.65637259499539,0.0,0.0,0.0,17.57244053306982,,0.0,,,64.94,,,,,,,,,,,,,,,,,,,,,,,,,,,,,,,,,,,false,false,false,false,false,false,false,false,false,false,0,0,0,0,49,62,61,48,945,946,945,946,940,940,940,940,0.0,0.0,0.0,0.0,1701.7,1697.5,1695.6,1701.1,0.0,0.0,0.0,0.0,0,0,0,0,-45.0,2.3360430414124568E-11,9.948573632944546E-12,0,606.31726,605.98785,0.06382753,-0.0021121786,-0.99873644,1.0007762,0.32887968,-0.103256404,0.023206875,0.3454885,475,-176,1412,1500.0,4.6983056E-4,0.001041677,5.5486325E-4,0.0012703168,0.0011427298781546886,-0.0011427298781546886,0.119126071617635,3.5024621702970826,17.78441337824273,17.784413378242732,0.0,0.0,0.0,17.70969140601467,,0.0,,,64.96,,,,,,,,,,,,OK,,,,,,,,,,,,,,,,,,,,,,,,,,NONE,0.0,0.0,0.0,,,,,
124105950,32.255,0.0,0.0,0,606.024,605.96704,0.06307267,-0.0013261042,-0.999061,1.0010508,0.12339768,0.046158526,0.17554314,0.21948348,475,-176,1412,1500.0,0.010611615,-0.010331573,0.0077504404,0.016715774,0.014810393996306766,-0.014810393996306766,0.08882650387145843,3.598154664531856,20.656372594995393,20.65637259499539,0.0,0.0,0.0,17.57244053306982,,0.0,,,64.94,,,,,,,,,,,,,,,,,,,,,,,,,,,,,,,,,,,false,false,false,false,false,false,false,false,false,false,0,0,0,0,49,62,61,48,945,946,945,946,940,940,940,940,0.0,0.0,0.0,0.0,1701.7,1697.5,1695.6,1701.1,0.0,0.0,0.0,0.0,0,0,0,0,-45.0,2.3360430414124568E-11,9.948573632944546E-12,0,606.31726,605.98785,0.06382753,-0.0021121786,-0.99873644,1.0007762,0.32887968,-0.103256404,0.023206875,0.3454885,475,-176,1412,1500.0,4.6983056E-4,0.001041677,5.5486325E-4,0.0012703168,0.0011427298781546886,-0.0011427298781546886,0.119126071617635,3.5024621702970826,17.78441337824273,17.784413378242732,0.0,0.0,0.0,17.70969140601467,,0.0,,,64.96,,,,,,,,,,,,OK,,,,,,,,,,,,,,,,,,,,,,,,,,NONE,0.0,0.0,0.0,,,,,
124252279,32.293,0.0,0.0,0,606.1508,605.97,0.061528772,-0.0022819606,-0.99940515,1.0013,0.23589419,-0.0404823,-0.03476761,0.24185465,478,-176,1409,1498.0,0.010683786,-0.009946704,0.004207726,0.015191615,0.014597266943826197,-0.014597266943826197,0.09184016200805631,3.595238256168681,20.654547353886873,20.65454735388687,-0.0017353308227349962,0.011774018017163327,-0.0020205641687736408,17.49902898007502,,0.0,,,65.02,,,,,,,,,,,,,,,,,,,,,,,,,,,,,,,,,,,false,false,false,false,false,false,false,false,false,false,0,0,0,0,50,63,62,48,945,946,945,945,940,940,940,940,0.0,0.0,0.0,0.0,1700.5,1696.2,1696.2,1701.1,0.0,0.0,0.0,0.0,0,0,0,0,-45.0,2.3360430414124568E-11,9.948573632944546E-12,0,606.31726,605.98785,0.06382753,-0.0021121786,-0.99873644,1.0007762,0.32887968,-0.103256404,0.023206875,0.3454885,475,-176,1412,1500.0,4.6983056E-4,0.001041677,5.5486325E-4,0.0012703168,0.0011427298781546886,-0.0011427298781546886,0.119126071617635,3.5024621702970826,17.78441337824273,17.784413378242732,0.0,0.0,0.0,17.70969140601467,,0.0,,,64.96,17.114,17.114,17.228,1.2489319,0,3242,4.276,12.0,1.218,98,16.6,OK,30,0,0,0,0,0,65,100,0.0,0,0.0,589232.0,2.69E-43,0.0,-1.05007105E-23,62,1.3322676E-15,-1.3322747E-15,9.4E-44,False,False,0,None,0.0,1.0842022E-19,NONE,0.0,0.0,0.0,NONE,3.430658017128911E-11,-4.563335645803027E-12,0.0,
124470704,32.349,0.0,0.0,0,606.1508,605.97,0.061528772,-0.0022819606,-0.99940515,1.0013,0.23589419,-0.0404823,-0.03476761,0.24185465,478,-176,1409,1498.0,0.010683786,-0.009946704,0.004207726,0.015191615,0.014597266943826197,-0.014597266943826197,0.09184016200805631,3.595238256168681,20.654547353886873,20.65454735388687,-0.0017353308227349962,0.011774018017163327,-0.0020205641687736408,17.49902898007502,,0.0,,,65.02,,,0.0,0.0,20151018,30,2015-10-18T00:00:30Z,-17.0,99.99,99.99,3.75E7,0,0,0,0.0,0.0,0.0,,,,,,,,,,,,,,,,,,false,false,false,false,false,false,false,false,false,false,0,0,0,0,50,63,62,48,945,946,945,945,940,940,940,940,0.0,0.0,0.0,0.0,1700.5,1696.2,1696.2,1701.1,0.0,0.0,0.0,0.0,0,0,0,0,-45.0,3.4359909712521E-11,-2.1854655132283057E-12,0,606.05566,605.98785,0.062095374,-0.0015789364,-0.99814326,1.0000741,0.2047552,-0.022705847,0.10066107,0.2292878,478,-176,1409,1498.0,-1.1037109E-4,0.0015267044,-1.4879495E-4,0.0015379038,0.0015306887962676086,-0.0014986089554633484,0.12415109858813783,3.4992181792282344,17.781370312105384,17.781370312105366,0.0050229682530278826,0.010217245729673965,-0.001133017477294502,17.639933894005207,,1.8210981177509996E-6,,,65.01,17.114,17.114,17.228,1.2489319,0,3242,4.276,12.0,1.218,98,16.6,OK,30,0,0,0,0,0,65,100,0.0,0,0.0,589232.0,2.69E-43,0.0,-1.05007105E-23,62,1.3322676E-15,-1.3322747E-15,9.4E-44,False,False,0,None,0.0,1.0842022E-19,NONE,0.0,0.0,0.0,NONE,3.430658017128911E-11,-4.563335645803027E-12,0.0,
124693596,32.407,0.0,0.0,0,606.1429,605.9673,0.06369396,-0.0025877384,-0.99737906,0.99941415,-0.009368632,-0.048022106,0.01903986,0.052501526,472,-176,1409,1496.0,0.010108718,-0.010115639,0.0066746064,0.015781721,0.014300780593420877,-0.014300780593420877,0.09124300186483736,3.596020971173305,20.653885250506722,20.653885250506733,-0.0025198809140367824,0.02307383261432202,-0.006435445006996817,17.672818087834454,,0.0,,,64.98,,,0.0,0.0,20151018,30,2015-10-18T00:00:30Z,-17.0,99.99,99.99,3.75E7,0,0,0,0.0,0.0,0.0,,,,,,,,,,,,,,,,,,false,false,false,false,false,false,false,false,false,false,0,0,0,0,49,62,61,48,945,946,945,946,940,940,940,940,0.0,0.0,0.0,0.0,1700.5,1697.5,1696.2,1701.1,0.0,0.0,0.0,0.0,0,0,0,0,-45.0,1.7427257532757388E-11,1.8466660748139655E-12,0,606.2327,605.98785,0.06360839,-0.0022675255,-0.997727,0.9997551,0.21622513,-0.07531067,-0.044953465,0.23333628,472,-176,1412,1499.0,9.509832E-5,7.7828974E-4,-2.8125904E-4,8.329978E-4,7.840782027357328E-4,-7.506668921475459E-4,0.12083677185082059,3.505099639159943,17.784447212013383,17.78444721201339,0.0078027743473329525,0.031224139245833983,-0.006024035735433977,17.80088354795233,,3.756569656494186E-6,,,64.97,17.114,17.114,17.228,1.2489319,0,3242,4.276,12.0,1.218,98,16.6,OK,30,0,0,0,0,0,65,100,0.0,0,0.0,589232.0,2.69E-43,0.0,-1.05007105E-23,62,1.3322676E-15,-1.3322747E-15,9.4E-44,False,False,0,None,0.0,1.0842022E-19,NONE,0.0,0.0,0.0,NONE,3.430658017128911E-11,-4.563335645803027E-12,0.0,
124886899,32.458,0.0,0.0,0,606.1429,605.9673,0.06369396,-0.0025877384,-0.99737906,0.99941415,-0.009368632,-0.048022106,0.01903986,0.052501526,472,-176,1409,1496.0,0.010108718,-0.010115639,0.0066746064,0.015781721,0.014300780593420877,-0.014300780593420877,0.09124300186483736,3.596020971173305,20.653885250506722,20.653885250506733,-0.0025198809140367824,0.02307383261432202,-0.006435445006996817,17.672818087834454,,0.0,,,64.98,,,0.0,0.0,20151018,30,2015-10-18T00:00:30Z,-17.0,99.99,99.99,3.75E7,0,0,0,0.0,0.0,0.0,,,,,,,,,,,,,,,,,,false,false,false,false,false,false,false,false,false,false,0,0,0,0,49,61,61,49,945,946,945,946,940,940,940,940,0.0,0.0,0.0,0.0,1701.1,1696.8,1696.2,1703.0,0.0,0.0,0.0,0.0,0,0,0,0,-45.0,1.7427257532757388E-11,1.8466660748139655E-12,0,606.2327,605.98785,0.06360839,-0.0022675255,-0.997727,0.9997551,0.21622513,-0.07531067,-0.044953465,0.23333628,472,-176,1412,1499.0,9.509832E-5,7.7828974E-4,-2.8125904E-4,8.329978E-4,7.840782027357328E-4,-7.840782027357328E-4,0.12083677185082059,3.505099639159943,17.784447212013383,17.78444721201339,0.0078027743473329525,0.031224139245833983,-0.006024035735433977,17.80088354795233,,3.756569656494186E-6,,,64.97,17.114,17.114,17.228,1.2489319,0,3242,4.276,12.0,1.218,98,16.6,OK,30,0,0,0,0,0,65,100,0.0,0,0.0,589232.0,2.69E-43,0.0,-1.05007105E-23,62,1.3322676E-15,-1.3322747E-15,9.4E-44,False,False,0,None,0.0,1.0842022E-19,NONE,0.0,0.0,0.0,NONE,3.430658017128911E-11,-4.563335645803027E-12,0.0,
125065883,32.504,0.0,0.0,0,606.09796,605.9832,0.06303731,-0.0018189843,-0.9962625,0.99825644,0.032805283,-0.053533606,0.10104458,0.11896235,478,-176,1412,1501.0,0.010289697,-0.0094283875,0.0028395196,0.014242023,0.013956086499051992,-0.013956086499051992,0.0908599232964074,3.5950530436254624,20.653621928915125,20.65362192891513,0.00347329306516566,0.024243508903497774,-0.011503887201329738,17.491904997979454,,0.0,,,64.97,,,0.0,0.0,20151018,30,2015-10-18T00:00:30Z,-17.0,99.99,99.99,3.75E7,0,0,0,0.0,0.0,0.0,,,,,,,,,,,,,,,,,,false,false,false,false,false,false,false,false,false,false,0,0,0,0,49,61,61,49,945,946,945,946,940,940,940,940,0.0,0.0,0.0,0.0,1701.1,1696.8,1696.2,1703.0,0.0,0.0,0.0,0.0,0,0,0,0,-45.0,1.7427257532757388E-11,1.8466660748139655E-12,0,606.2327,605.98785,0.06360839,-0.0022675255,-0.997727,0.9997551,0.21622513,-0.07531067,-0.044953465,0.23333628,472,-176,1412,1499.0,9.509832E-5,7.7828974E-4,-2.8125904E-4,8.329978E-4,7.840782027357328E-4,-7.840782027357328E-4,0.12083677185082059,3.505099639159943,17.784447212013383,17.78444721201339,0.0078027743473329525,0.031224139245833983,-0.006024035735433977,17.80088354795233,,3.756569656494186E-6,,,64.97,17.115,17.115,17.222,1.2489319,0,3242,4.276,12.0,1.218,98,16.6,OK,30,0,0,0,0,0,65,100,0.0,0,0.0,589232.0,2.69E-43,0.0,-1.05007105E-23,62,1.3322676E-15,-1.3322747E-15,9.4E-44,False,False,0,None,0.0,1.0842022E-19,NONE,0.0,0.0,0.0,NONE,3.430658017128911E-11,-4.563335645803027E-12,0.0,
125238700,32.549,0.0,0.0,0,606.09796,605.9832,0.06303731,-0.0018189843,-0.9962625,0.99825644,0.032805283,-0.053533606,0.10104458,0.11896235,478,-176,1412,1501.0,0.010289697,-0.0094283875,0.0028395196,0.014242023,0.013956086499051992,-0.013956086499051992,0.0908599232964074,3.5950530436254624,20.653621928915125,20.65362192891513,0.00347329306516566,0.024243508903497774,-0.011503887201329738,17.491904997979454,,0.0,,,64.97,,,0.0,0.0,20151018,30,2015-10-18T00:00:30Z,-17.0,99.99,99.99,3.75E7,0,0,0,0.0,0.0,0.0,,,,,,,,,,,,,,,,,,false,false,false,false,false,false,false,false,false,false,0,0,0,0,49,61,61,49,945,946,945,946,940,940,940,940,0.0,0.0,0.0,0.0,1701.1,1696.8,1696.2,1703.0,0.0,0.0,0.0,0.0,0,0,0,0,-45.0,6.608680403637748E-13,8.888256871981147E-13,0,606.17725,605.98785,0.06278652,-0.0028479001,-0.9978507,0.99982816,0.18578663,-0.054565955,0.16959488,0.25740346,481,-176,1412,1502.0,4.1612944E-5,2.126687E-5,7.2040595E-4,7.219201E-4,4.67323958850847E-5,-5.156002828824424E-6,0.1066091530323205,3.5057448458689993,17.78200981768023,17.782009817680205,0.014022503252763165,0.05128491957062539,-0.012505006752402594,17.50321477430782,,5.623946925720927E-6,,,64.96,17.115,17.115,17.222,1.2489319,0,3242,4.276,12.0,1.218,98,16.6,OK,30,0,0,0,0,0,65,100,0.0,0,0.0,589232.0,2.69E-43,0.0,-1.05007105E-23,62,1.3322676E-15,-1.3322747E-15,9.4E-44,False,False,0,None,0.0,1.0842022E-19,NONE,0.0,0.0,0.0,NONE,3.430658017128911E-11,-4.563335645803027E-12,0.0,dateTime|2015-10-18 0:0:30 GMT
125461597,32.607,0.0,0.0,0,606.0451,605.98444,0.06390597,-0.0022839392,-0.9973865,0.99943435,0.08140187,-0.0878143,0.14611797,0.18891288,481,-176,1412,1502.0,0.010728433,-0.009671103,0.0020599912,0.01459017,0.014444012564267764,-0.014444012564267764,0.08943835904180422,3.592634613961011,20.657638084242215,20.657638084242194,0.015806432624344627,0.029942320061690578,-0.018556992764574967,17.403821713665003,,0.0,,,64.95,,,0.0,0.0,20151018,30,2015-10-18T00:00:30Z,-17.0,99.99,99.99,3.75E7,0,0,0,0.0,0.0,0.0,,,,,,,,,,,,,,,,,,false,false,false,false,false,false,false,false,false,false,0,0,0,0,50,61,62,50,945,946,945,946,940,940,940,940,0.0,0.0,0.0,0.0,1701.1,1696.8,1696.2,1701.7,0.0,0.0,0.0,0.0,0,0,0,0,-45.0,-5.797234835089821E-12,1.3995344702893608E-11,0,606.4071,605.98785,0.06471023,-0.0017091953,-0.99661565,0.9987157,0.18339469,0.11774067,-0.011971895,0.21826544,478,-176,1412,1501.0,6.639219E-4,-2.2460791E-4,0.0013613346,0.0015311672,7.008858654056018E-4,-6.7284001460254E-4,0.10591537195871893,3.508319891107813,17.782222914565576,17.78222291456558,0.02188773780173152,0.06970671029755962,-0.009352649981699629,17.58711507787407,,7.248641160315643E-6,,,64.98,17.115,17.115,17.222,1.2489319,0,3242,4.276,12.0,1.218,98,16.6,OK,30,0,0,0,0,0,65,100,0.0,0,0.0,589232.0,2.69E-43,0.0,-1.05007105E-23,62,1.3322676E-15,-1.3322747E-15,9.4E-44,False,False,0,None,0.0,1.0842022E-19,NONE,0.0,0.0,0.0,NONE,3.430658017128911E-11,-4.563335645803027E-12,0.0,
125654848,32.657,0.0,0.0,0,606.0451,605.98444,0.06390597,-0.0022839392,-0.9973865,0.99943435,0.08140187,-0.0878143,0.14611797,0.18891288,481,-176,1412,1502.0,0.010728433,-0.009671103,0.0020599912,0.01459017,0.014444012564267764,-0.014444012564267764,0.08943835904180422,3.592634613961011,20.657638084242215,20.657638084242194,0.015806432624344627,0.029942320061690578,-0.018556992764574967,17.403821713665003,,0.0,,,64.95,,,0.0,0.0,20151018,30,2015-10-18T00:00:30Z,-17.0,99.99,99.99,3.75E7,0,0,0,0.0,0.0,0.0,,,,,,,,,,,,,,,,,,false,false,false,false,false,false,false,false,false,false,0,0,0,0,49,62,62,49,945,946,945,945,940,940,940,940,0.0,0.0,0.0,0.0,1702.4,1696.2,1696.2,1701.7,0.0,0.0,0.0,0.0,0,0,0,0,-45.0,-5.797234835089821E-12,1.3995344702893608E-11,0,606.4071,605.98785,0.06471023,-0.0017091953,-0.99661565,0.9987157,0.18339469,0.11774067,-0.011971895,0.21826544,478,-176,1412,1501.0,6.639219E-4,-2.2460791E-4,0.0013613346,0.0015311672,7.008858654056018E-4,-7.008858654056018E-4,0.10591537195871893,3.508319891107813,17.782222914565576,17.78222291456558,0.02188773780173152,0.06970671029755962,-0.009352649981699629,17.58711507787407,,7.248641160315643E-6,,,64.98,17.115,17.115,17.222,1.2489319,0,3242,4.276,12.0,1.218,98,16.6,OK,30,0,0,0,0,0,65,100,0.0,0,0.0,589232.0,2.69E-43,0.0,-1.05007105E-23,62,1.3322676E-15,-1.3322747E-15,9.4E-44,False,False,0,None,0.0,1.0842022E-19,NONE,0.0,0.0,0.0,NONE,3.430658017128911E-11,-4.563335645803027E-12,0.0,
125788284,32.692,0.0,0.0,0,606.0636,605.98285,0.06353458,-0.00251284,-0.997964,0.9999876,0.116933934,-0.03562229,0.08186442,0.14711994,475,-176,1409,1497.0,0.011785642,-0.0088645825,0.004639908,0.015459978,0.014747277229703537,-0.014747277229703537,0.0858216663863282,3.5925581914786795,20.654817936597134,20.654817936597112,0.02718528792397841,0.03984148095921912,-0.024717850819303954,17.574614567674903,,0.0,,,64.95,,,0.0,0.0,20151018,30,2015-10-18T00:00:30Z,-17.0,99.99,99.99,3.75E7,0,0,0,0.0,0.0,0.0,,,,,,,,,,,,,,,,,,false,false,false,false,false,false,false,false,false,false,0,0,0,0,49,62,62,49,945,946,945,945,940,940,940,940,0.0,0.0,0.0,0.0,1702.4,1696.2,1696.2,1701.7,0.0,0.0,0.0,0.0,0,0,0,0,-45.0,-5.797234835089821E-12,1.3995344702893608E-11,0,606.4071,605.98785,0.06471023,-0.0017091953,-0.99661565,0.9987157,0.18339469,0.11774067,-0.011971895,0.21826544,478,-176,1412,1501.0,6.639219E-4,-2.2460791E-4,0.0013613346,0.0015311672,7.008858654056018E-4,-7.008858654056018E-4,0.10591537195871893,3.508319891107813,17.782222914565576,17.78222291456558,0.02188773780173152,0.06970671029755962,-0.009352649981699629,17.58711507787407,,7.248641160315643E-6,,,64.98,17.115,17.115,17.224,1.2489319,0,3242,4.276,12.0,1.218,98,16.6,OK,30,0,0,0,0,0,65,100,0.0,0,0.0,589232.0,2.69E-43,0.0,-1.05007105E-23,62,1.3322676E-15,-1.3322747E-15,9.4E-44,False,False,0,None,0.0,1.0842022E-19,NONE,0.0,0.0,0.0,NONE,3.5249781076998175E-12,4.7825096034932914E-11,0.0,
125961945,32.737,0.0,0.0,0,606.0636,605.98285,0.06353458,-0.00251284,-0.997964,0.9999876,0.116933934,-0.03562229,0.08186442,0.14711994,475,-176,1409,1497.0,0.011785642,-0.0088645825,0.004639908,0.015459978,0.014747277229703537,-0.014747277229703537,0.0858216663863282,3.5925581914786795,20.654817936597134,20.654817936597112,0.02718528792397841,0.03984148095921912,-0.024717850819303954,17.574614567674903,,0.0,,,64.95,,,0.0,0.0,20151018,30,2015-10-18T00:00:30Z,-17.0,99.99,99.99,3.75E7,0,0,0,0.0,0.0,0.0,,,,,,,,,,,,,,,,,,false,false,false,false,false,false,false,false,false,false,0,0,0,0,49,62,62,49,945,946,945,945,940,940,940,940,0.0,0.0,0.0,0.0,1702.4,1696.2,1696.2,1701.7,0.0,0.0,0.0,0.0,0,0,0,0,-45.0,1.1758641002991528E-11,6.174515197373444E-11,0,606.1878,605.98785,0.06352343,-0.0019080704,-0.997824,0.9998458,-0.03983548,-0.2745463,0.029000716,0.27893293,475,-176,1409,1497.0,0.0027810507,5.230142E-4,0.0027746307,0.0039631254,0.0028298033630339975,-0.002704464072909407,0.10559569228618235,3.49142400217058,17.763890331175514,17.763890331175503,0.022737534730412838,0.07687080961382338,-0.01717779193658078,17.69144468554478,,1.2905669115282637E-5,,,64.94,17.115,17.115,17.224,1.2489319,0,3242,4.276,12.0,1.218,98,16.6,OK,30,0,0,0,0,0,65,100,0.0,0,0.0,589232.0,2.69E-43,0.0,-1.05007105E-23,62,1.3322676E-15,-1.3322747E-15,9.4E-44,False,False,0,None,0.0,1.0842022E-19,NONE,0.0,0.0,0.0,NONE,3.5249781076998175E-12,4.7825096034932914E-11,0.0,
126114582,32.777,0.0,0.0,0,606.27234,605.9842,0.06264169,-0.0018014754,-0.99866766,1.0006319,0.16771212,-0.1450349,0.05787849,0.22915584,475,-176,1412,1500.0,0.012279438,-0.009102165,0.0035402265,0.015689718,0.015285090666592949,-0.015285090666592949,0.0883203518294199,3.5906174860847377,20.6551849961019,20.655184996101923,0.034156271709316746,0.05404086384572848,-0.033729816091208634,17.576602169077987,,0.0,,,64.97,,,0.0,0.0,20151018,30,2015-10-18T00:00:30Z,-17.0,99.99,99.99,3.75E7,0,0,0,0.0,0.0,0.0,,,,,,,,,,,,,,,,,,false,false,false,false,false,false,false,false,false,false,0,0,0,0,49,61,61,49,945,946,945,946,940,940,940,940,0.0,0.0,0.0,0.0,1701.7,1696.8,1696.2,1701.7,0.0,0.0,0.0,0.0,0,0,0,0,-45.0,1.1758641002991528E-11,6.174515197373444E-11,0,606.1878,605.98785,0.06352343,-0.0019080704,-0.997824,0.9998458,-0.03983548,-0.2745463,0.029000716,0.27893293,475,-176,1409,1497.0,0.0027810507,5.230142E-4,0.0027746307,0.0039631254,0.0028298033630339975,-0.0028298033630339975,0.10559569228618235,3.49142400217058,17.763890331175514,17.763890331175503,0.022737534730412838,0.07687080961382338,-0.01717779193658078,17.69144468554478,,1.2905669115282637E-5,,,64.94,17.115,17.115,17.224,1.2489319,0,3242,4.276,12.0,1.218,98,16.6,OK,30,0,0,0,0,0,65,100,0.0,0,0.0,589232.0,2.69E-43,0.0,-1.05007105E-23,62,1.3322676E-15,-1.3322747E-15,9.4E-44,False,False,0,None,0.0,1.0842022E-19,NONE,0.0,0.0,0.0,NONE,3.5249781076998175E-12,4.7825096034932914E-11,0.0,
126342578,32.836,0.0,0.0,0,606.27234,605.9842,0.06264169,-0.0018014754,-0.99866766,1.0006319,0.16771212,-0.1450349,0.05787849,0.22915584,475,-176,1412,1500.0,0.012279438,-0.009102165,0.0035402265,0.015689718,0.015285090666592949,-0.015285090666592949,0.0883203518294199,3.5906174860847377,20.6551849961019,20.655184996101923,0.034156271709316746,0.05404086384572848,-0.033729816091208634,17.576602169077987,,0.0,,,64.97,,,0.0,0.0,20151018,30,2015-10-18T00:00:30Z,-17.0,99.99,99.99,3.75E7,0,0,0,0.0,0.0,0.0,,,,,,,,,,,,,,,,,,false,false,false,false,false,false,false,false,false,false,0,0,0,0,49,61,61,49,945,946,945,946,940,940,940,940,0.0,0.0,0.0,0.0,1701.7,1696.8,1696.2,1701.7,0.0,0.0,0.0,0.0,0,0,0,0,-45.0,6.566853312475483E-13,5.3766634334532546E-11,0,606.1614,605.98785,0.06358769,-0.0022825222,-0.99709046,0.99911857,0.17746897,-0.08817713,0.05444181,0.20550999,475,-176,1409,1497.0,0.0024079739,3.4990353E-5,0.0023943246,0.0033959318,0.0024082280066201386,-0.002382572806485327,0.10823728512005917,3.499207869077699,17.76953387730039,17.769533877300375,0.026901658675336497,0.08373928474223385,-0.03527917674294175,17.691948955303058,,1.4425871576476722E-5,,,64.98,17.115,17.115,17.224,1.2489319,0,3242,4.276,12.0,1.218,98,16.6,OK,30,0,0,0,0,0,65,100,0.0,0,0.0,589232.0,2.69E-43,0.0,-1.05007105E-23,62,1.3322676E-15,-1.3322747E-15,9.4E-44,False,False,0,None,0.0,1.0842022E-19,NONE,0.0,0.0,0.0,NONE,3.5249781076998175E-12,4.7825096034932914E-11,0.0,
126498603,32.876,0.0,0.0,0,606.4071,605.9868,0.06360802,-0.0019624508,-0.99834025,1.0003664,0.0904927,-0.12806596,0.046159886,0.16346423,475,-176,1412,1500.0,0.012858082,-0.008881145,0.0020672379,0.015763199,0.015627059949746475,-0.015627059949746475,0.08830798215654825,3.590742621465421,20.65386976646471,20.65386976646471,0.039348064195475804,0.06692597343400034,-0.04735827759509079,17.57648555245142,,0.0,,,65.0,,,0.0,0.0,20151018,30,2015-10-18T00:00:30Z,-17.0,99.99,99.99,3.75E7,0,0,0,0.0,0.0,0.0,,,,,,,,,,,,,,,,,,false,false,false,false,false,false,false,false,false,false,0,0,0,0,49,62,63,48,945,947,945,946,940,940,940,940,0.0,0.0,0.0,0.0,1701.7,1697.5,1696.2,1701.7,0.0,0.0,0.0,0.0,0,0,0,0,-45.0,6.566853312475483E-13,5.3766634334532546E-11,0,606.1614,605.98785,0.06358769,-0.0022825222,-0.99709046,0.99911857,0.17746897,-0.08817713,0.05444181,0.20550999,475,-176,1409,1497.0,0.0024079739,3.4990353E-5,0.0023943246,0.0033959318,0.0024082280066201386,-0.0024082280066201386,0.10823728512005917,3.499207869077699,17.76953387730039,17.769533877300375,0.026901658675336497,0.08373928474223385,-0.03527917674294175,17.691948955303058,,1.4425871576476722E-5,,,64.98,17.116,17.116,17.223,1.2489319,0,3242,4.276,12.0,1.218,98,16.6,OK,30,0,0,0,0,0,65,100,0.0,0,0.0,589232.0,2.69E-43,0.0,-1.05007105E-23,62,1.3322676E-15,-1.3322747E-15,9.4E-44,False,False,0,None,0.0,1.0842022E-19,NONE,0.0,0.0,0.0,NONE,3.5249781076998175E-12,4.7825096034932914E-11,0.0,
126630541,32.911,0.0,0.0,0,606.4071,605.9868,0.06360802,-0.0019624508,-0.99834025,1.0003664,0.0904927,-0.12806596,0.046159886,0.16346423,475,-176,1412,1500.0,0.012858082,-0.008881145,0.0020672379,0.015763199,0.015627059949746475,-0.015627059949746475,0.08830798215654825,3.590742621465421,20.65386976646471,20.65386976646471,0.039348064195475804,0.06692597343400034,-0.04735827759509079,17.57648555245142,,0.0,,,65.0,,,0.0,0.0,20151018,30,2015-10-18T00:00:30Z,-17.0,99.99,99.99,3.75E7,0,0,0,0.0,0.0,0.0,,,,,,,,,,,,,,,,,,false,false,false,false,false,false,false,false,false,false,0,0,0,0,49,62,63,48,945,947,945,946,940,940,940,940,0.0,0.0,0.0,0.0,1701.7,1697.5,1696.2,1701.7,0.0,0.0,0.0,0.0,0,0,0,0,-45.0,6.637959367387817E-12,6.271972319721506E-11,0,606.21423,605.9879,0.06262274,-0.0024217437,-0.9994798,1.0014427,-0.0056838947,-0.17087933,0.038484555,0.17525159,472,-176,1412,1499.0,0.0027844843,2.9978287E-4,0.0010606587,0.0029946987,0.002800575494804546,-0.00276565980396121,0.11497039059731912,3.50024001575223,17.769987144085224,17.769987144085235,0.03153778529719046,0.0923096976327545,-0.04820358693791281,17.790881892870487,,1.5623133945811144E-5,,,65.02,17.116,17.116,17.223,1.2489319,0,3242,4.276,12.0,1.218,98,16.6,OK,30,0,0,0,0,0,65,100,0.0,0,0.0,589232.0,2.69E-43,0.0,-1.05007105E-23,62,1.3322676E-15,-1.3322747E-15,9.4E-44,False,False,0,None,0.0,1.0842022E-19,NONE,0.0,0.0,0.0,NONE,3.5249781076998175E-12,4.7825096034932914E-11,0.0,
126774717,32.948,0.0,0.0,0,606.4071,605.9868,0.06360802,-0.0019624508,-0.99834025,1.0003664,0.0904927,-0.12806596,0.046159886,0.16346423,475,-176,1412,1500.0,0.012858082,-0.008881145,0.0020672379,0.015763199,0.015627059949746475,-0.015627059949746475,0.08830798215654825,3.590742621465421,20.65386976646471,20.65386976646471,0.039348064195475804,0.06692597343400034,-0.04735827759509079,17.57648555245142,,0.0,,,65.0,,,0.0,0.0,20151018,30,2015-10-18T00:00:30Z,-17.0,99.99,99.99,3.75E7,0,0,0,0.0,0.0,0.0,,,,,,,,,,,,,,,,,,false,false,false,false,false,false,false,false,false,false,0,0,0,0,49,62,63,48,945,947,945,946,940,940,940,940,0.0,0.0,0.0,0.0,1701.7,1697.5,1696.2,1701.7,0.0,0.0,0.0,0.0,0,0,0,0,-45.0,6.637959367387817E-12,6.271972319721506E-11,0,606.21423,605.9879,0.06262274,-0.0024217437,-0.9994798,1.0014427,-0.0056838947,-0.17087933,0.038484555,0.17525159,472,-176,1412,1499.0,0.0027844843,2.9978287E-4,0.0010606587,0.0029946987,0.002800575494804546,-0.002800575494804546,0.11497039059731912,3.50024001575223,17.769987144085224,17.769987144085235,0.03153778529719046,0.0923096976327545,-0.04820358693791281,17.790881892870487,,1.5623133945811144E-5,,,65.02,17.116,17.116,17.223,1.2489319,0,3242,4.276,12.0,1.218,98,16.6,OK,30,0,0,0,0,0,65,100,0.0,0,0.0,589232.0,2.69E-43,0.0,-1.05007105E-23,62,1.3322676E-15,-1.3322747E-15,9.4E-44,False,False,0,None,0.0,1.0842022E-19,NONE,0.0,0.0,0.0,NONE,3.5249781076998175E-12,4.7825096034932914E-11,0.0,
126985879,33.003,0.0,0.0,0,606.27765,605.99243,0.06252133,-0.0014798963,-0.9982624,1.0002195,0.12399719,0.024363525,-0.0126121845,0.12699588,469,-179,1412,1498.0,0.013009671,-0.008998575,-0.0020279333,0.01594799,0.01581852985275615,-0.01581852985275615,0.08384408982312365,3.5925491266074303,20.65087665225507,20.65087665225508,0.04102226677069393,0.07763012112895248,-0.0525335618591631,18.021940357018877,,0.0,,,65.03,,,0.0,0.0,20151018,30,2015-10-18T00:00:30Z,-17.0,99.99,99.99,3.75E7,0,0,0,0.0,0.0,0.0,,,,,,,,,,,,,,,,,,false,false,false,false,false,false,false,false,false,false,0,0,0,0,49,62,62,49,945,946,945,946,940,940,940,940,0.0,0.0,0.0,0.0,1701.7,1696.2,1696.2,1701.1,0.0,0.0,0.0,0.0,0,0,0,0,-45.0,6.637959367387817E-12,6.271972319721506E-11,0,606.21423,605.9879,0.06262274,-0.0024217437,-0.9994798,1.0014427,-0.0056838947,-0.17087933,0.038484555,0.17525159,472,-176,1412,1499.0,0.0027844843,2.9978287E-4,0.0010606587,0.0029946987,0.002800575494804546,-0.002800575494804546,0.11497039059731912,3.50024001575223,17.769987144085224,17.769987144085235,0.03153778529719046,0.0923096976327545,-0.04820358693791281,17.790881892870487,,1.5623133945811144E-5,,,65.02,17.116,17.116,17.223,1.2489319,0,3242,4.276,12.0,1.218,98,16.6,OK,30,0,0,0,0,0,65,100,0.0,0,0.0,589232.0,2.69E-43,0.0,-1.05007105E-23,62,1.3322676E-15,-1.3322747E-15,9.4E-44,False,False,0,None,0.0,1.0842022E-19,NONE,0.0,0.0,0.0,NONE,3.5249781076998175E-12,4.7825096034932914E-11,0.0,
127191031,33.056,0.0,0.0,0,606.27765,605.99243,0.06252133,-0.0014798963,-0.9982624,1.0002195,0.12399719,0.024363525,-0.0126121845,0.12699588,469,-179,1412,1498.0,0.013009671,-0.008998575,-0.0020279333,0.01594799,0.01581852985275615,-0.01581852985275615,0.08384408982312365,3.5925491266074303,20.65087665225507,20.65087665225508,0.04102226677069393,0.07763012112895248,-0.0525335618591631,18.021940357018877,,0.0,,,65.03,,,0.0,0.0,20151018,30,2015-10-18T00:00:30Z,-17.0,99.99,99.99,3.75E7,0,0,0,0.0,0.0,0.0,,,,,,,,,,,,,,,,,,false,false,false,false,false,false,false,false,false,false,0,0,0,0,49,62,62,49,944,946,945,946,940,940,940,940,0.0,0.0,0.0,0.0,1701.1,1696.8,1695.6,1700.5,0.0,0.0,0.0,0.0,0,0,0,0,-45.0,-4.489092558947053E-12,1.579181826816175E-11,0,606.27765,605.9879,0.06207259,-0.0020872317,-0.99898934,1.000918,0.13252662,0.004993495,-0.069327004,0.14964783,469,-179,1412,1498.0,6.8421685E-4,-2.0786766E-4,2.5491678E-4,7.591734E-4,7.150955815618379E-4,-6.145138824541206E-4,0.11056733541151778,3.517508121414124,17.775109060431586,17.77510906043159,0.029998672759738595,0.09863945506884127,-0.056481689806003675,18.138437447205728,,2.098595764187539E-5,,,65.0,17.116,17.116,17.223,1.2489319,0,3242,4.276,12.0,1.218,98,16.6,OK,30,0,0,0,0,0,65,100,0.0,0,0.0,589232.0,2.69E-43,0.0,-1.05007105E-23,62,1.3322676E-15,-1.3322747E-15,9.4E-44,False,False,0,None,0.0,1.0842022E-19,NONE,0.0,0.0,0.0,NONE,3.5249781076998175E-12,4.7825096034932914E-11,0.0,
127324290,33.091,0.0,0.0,0,605.9817,606.00024,0.0631742,-0.00150058,-0.99998957,1.0019842,0.11209353,0.009527949,-0.10806468,0.15599269,469,-176,1412,1498.0,0.012572734,-0.008764463,-0.008018071,0.017296787,0.01532610302942218,-0.01532610302942218,0.0844186232085608,3.594812104268083,20.646090271880247,20.64609027188027,0.03500120396383821,0.08940965335370488,-0.050842577569527675,17.741899912281205,,0.0,,,64.97,,,0.0,0.0,20151018,30,2015-10-18T00:00:30Z,-17.0,99.99,99.99,3.75E7,0,0,0,0.0,0.0,0.0,,,,,,,,,,,,,,,,,,false,false,false,false,false,false,false,false,false,false,0,0,0,0,49,62,62,49,944,946,945,946,940,940,940,940,0.0,0.0,0.0,0.0,1701.1,1696.8,1695.6,1700.5,0.0,0.0,0.0,0.0,0,0,0,0,-45.0,-4.489092558947053E-12,1.579181826816175E-11,0,606.27765,605.9879,0.06207259,-0.0020872317,-0.99898934,1.000918,0.13252662,0.004993495,-0.069327004,0.14964783,469,-179,1412,1498.0,6.8421685E-4,-2.0786766E-4,2.5491678E-4,7.591734E-4,7.150955815618379E-4,-7.150955815618379E-4,0.11056733541151778,3.517508121414124,17.775109060431586,17.77510906043159,0.029998672759738595,0.09863945506884127,-0.056481689806003675,18.138437447205728,,2.098595764187539E-5,,,65.0,17.118,17.118,17.228,1.2489319,0,3242,4.276,12.0,1.218,98,16.6,OK,30,0,0,0,0,0,65,100,0.0,0,0.0,589232.0,2.69E-43,0.0,-1.05007105E-23,62,1.3322676E-15,-1.3322747E-15,9.4E-44,False,False,0,None,0.0,1.0842022E-19,NONE,0.0,0.0,0.0,NONE,1.704453964845958E-12,-1.546138424798303E-11,0.0,
127574754,33.156,0.0,0.0,0,605.9817,606.00024,0.0631742,-0.00150058,-0.99998957,1.0019842,0.11209353,0.009527949,-0.10806468,0.15599269,469,-176,1412,1498.0,0.012572734,-0.008764463,-0.008018071,0.017296787,0.01532610302942218,-0.01532610302942218,0.0844186232085608,3.594812104268083,20.646090271880247,20.64609027188027,0.03500120396383821,0.08940965335370488,-0.050842577569527675,17.741899912281205,,0.0,,,64.97,,,0.0,0.0,20151018,30,2015-10-18T00:00:30Z,-17.0,99.99,99.99,3.75E7,0,0,0,0.0,0.0,0.0,,,,12648836,114,99,482,3414,3414,4383,4394,236,17563,24,3423,17548,0,false,false,false,false,false,false,false,false,false,false,0,0,0,0,49,62,62,49,944,946,945,946,940,940,940,940,0.0,0.0,0.0,0.0,1701.1,1696.8,1695.6,1700.5,0.0,0.0,0.0,0.0,0,0,0,0,-45.0,5.178193885838762E-12,-9.697611085878168E-12,0,606.27496,605.9879,0.06426318,-4.2172056E-4,-0.9988623,1.0009274,0.102042325,-0.13154191,-0.0067737866,0.1666187,472,-176,1412,1499.0,-4.3011E-4,2.960857E-4,-0.0015564539,0.0016417095,5.221698371606767E-4,-4.7560220029771466E-4,0.11708488474652531,3.523388654408551,17.776370087262386,17.776370087262364,0.02620131716100189,0.11034421845563591,-0.06279633276082502,17.779083557976932,,2.401725337679363E-5,,,64.98,17.118,17.118,17.228,1.2489319,0,3242,4.276,12.0,1.218,98,16.6,OK,30,0,0,0,0,0,65,100,0.0,0,0.0,589232.0,2.69E-43,0.0,-1.05007105E-23,62,1.3322676E-15,-1.3322747E-15,9.4E-44,False,False,0,None,0.0,1.0842022E-19,NONE,0.0,0.0,0.0,NONE,1.704453964845958E-12,-1.546138424798303E-11,0.0,
127765602,33.206,0.0,0.0,0,606.17725,606.0051,0.06273208,-0.001847547,-0.99934584,1.0013145,0.15196656,-0.15535083,0.09250159,0.23618692,478,-176,1409,1498.0,0.012646606,-0.007852955,-0.011128313,0.018586148,0.014886421940183664,-0.014886421940183664,0.0849406863471134,3.59451230594977,20.647368624799608,20.647368624799583,0.03422463081582804,0.10258582379562933,-0.05811890330488707,17.483858556446346,,0.0,,,64.96,,,0.0,0.0,20151018,30,2015-10-18T00:00:30Z,-17.0,99.99,99.99,3.75E7,0,0,0,0.0,0.0,0.0,,,,12648836,114,99,482,3414,3414,4383,4394,236,17563,24,3423,17548,0,false,false,false,false,false,false,false,false,false,false,0,0,0,0,49,61,61,48,945,946,945,946,940,940,940,940,0.0,0.0,0.0,0.0,1701.7,1697.5,1696.2,1700.5,0.0,0.0,0.0,0.0,0,0,0,0,-45.0,2.8004283210146996E-11,-2.329978113171634E-11,0,606.1217,605.9879,0.06408995,-0.0018325574,-0.99716824,0.9992274,0.22193125,-0.07956041,-0.11901852,0.26409987,478,-176,1409,1498.0,-0.0010219672,0.0012819626,-0.0018494703,0.0024715147,0.0016394648985444808,-0.0015798964756510762,0.11829246500052122,3.5232080697601744,17.77252242099885,17.772522420998826,0.019924157657799594,0.12651081684497467,-0.0733305447116127,17.60967828927194,,2.6971879353964533E-5,,,64.96,17.118,17.118,17.228,1.2489319,0,3242,4.276,12.0,1.218,98,16.6,OK,30,0,0,0,0,0,65,100,0.0,0,0.0,589232.0,2.69E-43,0.0,-1.05007105E-23,62,1.3322676E-15,-1.3322747E-15,9.4E-44,False,False,0,None,0.0,1.0842022E-19,NONE,0.0,0.0,0.0,NONE,1.704453964845958E-12,-1.546138424798303E-11,0.0,
127945948,33.253,0.0,0.0,0,606.17725,606.0051,0.06273208,-0.001847547,-0.99934584,1.0013145,0.15196656,-0.15535083,0.09250159,0.23618692,478,-176,1409,1498.0,0.012646606,-0.007852955,-0.011128313,0.018586148,0.014886421940183664,-0.014886421940183664,0.0849406863471134,3.59451230594977,20.647368624799608,20.647368624799583,0.03422463081582804,0.10258582379562933,-0.05811890330488707,17.483858556446346,,0.0,,,64.96,,,0.0,0.0,20151018,30,2015-10-18T00:00:30Z,-17.0,99.99,99.99,3.75E7,0,0,0,0.0,0.0,0.0,,,,12648836,114,99,482,3414,3414,4383,4394,236,17563,24,3423,17548,0,false,false,false,false,false,false,false,false,false,false,0,0,0,0,49,61,61,48,945,946,945,946,940,940,940,940,0.0,0.0,0.0,0.0,1701.7,1697.5,1696.2,1700.5,0.0,0.0,0.0,0.0,0,0,0,0,-45.0,2.8004283210146996E-11,-2.329978113171634E-11,0,606.1217,605.9879,0.06408995,-0.0018325574,-0.99716824,0.9992274,0.22193125,-0.07956041,-0.11901852,0.26409987,478,-176,1409,1498.0,-0.0010219672,0.0012819626,-0.0018494703,0.0024715147,0.0016394648985444808,-0.0016394648985444808,0.11829246500052122,3.5232080697601744,17.77252242099885,17.772522420998826,0.019924157657799594,0.12651081684497467,-0.0733305447116127,17.60967828927194,,2.6971879353964533E-5,,,64.96,17.118,17.118,17.228,1.2489319,0,3242,4.276,12.0,1.218,98,16.6,OK,30,0,0,0,0,0,65,100,0.0,0,0.0,589232.0,2.69E-43,0.0,-1.05007105E-23,62,1.3322676E-15,-1.3322747E-15,9.4E-44,False,False,0,None,0.0,1.0842022E-19,NONE,0.0,0.0,0.0,NONE,1.704453964845958E-12,-1.546138424798303E-11,0.0,
128149587,33.306,0.0,0.0,0,606.0821,606.012,0.063987635,-0.0020315275,-0.99824876,1.0002996,0.0663015,-0.14012238,-0.0327681,0.15844217,478,-176,1406,1495.0,0.012969609,-0.0077108,-0.013834161,0.02047074,0.015088644807447203,-0.015088644807447203,0.08696998269485333,3.5931845965722875,20.645253478372634,20.645253478372638,0.03720531275525101,0.11347733054711975,-0.07286292242693482,17.49443952537503,,0.0,,,64.97,,,0.0,0.0,20151018,30,2015-10-18T00:00:30Z,-17.0,99.99,99.99,3.75E7,0,0,0,0.0,0.0,0.0,,,,12648836,114,99,482,3414,3414,4383,4394,236,17563,24,3423,17548,0,false,false,false,false,false,false,false,false,false,false,0,0,0,0,49,62,61,49,945,946,945,946,940,940,940,940,0.0,0.0,0.0,0.0,1701.7,1696.8,1696.2,1700.5,0.0,0.0,0.0,0.0,0,0,0,0,-45.0,4.726356733562727E-11,-2.510043740623459E-11,0,606.2459,605.9879,0.063616775,-0.0021389662,-0.99864054,1.0006671,0.05986637,0.01222155,0.069815464,0.09277687,478,-176,1406,1495.0,-0.0011191778,0.0021183912,-0.0019064887,0.003061836,0.002395858989074539,-0.002355218840717823,0.12833137261647287,3.520100599537603,17.772669234530984,17.77266923453101,0.017469024155830386,0.14057195183763294,-0.0766906182466841,17.639502052109794,,2.9122753686998113E-5,,,64.97,17.119,17.119,17.224,1.24782,0,3241,4.276,12.0,1.213,98,16.6,OK,31,0,0,0,0,0,65,100,0.0,0,0.0,589232.0,2.69E-43,0.0,-1.05007105E-23,62,1.3322676E-15,-1.3322747E-15,9.4E-44,False,False,0,None,0.0,1.0842022E-19,NONE,0.0,0.0,0.0,NONE,1.704453964845958E-12,-1.546138424798303E-11,0.0,
128320101,33.350,0.0,0.0,0,606.0821,606.012,0.063987635,-0.0020315275,-0.99824876,1.0002996,0.0663015,-0.14012238,-0.0327681,0.15844217,478,-176,1406,1495.0,0.012969609,-0.0077108,-0.013834161,0.02047074,0.015088644807447203,-0.015088644807447203,0.08696998269485333,3.5931845965722875,20.645253478372634,20.645253478372638,0.03720531275525101,0.11347733054711975,-0.07286292242693482,17.49443952537503,,0.0,,,64.97,,,0.0,0.0,20151018,31,2015-10-18T00:00:31Z,-17.0,99.99,99.99,3.75E7,0,0,0,0.0,0.0,0.0,,,,12648836,114,99,482,3414,3414,4383,4394,236,17563,24,3423,17548,0,false,false,false,false,false,false,false,false,false,false,0,0,0,0,49,62,61,49,945,946,945,946,940,940,940,940,0.0,0.0,0.0,0.0,1701.7,1696.8,1696.2,1700.5,0.0,0.0,0.0,0.0,0,0,0,0,-45.0,4.726356733562727E-11,-2.510043740623459E-11,0,606.2459,605.9879,0.063616775,-0.0021389662,-0.99864054,1.0006671,0.05986637,0.01222155,0.069815464,0.09277687,478,-176,1406,1495.0,-0.0011191778,0.0021183912,-0.0019064887,0.003061836,0.002395858989074539,-0.002395858989074539,0.12833137261647287,3.520100599537603,17.772669234530984,17.77266923453101,0.017469024155830386,0.14057195183763294,-0.0766906182466841,17.639502052109794,,2.9122753686998113E-5,,,64.97,17.119,17.119,17.224,1.24782,0,3241,4.276,12.0,1.213,98,16.6,OK,31,0,0,0,0,0,65,100,0.0,0,0.0,589232.0,2.69E-43,0.0,-1.05007105E-23,62,1.3322676E-15,-1.3322747E-15,9.4E-44,False,False,0,None,0.0,1.0842022E-19,NONE,0.0,0.0,0.0,NONE,1.704453964845958E-12,-1.546138424798303E-11,0.0,
128533608,33.405,0.0,0.0,0,606.1006,606.0283,0.06327353,-0.0018179868,-0.9973971,0.9994038,0.066611774,-0.056599323,-0.06890846,0.111305825,478,-176,1412,1501.0,0.012556155,-0.0072337505,-0.020022832,0.02471635,0.014490830907890663,-0.014490830907890663,0.08796784027414388,3.5952729186634684,20.644672576723163,20.644672576723167,0.03212846098301348,0.12011387487351435,-0.08268551001597453,17.48516810577538,,0.0,,,64.99,,,0.0,0.0,20151018,31,2015-10-18T00:00:31Z,-17.0,99.99,99.99,3.75E7,0,0,0,0.0,0.0,0.0,,,,12648836,114,99,482,3414,3414,4383,4394,236,17563,24,3423,17548,0,false,false,false,false,false,false,false,false,false,false,0,0,0,0,48,62,61,49,944,946,945,946,940,940,940,940,0.0,0.0,0.0,0.0,1701.1,1696.2,1696.2,1701.7,0.0,0.0,0.0,0.0,0,0,0,0,-45.0,5.7217369354871854E-11,-4.895861020496181E-12,0,606.1006,605.9879,0.06364367,-9.3612913E-4,-0.99883455,1.0008606,0.23095885,-0.08901208,0.07693527,0.2591991,478,-176,1412,1501.0,-2.1677864E-4,0.0025783782,-0.0016067318,0.0030457536,0.0025874751057972205,-0.002542340691826505,0.12623249021593816,3.510544096432564,17.760663471746426,17.760663471746398,0.024792277441667763,0.15508490646339468,-0.08052267048316591,17.63189617511457,,3.162724034750843E-5,,,65.0,17.119,17.119,17.224,1.24782,0,3241,4.276,12.0,1.213,98,16.6,OK,31,0,0,0,0,0,65,100,0.0,0,0.0,589232.0,2.69E-43,0.0,-1.05007105E-23,62,1.3322676E-15,-1.3322747E-15,9.4E-44,False,False,0,None,0.0,1.0842022E-19,NONE,0.0,0.0,0.0,NONE,1.704453964845958E-12,-1.546138424798303E-11,0.0,
128726949,33.456,0.0,0.0,0,606.1006,606.0283,0.06327353,-0.0018179868,-0.9973971,0.9994038,0.066611774,-0.056599323,-0.06890846,0.111305825,478,-176,1412,1501.0,0.012556155,-0.0072337505,-0.020022832,0.02471635,0.014490830907890663,-0.014490830907890663,0.08796784027414388,3.5952729186634684,20.644672576723163,20.644672576723167,0.03212846098301348,0.12011387487351435,-0.08268551001597453,17.48516810577538,,0.0,,,64.99,,,0.0,0.0,20151018,31,2015-10-18T00:00:31Z,-17.0,99.99,99.99,3.75E7,0,0,0,0.0,0.0,0.0,,,,12648836,114,99,482,3414,3414,4383,4394,236,17563,24,3423,17548,0,false,false,false,false,false,false,false,false,false,false,0,0,0,0,49,61,62,48,945,946,945,946,940,940,940,940,0.0,0.0,0.0,0.0,1701.1,1695.6,1695.0,1701.1,0.0,0.0,0.0,0.0,0,0,0,0,-45.0,5.7217369354871854E-11,-4.895861020496181E-12,0,606.1006,605.9879,0.06364367,-9.3612913E-4,-0.99883455,1.0008606,0.23095885,-0.08901208,0.07693527,0.2591991,478,-176,1412,1501.0,-2.1677864E-4,0.0025783782,-0.0016067318,0.0030457536,0.0025874751057972205,-0.0025874751057972205,0.12623249021593816,3.510544096432564,17.760663471746426,17.760663471746398,0.024792277441667763,0.15508490646339468,-0.08052267048316591,17.63189617511457,,3.162724034750843E-5,,,65.0,17.119,17.119,17.224,1.24782,0,3241,4.276,12.0,1.213,98,16.6,OK,31,0,0,0,0,0,65,100,0.0,0,0.0,589232.0,2.69E-43,0.0,-1.05007105E-23,62,1.3322676E-15,-1.3322747E-15,9.4E-44,False,False,0,None,0.0,1.0842022E-19,NONE,0.0,0.0,0.0,NONE,1.704453964845958E-12,-1.546138424798303E-11,0.0,
128860281,33.490,0.0,0.0,0,606.0425,606.0374,0.06241671,-8.36289E-4,-0.99908686,1.0010351,0.066423886,-0.007970531,-0.061226603,0.09068825,475,-176,1412,1500.0,0.012831961,-0.0064805523,-0.022400936,0.026616888,0.014375561504469711,-0.014375561504469711,0.08708788273095389,3.595236967222723,20.645529371725914,20.6455293717259,0.025638652596289203,0.12674833560152118,-0.08590559518901197,17.570524120393635,,0.0,,,64.99,,,0.0,0.0,20151018,31,2015-10-18T00:00:31Z,-17.0,99.99,99.99,3.75E7,0,0,0,0.0,0.0,0.0,,,,12648836,114,99,482,3414,3414,4383,4394,236,17563,24,3423,17548,0,false,false,false,false,false,false,false,false,false,false,0,0,0,0,49,61,62,48,945,946,945,946,940,940,940,940,0.0,0.0,0.0,0.0,1701.1,1695.6,1695.0,1701.1,0.0,0.0,0.0,0.0,0,0,0,0,-45.0,5.7217369354871854E-11,-4.895861020496181E-12,0,606.1006,605.9879,0.06364367,-9.3612913E-4,-0.99883455,1.0008606,0.23095885,-0.08901208,0.07693527,0.2591991,478,-176,1412,1501.0,-2.1677864E-4,0.0025783782,-0.0016067318,0.0030457536,0.0025874751057972205,-0.0025874751057972205,0.12623249021593816,3.510544096432564,17.760663471746426,17.760663471746398,0.024792277441667763,0.15508490646339468,-0.08052267048316591,17.63189617511457,,3.162724034750843E-5,,,65.0,17.116,17.116,17.22,1.24782,0,3241,4.276,12.0,1.213,98,16.6,OK,31,0,0,0,0,0,65,100,0.0,0,0.0,589232.0,2.69E-43,0.0,-1.05007105E-23,62,1.3322676E-15,-1.3322747E-15,9.4E-44,False,False,0,None,0.0,1.0842022E-19,NONE,0.0,0.0,0.0,NONE,2.70485341770984E-11,2.9927283726313693E-12,0.0,
129078731,33.547,0.0,0.0,0,606.0425,606.0374,0.06241671,-8.36289E-4,-0.99908686,1.0010351,0.066423886,-0.007970531,-0.061226603,0.09068825,475,-176,1412,1500.0,0.012831961,-0.0064805523,-0.022400936,0.026616888,0.014375561504469711,-0.014375561504469711,0.08708788273095389,3.595236967222723,20.645529371725914,20.6455293717259,0.025638652596289203,0.12674833560152118,-0.08590559518901197,17.570524120393635,,0.0,,,64.99,,,0.0,0.0,20151018,31,2015-10-18T00:00:31Z,-17.0,99.99,99.99,3.75E7,0,0,0,0.0,0.0,0.0,,,,12648836,114,99,482,3414,3414,4383,4394,236,17563,24,3423,17548,0,false,false,false,false,false,false,false,false,false,false,0,0,0,0,49,61,62,48,945,946,945,946,940,940,940,940,0.0,0.0,0.0,0.0,1701.1,1695.6,1695.0,1701.1,0.0,0.0,0.0,0.0,0,0,0,0,-45.0,2.865155744587684E-11,3.958934178470428E-12,0,606.11646,605.9879,0.062865,-0.0022937944,-0.99832076,1.0003008,0.1093364,-0.0029234712,0.053835005,0.121906534,475,-176,1412,1500.0,1.656024E-4,0.0012616689,-9.4905164E-4,0.0015874292,0.0012724906369145203,-0.0012139168665342395,0.10592690093218264,3.5161998548938715,17.757171404725902,17.75717140472591,0.03131743400809322,0.1720649118259021,-0.08511005791608835,17.669653440847675,,3.495271794180433E-5,,,64.97,17.116,17.116,17.22,1.24782,0,3241,4.276,12.0,1.213,98,16.6,OK,31,0,0,0,0,0,65,100,0.0,0,0.0,589232.0,2.69E-43,0.0,-1.05007105E-23,62,1.3322676E-15,-1.3322747E-15,9.4E-44,False,False,0,None,0.0,1.0842022E-19,NONE,0.0,0.0,0.0,NONE,2.70485341770984E-11,2.9927283726313693E-12,0.0,
129301621,33.605,0.0,0.0,0,606.201,606.03125,0.06377824,-0.0018836977,-0.9997949,1.0018288,0.15308459,0.029830592,0.081067055,0.17577435,475,-176,1409,1497.0,0.012760945,-0.006271127,-0.013940187,0.019912247,0.014218605403964015,-0.014218605403964015,0.08593791671503354,3.597288552447198,20.648757796927804,20.648757796927782,0.02662882665181634,0.13770330689412366,-0.08481462888587243,17.571548177635634,,0.0,,,64.98,,,0.0,0.0,20151018,31,2015-10-18T00:00:31Z,-17.0,99.99,99.99,3.75E7,0,0,0,0.0,0.0,0.0,,,,12648836,114,99,482,3414,3414,4383,4394,236,17563,24,3423,17548,0,false,false,false,false,false,false,false,false,false,false,0,0,0,0,50,63,62,48,945,945,945,946,940,940,940,940,0.0,0.0,0.0,0.0,1701.7,1697.5,1695.6,1701.7,0.0,0.0,0.0,0.0,0,0,0,0,-45.0,2.797395856905464E-11,4.60098002780504E-12,0,606.21686,605.9879,0.06277637,-0.001839011,-1.0008525,1.002821,0.10074126,-0.044144448,0.13898271,0.17723918,475,-176,1409,1497.0,1.928193E-4,0.0012390515,-0.0010481987,0.0016343647,0.0012539648229989578,-0.0012521729997108265,0.10778566813605477,3.519794896041798,17.756202140610245,17.75620214061024,0.04093975323066875,0.18254856609177691,-0.08745892157968514,17.67627450929754,,3.5056514883533566E-5,,,64.97,17.116,17.116,17.22,1.24782,0,3241,4.276,12.0,1.213,98,16.6,OK,31,0,0,0,0,0,65,100,0.0,0,0.0,589232.0,2.69E-43,0.0,-1.05007105E-23,62,1.3322676E-15,-1.3322747E-15,9.4E-44,False,False,0,None,0.0,1.0842022E-19,NONE,0.0,0.0,0.0,NONE,2.70485341770984E-11,2.9927283726313693E-12,0.0,
129494835,33.655,0.0,0.0,0,606.201,606.03125,0.06377824,-0.0018836977,-0.9997949,1.0018288,0.15308459,0.029830592,0.081067055,0.17577435,475,-176,1409,1497.0,0.012760945,-0.006271127,-0.013940187,0.019912247,0.014218605403964015,-0.014218605403964015,0.08593791671503354,3.597288552447198,20.648757796927804,20.648757796927782,0.02662882665181634,0.13770330689412366,-0.08481462888587243,17.571548177635634,,0.0,,,64.98,,,0.0,0.0,20151018,31,2015-10-18T00:00:31Z,-17.0,99.99,99.99,3.75E7,0,0,0,0.0,0.0,0.0,,,,12648836,114,99,482,3414,3414,4383,4394,236,17563,24,3423,17548,0,false,false,false,false,false,false,false,false,false,false,0,0,0,0,48,61,61,49,945,946,945,946,940,940,940,940,0.0,0.0,0.0,0.0,1701.7,1696.2,1696.2,1700.5,0.0,0.0,0.0,0.0,0,0,0,0,-45.0,2.797395856905464E-11,4.60098002780504E-12,0,606.21686,605.9879,0.06277637,-0.001839011,-1.0008525,1.002821,0.10074126,-0.044144448,0.13898271,0.17723918,475,-176,1409,1497.0,1.928193E-4,0.0012390515,-0.0010481987,0.0016343647,0.0012539648229989578,-0.0012539648229989578,0.10778566813605477,3.519794896041798,17.756202140610245,17.75620214061024,0.04093975323066875,0.18254856609177691,-0.08745892157968514,17.67627450929754,,3.5056514883533566E-5,,,64.97,17.116,17.116,17.22,1.24782,0,3241,4.276,12.0,1.213,98,16.6,OK,31,0,0,0,0,0,65,100,0.0,0,0.0,589232.0,2.69E-43,0.0,-1.05007105E-23,62,1.3322676E-15,-1.3322747E-15,9.4E-44,False,False,0,None,0.0,1.0842022E-19,NONE,0.0,0.0,0.0,NONE,2.70485341770984E-11,2.9927283726313693E-12,0.0,
129685584,33.705,0.0,0.0,0,606.1614,606.0314,0.06335716,-0.002714072,-0.99979836,1.0018075,0.06992017,-0.03611855,0.007854651,0.07908903,475,-176,1409,1497.0,0.012845106,-0.006833851,-0.013168602,0.01962423,0.014549854968337628,-0.014549854968337628,0.0858132458991994,3.598323251630511,20.64750763859174,20.64750763859172,0.031065390356488733,0.14882966614153398,-0.08512835342114113,17.570535090306297,,0.0,,,64.99,,,0.0,0.0,20151018,31,2015-10-18T00:00:31Z,-17.0,99.99,99.99,3.75E7,0,0,0,0.0,0.0,0.0,,,,12648836,114,99,482,3414,3414,4383,4394,236,17563,24,3423,17548,0,false,false,false,false,false,false,false,false,false,false,0,0,0,0,48,61,61,49,945,946,945,946,940,940,940,940,0.0,0.0,0.0,0.0,1701.7,1696.2,1696.2,1700.5,0.0,0.0,0.0,0.0,0,0,0,0,-45.0,1.1756549648320924E-11,4.6093454460374124E-12,0,606.3569,605.9879,0.06399504,-0.0023660604,-0.9998257,1.0018744,0.23379089,-0.07941895,0.052963313,0.25252852,478,-176,1409,1498.0,2.2231412E-4,5.130312E-4,-0.0025485563,0.002609169,5.59128422528965E-4,-5.227532190429138E-4,0.10833202839293747,3.5175190083418832,17.754481618907956,17.75448161890796,0.05051692574769548,0.19924009151189598,-0.09362413345059521,17.591008558833735,,3.685980871874961E-5,,,64.97,17.118,17.118,17.222,1.24782,0,3241,4.276,12.0,1.213,98,16.6,OK,31,0,0,0,0,0,65,100,0.0,0,0.0,589232.0,2.69E-43,0.0,-1.05007105E-23,62,1.3322676E-15,-1.3322747E-15,9.4E-44,False,False,0,None,0.0,1.0842022E-19,NONE,0.0,0.0,0.0,NONE,2.70485341770984E-11,2.9927283726313693E-12,0.0,
129846583,33.747,0.0,0.0,0,606.1614,606.0314,0.06335716,-0.002714072,-0.99979836,1.0018075,0.06992017,-0.03611855,0.007854651,0.07908903,475,-176,1409,1497.0,0.012845106,-0.006833851,-0.013168602,0.01962423,0.014549854968337628,-0.014549854968337628,0.0858132458991994,3.598323251630511,20.64750763859174,20.64750763859172,0.031065390356488733,0.14882966614153398,-0.08512835342114113,17.570535090306297,,0.0,,,64.99,,,0.0,0.0,20151018,31,2015-10-18T00:00:31Z,-17.0,99.99,99.99,3.75E7,0,0,0,0.0,0.0,0.0,,,,12648836,114,99,482,3414,3414,4383,4394,236,17563,24,3423,17548,0,false,false,false,false,false,false,false,false,false,false,0,0,0,0,48,61,61,49,945,946,945,946,940,940,940,940,0.0,0.0,0.0,0.0,1701.7,1696.2,1696.2,1700.5,0.0,0.0,0.0,0.0,0,0,0,0,-45.0,1.1756549648320924E-11,4.6093454460374124E-12,0,606.3569,605.9879,0.06399504,-0.0023660604,-0.9998257,1.0018744,0.23379089,-0.07941895,0.052963313,0.25252852,478,-176,1409,1498.0,2.2231412E-4,5.130312E-4,-0.0025485563,0.002609169,5.59128422528965E-4,-5.59128422528965E-4,0.10833202839293747,3.5175190083418832,17.754481618907956,17.75448161890796,0.05051692574769548,0.19924009151189598,-0.09362413345059521,17.591008558833735,,3.685980871874961E-5,,,64.97,17.118,17.118,17.222,1.24782,0,3241,4.276,12.0,1.213,98,16.6,OK,31,0,0,0,0,0,65,100,0.0,0,0.0,589232.0,2.69E-43,0.0,-1.05007105E-23,62,1.3322676E-15,-1.3322747E-15,9.4E-44,False,False,0,None,0.0,1.0842022E-19,NONE,0.0,0.0,0.0,NONE,2.70485341770984E-11,2.9927283726313693E-12,0.0,
130069596,33.805,0.0,0.0,0,606.37805,606.02435,0.06258685,-0.0010938994,-0.9991651,1.001124,0.19033033,-0.109368876,-0.09934468,0.24094926,475,-176,1412,1500.0,0.012962259,-0.006884275,-0.009815763,0.017656801,0.014676968783140872,-0.014676968783140872,0.08419592029742937,3.5996728960236215,20.64933572817046,20.649335728170456,0.026499401312060248,0.16181797719762067,-0.09238918827862837,17.560783738711876,,0.0,,,64.94,,,0.0,0.0,20151018,31,2015-10-18T00:00:31Z,-17.0,99.99,99.99,3.75E7,0,0,0,0.0,0.0,0.0,,,,12648836,114,99,482,3414,3414,4383,4394,236,17563,24,3423,17548,0,false,false,false,false,false,false,false,false,false,false,0,0,0,0,49,62,62,48,945,945,945,946,940,940,940,940,0.0,0.0,0.0,0.0,1701.7,1696.2,1695.6,1701.1,0.0,0.0,0.0,0.0,0,0,0,0,-45.0,-7.397121071975648E-12,-7.656449037179206E-12,0,606.4282,605.9879,0.06373914,-0.0018395633,-0.99995923,1.0019903,0.04053902,-0.14407218,-0.08747621,0.17335597,475,-176,1412,1500.0,-3.2636206E-4,-3.4025023E-4,-0.0033657427,0.0033986035,4.7146835457730936E-4,-4.2783359221187965E-4,0.10348435957500686,3.529202316340436,17.75910589015631,17.75910589015632,0.04879468047732623,0.21292956494324128,-0.10477667609700538,17.65480925126191,,3.938888303831755E-5,,,64.92,17.118,17.118,17.222,1.24782,0,3241,4.276,12.0,1.213,98,16.6,OK,31,0,0,0,0,0,65,100,0.0,0,0.0,589232.0,2.69E-43,0.0,-1.05007105E-23,62,1.3322676E-15,-1.3322747E-15,9.4E-44,False,False,0,None,0.0,1.0842022E-19,NONE,0.0,0.0,0.0,NONE,2.70485341770984E-11,2.9927283726313693E-12,0.0,
130262955,33.855,0.0,0.0,0,606.37805,606.02435,0.06258685,-0.0010938994,-0.9991651,1.001124,0.19033033,-0.109368876,-0.09934468,0.24094926,475,-176,1412,1500.0,0.012962259,-0.006884275,-0.009815763,0.017656801,0.014676968783140872,-0.014676968783140872,0.08419592029742937,3.5996728960236215,20.64933572817046,20.649335728170456,0.026499401312060248,0.16181797719762067,-0.09238918827862837,17.560783738711876,,0.0,,,64.94,,,0.0,0.0,20151018,31,2015-10-18T00:00:31Z,-17.0,99.99,99.99,3.75E7,0,0,0,0.0,0.0,0.0,,,,12648836,114,99,482,3414,3414,4383,4394,236,17563,24,3423,17548,0,false,false,false,false,false,false,false,false,false,false,0,0,0,0,49,62,62,49,944,946,945,946,940,940,940,940,0.0,0.0,0.0,0.0,1701.1,1695.6,1695.6,1701.7,0.0,0.0,0.0,0.0,0,0,0,0,-45.0,-7.397121071975648E-12,-7.656449037179206E-12,0,606.4282,605.9879,0.06373914,-0.0018395633,-0.99995923,1.0019903,0.04053902,-0.14407218,-0.08747621,0.17335597,475,-176,1412,1500.0,-3.2636206E-4,-3.4025023E-4,-0.0033657427,0.0033986035,4.7146835457730936E-4,-4.7146835457730936E-4,0.10348435957500686,3.529202316340436,17.75910589015631,17.75910589015632,0.04879468047732623,0.21292956494324128,-0.10477667609700538,17.65480925126191,,3.938888303831755E-5,,,64.92,17.118,17.118,17.222,1.24782,0,3241,4.276,12.0,1.213,98,16.6,OK,31,0,0,0,0,0,65,100,0.0,0,0.0,589232.0,2.69E-43,0.0,-1.05007105E-23,62,1.3322676E-15,-1.3322747E-15,9.4E-44,False,False,0,None,0.0,1.0842022E-19,NONE,0.0,0.0,0.0,NONE,2.70485341770984E-11,2.9927283726313693E-12,0.0,
130396276,33.889,0.0,0.0,0,606.29614,606.0172,0.063110456,-0.0030099722,-0.99968725,1.0016819,0.16117218,-0.020739773,-2.5737274E-4,0.16250132,481,-176,1406,1496.0,0.0130137615,-0.0070642815,-0.0043201596,0.015424845,0.014807500111266062,-0.014807500111266062,0.08537170547042897,3.600335087124173,20.64956456836987,20.649564568369897,0.021528540105456125,0.17936048924165435,-0.0988825491711471,17.399289585343894,,0.0,,,65.0,,,0.0,0.0,20151018,31,2015-10-18T00:00:31Z,-17.0,99.99,99.99,3.75E7,0,0,0,0.0,0.0,0.0,,,,12648836,114,99,482,3414,3414,4383,4394,236,17563,24,3423,17548,0,false,false,false,false,false,false,false,false,false,false,0,0,0,0,49,62,62,49,944,946,945,946,940,940,940,940,0.0,0.0,0.0,0.0,1701.1,1695.6,1695.6,1701.7,0.0,0.0,0.0,0.0,0,0,0,0,-45.0,-7.397121071975648E-12,-7.656449037179206E-12,0,606.4282,605.9879,0.06373914,-0.0018395633,-0.99995923,1.0019903,0.04053902,-0.14407218,-0.08747621,0.17335597,475,-176,1412,1500.0,-3.2636206E-4,-3.4025023E-4,-0.0033657427,0.0033986035,4.7146835457730936E-4,-4.7146835457730936E-4,0.10348435957500686,3.529202316340436,17.75910589015631,17.75910589015632,0.04879468047732623,0.21292956494324128,-0.10477667609700538,17.65480925126191,,3.938888303831755E-5,,,64.92,17.117,17.117,17.216,1.24782,0,3241,4.278,12.0,1.213,98,16.6,OK,31,0,0,0,0,0,65,100,0.0,0,0.0,589232.0,2.69E-43,0.0,-1.05007105E-23,62,1.3322676E-15,-1.3322747E-15,9.4E-44,False,False,0,None,0.0,1.0842022E-19,NONE,0.0,0.0,0.0,NONE,-2.2335666680435372E-11,4.442037081389957E-12,0.0,
130614745,33.946,0.0,0.0,0,606.29614,606.0172,0.063110456,-0.0030099722,-0.99968725,1.0016819,0.16117218,-0.020739773,-2.5737274E-4,0.16250132,481,-176,1406,1496.0,0.0130137615,-0.0070642815,-0.0043201596,0.015424845,0.014807500111266062,-0.014807500111266062,0.08537170547042897,3.600335087124173,20.64956456836987,20.649564568369897,0.021528540105456125,0.17936048924165435,-0.0988825491711471,17.399289585343894,,0.0,,,65.0,,,0.0,0.0,20151018,31,2015-10-18T00:00:31Z,-17.0,99.99,99.99,3.75E7,0,0,0,0.0,0.0,0.0,,,,12648836,114,99,482,3414,3414,4383,4394,236,17563,24,3423,17548,0,false,false,false,false,false,false,false,false,false,false,0,0,0,0,49,62,62,49,944,946,945,946,940,940,940,940,0.0,0.0,0.0,0.0,1701.1,1695.6,1695.6,1701.7,0.0,0.0,0.0,0.0,0,0,0,0,-45.0,-2.3460815432689517E-11,7.750559992293398E-12,0,606.3331,605.9879,0.06338848,-0.0021533468,-0.9982406,1.0002534,0.22472459,-0.05657303,0.05506127,0.23818773,481,-176,1406,1496.0,3.545141E-4,-0.0010476082,-0.004002421,0.0041524135,0.0011059670732877255,-0.001062377528323979,0.10350944798884676,3.521522389580183,17.752129537978085,17.752129537978078,0.04717718115840878,0.22616616910667062,-0.11478883392695018,17.49484445628866,,4.186385881571307E-5,,,64.97,17.117,17.117,17.216,1.24782,0,3241,4.278,12.0,1.213,98,16.6,OK,31,0,0,0,0,0,65,100,0.0,0,0.0,589232.0,2.69E-43,0.0,-1.05007105E-23,62,1.3322676E-15,-1.3322747E-15,9.4E-44,False,False,0,None,0.0,1.0842022E-19,NONE,0.0,0.0,0.0,NONE,-2.2335666680435372E-11,4.442037081389957E-12,0.0,
130825882,34.001,0.0,0.0,0,606.164,606.0128,0.062074505,-0.0010528918,-0.9988907,1.0008181,0.032571543,-0.04688907,-0.06565611,0.087006986,475,-176,1409,1497.0,0.012916649,-0.007399341,-0.001487249,0.014960012,0.014885901885454524,-0.014885901885454524,0.08536197770363309,3.602751962778337,20.651501863477883,20.651501863477904,0.018240103617044603,0.1890264010787011,-0.102256565406354,17.566387710757827,,0.0,,,64.97,,,0.0,0.0,20151018,31,2015-10-18T00:00:31Z,-17.0,99.99,99.99,3.75E7,0,0,0,0.0,0.0,0.0,,,,12648836,114,99,482,3414,3414,4383,4394,236,17563,24,3423,17548,0,false,false,false,false,false,false,false,false,false,false,0,0,0,0,49,62,61,48,945,945,944,945,940,940,940,940,0.0,0.0,0.0,0.0,1701.1,1696.2,1696.2,1701.7,0.0,0.0,0.0,0.0,0,0,0,0,-45.0,-2.3460815432689517E-11,7.750559992293398E-12,0,606.3331,605.9879,0.06338848,-0.0021533468,-0.9982406,1.0002534,0.22472459,-0.05657303,0.05506127,0.23818773,481,-176,1406,1496.0,3.545141E-4,-0.0010476082,-0.004002421,0.0041524135,0.0011059670732877255,-0.0011059670732877255,0.10350944798884676,3.521522389580183,17.752129537978085,17.752129537978078,0.04717718115840878,0.22616616910667062,-0.11478883392695018,17.49484445628866,,4.186385881571307E-5,,,64.97,17.117,17.117,17.216,1.24782,0,3241,4.278,12.0,1.213,98,16.6,OK,31,0,0,0,0,0,65,100,0.0,0,0.0,589232.0,2.69E-43,0.0,-1.05007105E-23,62,1.3322676E-15,-1.3322747E-15,9.4E-44,False,False,0,None,0.0,1.0842022E-19,NONE,0.0,0.0,0.0,NONE,-2.2335666680435372E-11,4.442037081389957E-12,0.0,
