Tick#,offsetTime,IMU_ATTI(0):Longitude,IMU_ATTI(0):Latitude,IMU_ATTI(0):numSats,IMU_ATTI(0):barometer:Raw,IMU_ATTI(0):barometer:Smooth,IMU_ATTI(0):accel:X,IMU_ATTI(0):accel:Y,IMU_ATTI(0):accel:Z,IMU_ATTI(0):accel:Composite,IMU_ATTI(0):gyro:X,IMU_ATTI(0):gyro:Y,IMU_ATTI(0):gyro:Z,IMU_ATTI(0):gyro:Composite,IMU_ATTI(0):mag:X,IMU_ATTI(0):mag:Y,IMU_ATTI(0):mag:Z,IMU_ATTI(0):mag:Mod,IMU_ATTI(0):velN,IMU_ATTI(0):velE,IMU_ATTI(0):velD,IMU_ATTI(0):velComposite,IMU_ATTI(0):velH,IMU_ATTI(0):GPS-H,IMU_ATTI(0):roll,IMU_ATTI(0):pitch,IMU_ATTI(0):yaw,IMU_ATTI(0):yaw360,IMU_ATTI(0):totalGyro:Z,IMU_ATTI(0):totalGyro:X,IMU_ATTI(0):totalGyro:Y,IMU_ATTI(0):magYaw,IMU_ATTI(0):distanceHP,IMU_ATTI(0):distanceTravelled,IMU_ATTI(0):directionOfTravel[mag],IMU_ATTI(0):directionOfTravel[true],IMU_ATTI(0):temperature,General:relativeHeight,General:absoluteHeight,GPS(0):Long,GPS(0):Lat,GPS(0):Date,GPS(0):Time,GPS:dateTimeStamp,GPS(0):heightMSL,GPS(0):hDOP,GPS(0):pDOP,GPS(0):sAcc,GPS(0):numGPS,GPS(0):numGLNAS,GPS(0):numSV,GPS(0):velN,GPS(0):velE,GPS(0):velD,HP:Longitude,HP:Latitude,HP:rthHeight,BatBlackBox:tick,BatBlackBox:id,BatBlackBox:rsoc,BatBlackBox:index,BatBlackBox:rm,BatBlackBox:fcc,BatBlackBox:cell_min,BatBlackBox:cell_max,BatBlackBox:current,BatBlackBox:voltage,BatBlackBox:temp,BatBlackBox:flag,BatBlackBox:reserve,BatBlackBox:user_data,OA:avoidObst,OA:emergBrake,OA:radiusLimit,OA:airportLimit,OA:groundForceLanding,OA:horizNearBoundary,OA:vertLowLimit,OA:vertAirportLimit,OA:roofLimit,OA:hitGroundLimit,Motor:Speed:RFront,Motor:Speed:LFront,Motor:Speed:LBack,Motor:Speed:RBack,Motor:EscTemp:RFront,Motor:EscTemp:LFront,Motor:EscTemp:LBack,Motor:EscTemp:RBack,Motor:PPMrecv:RFront,Motor:PPMrecv:LFront,Motor:PPMrecv:LBack,Motor:PPMrecv:RBack,Motor:PPMsend:RFront,Motor:PPMsend:LFront,Motor:PPMsend:LBack,Motor:PPMsend:RBack,Motor:V_out:RFront,Motor:V_out:LFront,Motor:V_out:LBack,Motor:V_out:RBack,Motor:Volts:RFront,Motor:Volts:LFront,Motor:Volts:LBack,Motor:Volts:RBack,Motor:Current:RFront,Motor:Current:LFront,Motor:Current:LBack,Motor:Current:RBack,Motor:Status:RFront,Motor:Status:LFront,Motor:Status:LBack,Motor:Status:RBack,Motor:thrustAngle,IMU_ATTI(1):Longitude,IMU_ATTI(1):Latitude,IMU_ATTI(1):numSats,IMU_ATTI(1):barometer:Raw,IMU_ATTI(1):barometer:Smooth,IMU_ATTI(1):accel:X,IMU_ATTI(1):accel:Y,IMU_ATTI(1):accel:Z,IMU_ATTI(1):accel:Composite,IMU_ATTI(1):gyro:X,IMU_ATTI(1):gyro:Y,IMU_ATTI(1):gyro:Z,IMU_ATTI(1):gyro:Composite,IMU_ATTI(1):mag:X,IMU_ATTI(1):mag:Y,IMU_ATTI(1):mag:Z,IMU_ATTI(1):mag:Mod,IMU_ATTI(1):velN,IMU_ATTI(1):velE,IMU_ATTI(1):velD,IMU_ATTI(1):velComposite,IMU_ATTI(1):velH,IMU_ATTI(1):GPS-H,IMU_ATTI(1):roll,IMU_ATTI(1):pitch,IMU_ATTI(1):yaw,IMU_ATTI(1):yaw360,IMU_ATTI(1):totalGyro:Z,IMU_ATTI(1):totalGyro:X,IMU_ATTI(1):totalGyro:Y,IMU_ATTI(1):magYaw,IMU_ATTI(1):distanceHP,IMU_ATTI(1):distanceTravelled,IMU_ATTI(1):directionOfTravel[mag],IMU_ATTI(1):directionOfTravel[true],IMU_ATTI(1):temperature,IMUEX(0):err,IMUEX(0):rtk_Longitude,IMUEX(0):rtk_Latitude,IMUEX(0):rtk_Alti,IMUEX(1):err,IMUEX(1):rtk_Longitude,IMUEX(1):rtk_Latitude,IMUEX(1):rtk_Alti,MotorCtrl:Status,MotorCtrl:PWM:RFront,MotorCtrl:PWM:LFront,MotorCtrl:PWM:LBack,MotorCtrl:PWM:RBack,BattInfo:Voltage,BattInfo:BatVoltage,BattInfo:AdVoltage,BattInfo:AvgCurrent,BattInfo:R_time,BattInfo:R_CAP_MAH,BattInfo:LowCellVoltage,BattInfo:LowCellVolThreshold,BattInfo:BatCurrent,BattInfo:Remaining%,BattInfo:Temp,BattInfo:status,battery_info:BatDynCnt,battery_info:Vol1Protect,battery_info:Vol2Protect,battery_info:Cap1Protect,battery_info:Cap2Protect,battery_info:Batpresent,battery_info:sopPercentage,battery_info:sopValue,battery_info:sopScale,battery_info:sopFlg,BattInfo:WindHeading:WindDir,battery_info:home_dir,BattInfo:Wind:rangeMin,BattInfo:Wind:rangeMax,battery_info:cap_speed,battery_info:against_wind,battery_info:emergency_land_cap,battery_info:intel_bat_land_cap,battery_info:intel_bat_gh_cap,BattInfo:Smart:SmartGh,BattInfo:Smart:SmartLand,BattInfo:GoHome:CntDown,BattInfo:GoHome:GhCmd,BattInfo:GoHome:CapLevel,BattInfo:GoHome:LandCapLv,Attribute|Value,ConvertDatV3,3.6.6-Tablet
2315996695,.000,9.120718403504751,62.690847470086794,14,608.4575,608.5832,0.21118645,0.015730008,-0.97625047,0.9989555,-0.0386716,0.026120868,0.008507867,0.047436025,20,279,1464,1490.0,-0.006583344,0.007926953,0.010122935,0.014444751,0.01030422251923367,-0.01030422251923367,-0.8523428777349688,12.154163116801586,-39.26265357305197,320.737346426948,-729.3941335014745,54.044579919093444,-168.176861118767,-42.615852308472554,8.358161489230293,319.2068824183082,68.92009883306017,71.43286742381747,65.02,-0.4968874687499465,,9.1207177,62.6908478,20190920,203609,2019-09-20T20:36:09Z,667.889,0.75,1.37,6.95,8,6,14,0.0,0.01,-0.01,9.120718759932991,62.690772303512546,60,12884622,20,94,557,3290,3512,4220,4255,-1355,17051,19,2,16452,0,false,false,false,false,false,false,false,false,false,false,0,0,0,0,54,71,71,55,945,946,945,946,940,940,940,940,0.0,0.0,0.0,0.0,1625.1,1620.2,1620.8,1625.1,0.0,0.0,0.0,0.0,0,0,0,0,-45.0,9.120718301680062,62.69084714588133,0,608.4575,608.2479,0.21118645,0.015730008,-0.97625047,0.9989555,-0.0386716,0.026120868,0.008507867,0.047436025,20,279,1464,1490.0,0.0013942205,-8.025563E-5,-6.1080157E-4,0.0015242606,0.0013965284778330736,-0.0013965284778330736,-0.9840025813881391,12.09841678275134,-41.94705302775506,318.05294697224497,-735.096772504715,54.22950930694439,-165.87207540541414,-43.06664192924694,8.322124543166401,2.103730866270144E7,-119.57762942365784,-117.06486083290054,65.02,NONE,0.0,0.0,0.0,NONE,3.734238833497127E-11,5.1397111409531684E-11,0.0,,,,,,16.351,16.351,16.448,1.3237842,0,2658,4.07,12.0,1.321,76,26.8,OK,578,0,0,0,0,0,65,100,0.0,0,0.0,490280.0,9.0E-44,0.0,-1.05007105E-23,62,1.105942E-10,-1.10594665E-10,3.298753E-29,False,False,0,None,-1.2564244E-36,1.0842106E-19,Firmware Date| Jul 26 2019
2316149234,.040,9.120718403504751,62.690847470086794,14,608.4575,608.5832,0.21118645,0.015730008,-0.97625047,0.9989555,-0.0386716,0.026120868,0.008507867,0.047436025,20,279,1464,1490.0,-0.006583344,0.007926953,0.010122935,0.014444751,0.01030422251923367,-0.01030422251923367,-0.8523428777349688,12.154163116801586,-39.26265357305197,320.737346426948,-729.3941335014745,54.044579919093444,-168.176861118767,-42.615852308472554,8.358161489230293,319.2068824183082,68.92009883306017,71.43286742381747,65.02,0.0335085312500496,,9.1207177,62.6908478,20190920,203609,2019-09-20T20:36:09Z,667.889,0.75,1.37,6.95,8,6,14,0.0,0.01,-0.01,9.120718759932991,62.690772303512546,60,12884622,20,94,557,3290,3512,4220,4255,-1355,17051,19,2,16452,0,false,false,false,false,false,false,false,false,false,false,190,0,0,138,57,72,72,55,1127,1128,1127,1128,1122,1122,1122,1122,0.0,0.0,0.0,0.0,1608.5,1620.8,1620.8,1610.4,1.72,0.0,0.0,1.37,0,0,0,0,-99.00850374202514,9.120718301680062,62.69084714588133,0,608.4575,608.2479,0.21118645,0.015730008,-0.97625047,0.9989555,-0.0386716,0.026120868,0.008507867,0.047436025,20,279,1464,1490.0,0.0013942205,-8.025563E-5,-6.1080157E-4,0.0015242606,0.0013965284778330736,-0.0013965284778330736,-0.9840025813881391,12.09841678275134,-41.94705302775506,318.05294697224497,-735.096772504715,54.22950930694439,-165.87207540541414,-43.06664192924694,8.322124543166401,2.103730866270144E7,-119.57762942365784,-117.06486083290054,65.02,NONE,0.0,0.0,0.0,NONE,3.734238833497127E-11,5.1397111409531684E-11,0.0,,,,,,16.351,16.351,16.448,1.3237842,0,2658,4.07,12.0,1.321,76,26.8,OK,578,0,0,0,0,0,65,100,0.0,0,0.0,490280.0,9.0E-44,0.0,-1.05007105E-23,62,1.105942E-10,-1.10594665E-10,3.298753E-29,False,False,0,None,-1.2564244E-36,1.0842106E-19,ACType|MavicEnterprise
2316366243,.096,9.120718563347065,62.69084755469424,14,608.4145,608.5846,0.21164668,0.011370515,-0.975146,0.9979145,1.5429688,-8.715257,5.547855,10.44582,17,276,1461,1486.0,-0.0075787352,0.008677037,0.006435359,0.01319629,0.011520772889560493,0.2092256923774895,-0.8391202536506559,12.167786268610769,-39.24296899198759,320.7570310080124,-729.1169132165667,54.11963291847932,-168.6103829736278,-42.57423680959949,8.367555637890495,319.2193324455144,38.404650902678966,40.91741949343627,64.93,-0.0095212539062004,,9.1207176,62.6908478,20190920,203609,2019-09-20T20:36:09Z,667.921,0.75,1.37,6.95,8,6,14,0.0,-0.01,-0.02,9.120718759932991,62.690772303512546,60,12884622,20,94,557,3290,3512,4220,4255,-1355,17051,19,2,16452,0,false,false,false,false,false,false,false,false,false,false,190,0,0,138,57,72,72,55,1127,1128,1127,1128,1122,1122,1122,1122,0.0,0.0,0.0,0.0,1608.5,1620.8,1620.8,1610.4,1.72,0.0,0.0,1.37,0,0,0,0,-99.00850374202514,9.12071829693763,62.69084716498374,0,608.4145,608.24805,0.21164668,0.011370515,-0.975146,0.9979145,1.5429688,-8.715257,5.547855,10.44582,17,276,1461,1486.0,0.0024589135,6.12344E-5,0.0018058147,0.0030513885,0.002459675912629682,0.035445250874602,-0.986162703225852,12.113588068074288,-41.91698618369162,318.0830138163084,-734.8196590812659,54.30453337528362,-166.30543014848587,-43.064164523282145,8.32424930899836,2.1037308664839264E7,-9.01082115439695,-6.498052563639645,64.93,NONE,0.0,0.0,0.0,NONE,3.734238833497127E-11,5.1397111409531684E-11,0.0,,,,,,16.348,16.348,16.444,1.3237842,0,2658,4.07,12.0,1.321,76,26.8,OK,578,0,0,0,0,0,65,100,0.0,0,0.0,461776.0,9.0E-44,0.0,-1.05007105E-23,62,1.105942E-10,-1.10594665E-10,4.2873713E-29,False,False,0,None,-1.5471526E-36,1.0842106E-19,dateTime|2019-9-20 20:26:14 GMT
2316533344,.139,9.120718563347065,62.69084755469424,14,608.4145,608.5846,0.21164668,0.011370515,-0.975146,0.9979145,1.5429688,-8.715257,5.547855,10.44582,17,276,1461,1486.0,-0.0075787352,0.008677037,0.006435359,0.01319629,0.011520772889560493,-0.011520772889560493,-0.8391202536506559,12.167786268610769,-39.24296899198759,320.7570310080124,-729.1169132165667,54.11963291847932,-168.6103829736278,-42.57423680959949,8.367555637890495,319.2193324455144,38.404650902678966,40.91741949343627,64.93,-0.0095212539062004,,9.1207176,62.6908478,20190920,203609,2019-09-20T20:36:09Z,667.921,0.75,1.37,6.95,8,6,14,0.0,-0.01,-0.02,9.120718759932991,62.690772303512546,60,12884622,20,94,557,3290,3512,4220,4255,-1355,17051,19,2,16452,0,false,false,false,false,false,false,false,false,false,false,190,0,0,138,57,72,72,55,1127,1128,1127,1128,1122,1122,1122,1122,0.0,0.0,0.0,0.0,1608.5,1620.8,1620.8,1610.4,1.72,0.0,0.0,1.37,0,0,0,0,-99.00850374202514,9.12071829693763,62.69084716498374,0,608.4145,608.24805,0.21164668,0.011370515,-0.975146,0.9979145,1.5429688,-8.715257,5.547855,10.44582,17,276,1461,1486.0,0.0024589135,6.12344E-5,0.0018058147,0.0030513885,0.002459675912629682,-0.002459675912629682,-0.986162703225852,12.113588068074288,-41.91698618369162,318.0830138163084,-734.8196590812659,54.30453337528362,-166.30543014848587,-43.064164523282145,8.32424930899836,2.1037308664839264E7,-9.01082115439695,-6.498052563639645,64.93,NONE,0.0,0.0,0.0,NONE,3.734238833497127E-11,5.1397111409531684E-11,0.0,1,0.83,0.83,0.83,0.83,16.348,16.348,16.444,1.3237842,0,2658,4.07,12.0,1.321,76,26.8,OK,578,0,0,0,0,0,65,100,0.0,0,0.0,461776.0,9.0E-44,0.0,-1.05007105E-23,62,1.105942E-10,-1.10594665E-10,4.2873713E-29,False,False,0,None,-1.5471526E-36,1.0842106E-19,mcID(SN)|298DG13001W644
2316712136,.186,9.120718537170342,62.69084754117815,14,608.4145,608.5892,0.20939958,0.015366945,-0.9771335,0.9994369,0.2074391,-0.45668167,0.059036873,0.505049,32,269,1461,1485.0,-0.0064495024,0.01692161,0.0015139064,0.0181722,0.018109029673829484,0.0251579388764129,-0.8410162417295413,12.186161276320458,-39.25876874081147,320.7412312591885,-728.8371311164893,54.20697770889132,-169.0680597449517,-40.60173439243157,8.366054426295428,319.22134294213345,-140.89021323005167,-138.37744463929437,64.96,-0.0095212539062004,,9.1207176,62.6908478,20190920,203609,2019-09-20T20:36:09Z,667.921,0.75,1.37,6.95,8,6,14,0.0,-0.01,-0.02,9.120718759932991,62.690772303512546,60,12884622,20,94,557,3290,3512,4220,4255,-1355,17051,19,2,16452,0,false,false,false,false,false,false,false,false,false,false,209,209,209,352,57,79,78,59,1134,1135,1134,1134,1129,1129,1129,1129,0.1,0.1,0.1,0.1,1601.8,1597.5,1597.5,1601.8,7.54,6.71,8.26,6.94,0,0,0,0,-45.0,9.120718319230797,62.69084728963981,0,608.4145,608.24817,0.20939958,0.015366945,-0.9771335,0.9994369,0.2074391,-0.45668167,0.059036873,0.505049,32,269,1461,1485.0,0.0030960676,3.0264404E-4,5.870846E-4,0.003165738,0.003110824370351347,0.2961904032608284,-0.9890165534648906,12.118964026476624,-41.94079907522951,318.0592009247705,-734.5398682379523,54.391880895234536,-166.76312122228336,-41.11941054183331,8.33810723257295,2.1037308678746965E7,2.1777900508583095,4.690558641615614,64.96,NONE,0.0,0.0,0.0,NONE,3.734238833497127E-11,5.1397111409531684E-11,0.0,1,0.83,0.83,0.83,0.83,16.348,16.348,16.444,1.3237842,0,2658,4.07,12.0,1.321,76,26.8,OK,578,0,0,0,0,0,65,100,0.0,0,0.0,461776.0,9.0E-44,0.0,-1.05007105E-23,62,1.105942E-10,-1.10594665E-10,4.2873713E-29,False,False,0,None,-1.5471526E-36,1.0842106E-19,mcVer|v3.4.1.10
2316917235,.239,9.120718537170342,62.69084754117815,14,608.4145,608.5892,0.20939958,0.015366945,-0.9771335,0.9994369,0.2074391,-0.45668167,0.059036873,0.505049,32,269,1461,1485.0,-0.0064495024,0.01692161,0.0015139064,0.0181722,0.018109029673829484,-0.018109029673829484,-0.8410162417295413,12.186161276320458,-39.25876874081147,320.7412312591885,-728.8371311164893,54.20697770889132,-169.0680597449517,-40.60173439243157,8.366054426295428,319.22134294213345,-140.89021323005167,-138.37744463929437,64.96,-0.0095212539062004,,9.1207176,62.6908478,20190920,203609,2019-09-20T20:36:09Z,667.921,0.75,1.37,6.95,8,6,14,0.0,-0.01,-0.02,9.120718759932991,62.690772303512546,60,12884622,20,94,557,3290,3512,4220,4255,-1355,17051,19,2,16452,0,false,false,false,false,false,false,false,false,false,false,209,209,209,370,59,76,78,59,1140,1141,1142,1141,1135,1135,1135,1135,0.1,0.1,0.1,0.1,1601.8,1596.9,1596.3,1601.8,7.61,6.96,7.93,7.16,0,0,0,0,-45.0,9.120718319230797,62.69084728963981,0,608.4145,608.24817,0.20939958,0.015366945,-0.9771335,0.9994369,0.2074391,-0.45668167,0.059036873,0.505049,32,269,1461,1485.0,0.0030960676,3.0264404E-4,5.870846E-4,0.003165738,0.003110824370351347,-0.003110824370351347,-0.9890165534648906,12.118964026476624,-41.94079907522951,318.0592009247705,-734.5398682379523,54.391880895234536,-166.76312122228336,-41.11941054183331,8.33810723257295,2.1037308678746965E7,2.1777900508583095,4.690558641615614,64.96,NONE,0.0,0.0,0.0,NONE,3.734238833497127E-11,5.1397111409531684E-11,0.0,1,1.66,1.66,1.66,1.66,16.348,16.348,16.444,1.3237842,0,2658,4.07,12.0,1.321,76,26.8,OK,578,0,0,0,0,0,65,100,0.0,0,0.0,461776.0,9.0E-44,0.0,-1.05007105E-23,62,1.105942E-10,-1.10594665E-10,4.2873713E-29,False,False,0,None,-1.5471526E-36,1.0842106E-19,geoDeclination|2.51 degrees
2317134256,.296,9.12071851461579,62.69084753314992,14,608.4145,608.5925,0.21272555,0.015208505,-0.9763261,0.99934787,0.028754242,0.69909173,-0.09143254,0.7056316,29,276,1467,1493.0,-0.008463984,0.019787887,-0.0011355493,0.021552006,0.021522070316415332,0.004297837789028532,-0.8554191207683398,12.177043006920218,-39.26127559758146,320.73872440241854,-728.838747797324,54.218764754756734,-169.05596245773992,-41.48299718077738,8.365163371091388,319.2227992568869,-130.3183822628314,-127.80561367207409,64.97,-0.0095212539062004,,9.1207175,62.6908478,20190920,203609,2019-09-20T20:36:09Z,667.945,0.75,1.37,6.95,8,6,14,0.0,0.01,-0.02,9.120718759932991,62.690772303512546,60,12884622,20,94,557,3290,3512,4220,4255,-1355,17051,19,2,16452,0,false,false,false,false,false,false,false,false,false,false,209,209,209,370,59,76,78,59,1140,1141,1142,1141,1135,1135,1135,1135,0.1,0.1,0.1,0.1,1601.8,1596.9,1596.3,1601.8,7.61,6.96,7.93,7.16,0,0,0,0,-45.0,9.120718322348855,62.6908473201073,0,608.4145,608.2482,0.21272555,0.015208505,-0.9763261,0.99934787,0.028754242,0.69909173,-0.09143254,0.7056316,29,276,1467,1493.0,0.0015265642,0.0013191678,9.194701E-4,0.0022172118,0.002017573355447132,0.05811354045461697,-0.9904726901879604,12.131989413841378,-41.951004841887766,318.04899515811223,-734.5414849693038,54.403668309413476,-166.75102355706383,-41.91773806548773,8.341494623078924,2.103730868213853E7,0.17546346033107962,2.6882320510883844,64.97,NONE,0.0,0.0,0.0,NONE,3.734238833497127E-11,5.1397111409531684E-11,0.0,1,1.66,1.66,1.66,1.66,16.311,16.311,16.306,1.3237842,0,2658,4.07,12.0,1.321,76,26.8,OK,578,0,0,0,0,0,65,100,0.0,0,0.0,466792.0,9.0E-44,0.0,-1.05007105E-23,62,1.105942E-10,-1.10594665E-10,4.4237272E-29,False,False,0,None,-1.6214934E-36,1.0842106E-19,geoInclination|74.35 degrees
2317301225,.339,9.12071851461579,62.69084753314992,14,608.4145,608.5925,0.21272555,0.015208505,-0.9763261,0.99934787,0.028754242,0.69909173,-0.09143254,0.7056316,29,276,1467,1493.0,-0.008463984,0.019787887,-0.0011355493,0.021552006,0.021522070316415332,-0.021522070316415332,-0.8554191207683398,12.177043006920218,-39.26127559758146,320.73872440241854,-728.838747797324,54.218764754756734,-169.05596245773992,-41.48299718077738,8.365163371091388,319.2227992568869,-130.3183822628314,-127.80561367207409,64.97,-0.0095212539062004,,9.1207175,62.6908478,20190920,203609,2019-09-20T20:36:09Z,667.945,0.75,1.37,6.95,8,6,14,0.0,0.01,-0.02,9.120718759932991,62.690772303512546,60,12884622,20,94,557,3290,3512,4220,4255,-1355,17051,19,2,16452,0,false,false,false,false,false,false,false,false,false,false,209,209,209,370,59,76,78,59,1140,1141,1142,1141,1135,1135,1135,1135,0.1,0.1,0.1,0.1,1601.8,1596.9,1596.3,1601.8,7.61,6.96,7.93,7.16,0,0,0,0,-45.0,9.120718322348855,62.6908473201073,0,608.4145,608.2482,0.21272555,0.015208505,-0.9763261,0.99934787,0.028754242,0.69909173,-0.09143254,0.7056316,29,276,1467,1493.0,0.0015265642,0.0013191678,9.194701E-4,0.0022172118,0.002017573355447132,-0.002017573355447132,-0.9904726901879604,12.131989413841378,-41.951004841887766,318.04899515811223,-734.5414849693038,54.403668309413476,-166.75102355706383,-41.91773806548773,8.341494623078924,2.103730868213853E7,0.17546346033107962,2.6882320510883844,64.97,NONE,0.0,0.0,0.0,NONE,3.734238833497127E-11,5.1397111409531684E-11,0.0,1,2.49,2.49,2.49,2.49,16.311,16.311,16.306,1.3237842,0,2658,4.07,12.0,1.321,76,26.8,OK,578,0,0,0,0,0,65,100,0.0,0,0.0,466792.0,9.0E-44,0.0,-1.05007105E-23,62,1.105942E-10,-1.10594665E-10,4.4237272E-29,False,False,0,None,-1.6214934E-36,1.0842106E-19,geoIntensity|51659.31 nanoTesla
2317527728,.398,9.120718516240165,62.690847568676055,14,608.4145,608.5925,0.21145676,0.01394619,-0.97854435,1.001228,-0.4604097,0.15901764,-0.13922802,0.50660455,23,269,1458,1482.0,-0.007266893,0.010028051,-0.0017160696,0.012502577,0.012384245909682661,0.05473633489347192,-0.857883858657115,12.1783220685325,-39.2595542294212,320.7404457705788,-728.8502565763885,54.19722736039198,-169.0131472010873,-41.458373106781,8.369113569054502,319.22675045186406,-1.3110219150384534,1.2017466757188513,64.98,-0.0095212539062004,,9.1207175,62.6908478,20190920,203609,2019-09-20T20:36:09Z,667.945,0.75,1.37,6.95,8,6,14,0.0,0.01,-0.02,9.120718759932991,62.690772303512546,60,12884622,20,94,557,3290,3512,4220,4255,-1355,17051,19,2,16452,0,false,false,false,false,false,false,false,false,false,false,239,215,209,216,58,76,76,59,1147,1149,1148,1148,1142,1142,1142,1142,0.1,0.1,0.1,0.1,1601.2,1597.5,1596.9,1601.8,7.54,6.94,7.76,7.18,0,0,0,0,-133.0908475670036,9.120718187805672,62.690847269987025,0,608.4145,608.2483,0.21145676,0.01394619,-0.97854435,1.001228,-0.4604097,0.15901764,-0.13922802,0.50660455,23,269,1458,1482.0,3.5542145E-4,8.3868136E-4,2.674396E-4,9.493339E-4,9.108846637613492E-4,0.14928211480776352,-1.0126011318598194,12.137054640399949,-41.948572316450175,318.05142768354983,-734.5529929390751,54.38213242955058,-166.70821131116472,-41.94262491275547,8.335942729643255,2.1037308690979958E7,-131.58809649756896,-129.07532790681165,64.98,NONE,0.0,0.0,0.0,NONE,7.468477697514554E-11,3.426474093739276E-11,0.0,1,2.49,2.49,2.49,2.49,16.311,16.311,16.306,1.3237842,0,2658,4.07,12.0,1.321,76,26.8,OK,578,0,0,0,0,0,65,100,0.0,0,0.0,466792.0,9.0E-44,0.0,-1.05007105E-23,62,1.105942E-10,-1.10594665E-10,4.4237272E-29,False,False,0,None,-1.6214934E-36,1.0842106E-19,
2317672146,.435,9.120718516240165,62.690847568676055,14,608.4145,608.5925,0.21145676,0.01394619,-0.97854435,1.001228,-0.4604097,0.15901764,-0.13922802,0.50660455,23,269,1458,1482.0,-0.007266893,0.010028051,-0.0017160696,0.012502577,0.012384245909682661,-0.012384245909682661,-0.857883858657115,12.1783220685325,-39.2595542294212,320.7404457705788,-728.8502565763885,54.19722736039198,-169.0131472010873,-41.458373106781,8.369113569054502,319.22675045186406,-1.3110219150384534,1.2017466757188513,64.98,-0.0095212539062004,,9.1207175,62.6908478,20190920,203609,2019-09-20T20:36:09Z,667.945,0.75,1.37,6.95,8,6,14,0.0,0.01,-0.02,9.120718759932991,62.690772303512546,60,12884622,20,94,557,3290,3512,4220,4255,-1355,17051,19,2,16452,0,false,false,false,false,false,false,false,false,false,false,239,215,209,216,58,76,76,59,1147,1149,1148,1148,1142,1142,1142,1142,0.1,0.1,0.1,0.1,1601.2,1597.5,1596.9,1601.8,7.54,6.94,7.76,7.18,0,0,0,0,-133.0908475670036,9.120718187805672,62.690847269987025,0,608.4145,608.2483,0.21145676,0.01394619,-0.97854435,1.001228,-0.4604097,0.15901764,-0.13922802,0.50660455,23,269,1458,1482.0,3.5542145E-4,8.3868136E-4,2.674396E-4,9.493339E-4,9.108846637613492E-4,-9.108846637613492E-4,-1.0126011318598194,12.137054640399949,-41.948572316450175,318.05142768354983,-734.5529929390751,54.38213242955058,-166.70821131116472,-41.94262491275547,8.335942729643255,2.1037308690979958E7,-131.58809649756896,-129.07532790681165,64.98,NONE,0.0,0.0,0.0,NONE,7.468477697514554E-11,3.426474093739276E-11,0.0,1,3.33,3.33,3.33,3.33,16.311,16.311,16.306,1.3237842,0,2658,4.07,12.0,1.321,76,26.8,OK,578,0,0,0,0,0,65,100,0.0,0,0.0,466792.0,9.0E-44,0.0,-1.05007105E-23,62,1.105942E-10,-1.10594665E-10,4.4237272E-29,False,False,0,None,-1.6214934E-36,1.0842106E-19,
2317902249,.495,9.120718323406223,62.690847606175865,14,608.4145,608.599,0.21184644,0.013625594,-0.9767011,0.9995046,-0.34455997,0.39226997,-0.21998937,0.5665621,23,269,1451,1475.0,-0.010124529,0.0118644815,-0.0033316158,0.015949033,0.015597178978141795,0.16306879490703724,-0.8392237364124692,12.191286318621243,-39.265303050155076,320.73469694984493,-728.8681784225945,54.15706632592164,-168.98564271137414,-41.50043267343953,8.37330373777228,319.2374351665219,-69.54225509260128,-67.02948650184398,65.0,-0.0095212539062004,,9.1207172,62.6908478,20190920,203609,2019-09-20T20:36:09Z,667.959,0.75,1.37,6.95,8,6,14,0.01,-0.01,-0.01,9.120718759932991,62.690772303512546,60,12884622,20,94,557,3290,3512,4220,4255,-1355,17051,19,2,16452,0,false,false,false,false,false,false,false,false,false,false,300,260,271,285,58,76,76,58,1391,1402,1398,1395,1382,1382,1382,1382,0.1,0.1,0.1,0.1,1601.2,1596.3,1596.9,1602.4,7.56,6.93,7.74,7.18,0,0,0,0,-94.23639479905887,9.120718179385051,62.69084729549475,0,608.4145,608.2483,0.21184644,0.013625594,-0.9767011,0.9995046,-0.34455997,0.39226997,-0.21998937,0.5665621,23,269,1451,1475.0,3.903362E-4,7.688693E-4,-4.6873454E-5,8.635505E-4,8.622774367269732E-4,0.04710669089439843,-1.0107501913499304,12.133974370396917,-41.95152082298989,318.0484791770101,-734.5709148786401,54.34197118587223,-166.6807066781744,-42.060696040150575,8.33878055574669,2.1037308693848632E7,-11.12512868324572,-8.612360092488414,65.0,NONE,0.0,0.0,0.0,NONE,7.468477697514554E-11,3.426474093739276E-11,0.0,1,3.33,3.33,3.33,3.33,16.267,16.267,16.194,1.3312175,0,2658,4.07,12.0,1.709,76,26.9,OK,579,0,0,0,0,0,65,100,0.0,0,0.0,438008.0,9.0E-44,0.0,-1.05007105E-23,62,1.105942E-10,-1.10594665E-10,4.4061627E-29,False,False,0,None,-1.6118966E-36,1.0842106E-19,
2318069108,.539,9.120718323406223,62.690847606175865,14,608.4145,608.599,0.21184644,0.013625594,-0.9767011,0.9995046,-0.34455997,0.39226997,-0.21998937,0.5665621,23,269,1451,1475.0,-0.010124529,0.0118644815,-0.0033316158,0.015949033,0.015597178978141795,-0.015597178978141795,-0.8392237364124692,12.191286318621243,-39.265303050155076,320.73469694984493,-728.8681784225945,54.15706632592164,-168.98564271137414,-41.50043267343953,8.37330373777228,319.2374351665219,-69.54225509260128,-67.02948650184398,65.0,-0.0095212539062004,,9.1207172,62.6908478,20190920,203609,2019-09-20T20:36:09Z,667.959,0.75,1.37,6.95,8,6,14,0.01,-0.01,-0.01,9.120718759932991,62.690772303512546,60,12884622,20,94,557,3290,3512,4220,4255,-1355,17051,19,2,16452,0,false,false,false,false,false,false,false,false,false,false,300,260,271,285,58,76,76,58,1391,1402,1398,1395,1382,1382,1382,1382,0.1,0.1,0.1,0.1,1601.2,1596.3,1596.9,1602.4,7.56,6.93,7.74,7.18,0,0,0,0,-94.23639479905887,9.120718179385051,62.69084729549475,0,608.4145,608.2483,0.21184644,0.013625594,-0.9767011,0.9995046,-0.34455997,0.39226997,-0.21998937,0.5665621,23,269,1451,1475.0,3.903362E-4,7.688693E-4,-4.6873454E-5,8.635505E-4,8.622774367269732E-4,-8.622774367269732E-4,-1.0107501913499304,12.133974370396917,-41.95152082298989,318.0484791770101,-734.5709148786401,54.34197118587223,-166.6807066781744,-42.060696040150575,8.33878055574669,2.1037308693848632E7,-11.12512868324572,-8.612360092488414,65.0,NONE,0.0,0.0,0.0,NONE,7.468477697514554E-11,3.426474093739276E-11,0.0,1,28.75,28.75,28.75,28.75,16.267,16.267,16.194,1.3312175,0,2658,4.07,12.0,1.709,76,26.9,OK,579,0,0,0,0,0,65,100,0.0,0,0.0,438008.0,9.0E-44,0.0,-1.05007105E-23,62,1.105942E-10,-1.10594665E-10,4.4061627E-29,False,False,0,None,-1.6118966E-36,1.0842106E-19,
2318295728,.598,9.12071828720318,62.69084760841986,14,608.48474,608.5989,0.21197237,0.016850058,-0.9756357,0.99853957,0.21021491,-0.077948414,-0.13777569,0.26315093,20,272,1467,1492.0,-0.0076022176,0.019212661,-0.0023040264,0.02079011,0.020662044251264774,0.010980843913170491,-0.8429873167247708,12.1982465338147,-39.266222879574926,320.7337771204251,-728.8860307856465,54.150362550642065,-168.9699581666212,-41.77251918252734,8.373558373403515,319.2392988542615,-84.81858410137052,-82.30581551061321,65.04,0.0607302109375496,,9.1207172,62.6908478,20190920,203609,2019-09-20T20:36:09Z,667.959,0.75,1.37,6.95,8,6,14,0.01,-0.01,-0.01,9.120718759932991,62.690772303512546,60,12884622,20,94,557,3290,3512,4220,4255,-1355,17051,19,2,16452,0,false,false,false,false,false,false,false,false,false,false,323,346,329,335,57,76,75,58,1341,1351,1348,1344,1332,1332,1332,1332,0.1,0.1,0.1,0.1,1600.6,1596.3,1598.1,1601.2,7.56,6.9,7.71,7.18,0,0,0,0,106.38954033403479,9.120718058098277,62.69084725417615,0,608.48474,608.24835,0.21197237,0.016850058,-0.9756357,0.99853957,0.21021491,-0.077948414,-0.13777569,0.26315093,20,272,1467,1492.0,7.4309355E-4,0.001582512,-6.857512E-5,0.0017496386,0.00174829416225799,0.1291014090885967,-1.0165129988921378,12.143572111651121,-41.95231484153652,318.0476851584635,-734.5887668232753,54.33526756771321,-166.6650225010299,-42.3338673428254,8.334210451253584,2.1037308701555356E7,-129.1079377273232,-126.59516913656589,65.04,NONE,0.0,0.0,0.0,NONE,7.468477697514554E-11,3.426474093739276E-11,0.0,1,28.75,28.75,28.75,28.75,16.267,16.267,16.194,1.3312175,0,2658,4.07,12.0,1.709,76,26.9,OK,579,0,0,0,0,0,65,100,0.0,0,0.0,438008.0,9.0E-44,0.0,-1.05007105E-23,62,1.105942E-10,-1.10594665E-10,4.4061627E-29,False,False,0,None,-1.6118966E-36,1.0842106E-19,
2318453311,.638,9.12071828720318,62.69084760841986,14,608.48474,608.5989,0.21197237,0.016850058,-0.9756357,0.99853957,0.21021491,-0.077948414,-0.13777569,0.26315093,20,272,1467,1492.0,-0.0076022176,0.019212661,-0.0023040264,0.02079011,0.020662044251264774,-0.020662044251264774,-0.8429873167247708,12.1982465338147,-39.266222879574926,320.7337771204251,-728.8860307856465,54.150362550642065,-168.9699581666212,-41.77251918252734,8.373558373403515,319.2392988542615,-84.81858410137052,-82.30581551061321,65.04,0.0607302109375496,,9.1207172,62.6908478,20190920,203609,2019-09-20T20:36:09Z,667.959,0.75,1.37,6.95,8,6,14,0.01,-0.01,-0.01,9.120718759932991,62.690772303512546,60,12884622,20,94,557,3290,3512,4220,4255,-1355,17051,19,2,16452,0,false,false,false,false,false,false,false,false,false,false,396,394,345,393,59,75,76,57,1292,1301,1297,1295,1282,1282,1282,1282,0.1,0.1,0.1,0.1,1600.0,1596.9,1596.3,1597.5,7.47,6.88,7.74,7.17,0,0,0,0,-136.12330271407544,9.120718058098277,62.69084725417615,0,608.48474,608.24835,0.21197237,0.016850058,-0.9756357,0.99853957,0.21021491,-0.077948414,-0.13777569,0.26315093,20,272,1467,1492.0,7.4309355E-4,0.001582512,-6.857512E-5,0.0017496386,0.00174829416225799,-0.00174829416225799,-1.0165129988921378,12.143572111651121,-41.95231484153652,318.0476851584635,-734.5887668232753,54.33526756771321,-166.6650225010299,-42.3338673428254,8.334210451253584,2.1037308701555356E7,-129.1079377273232,-126.59516913656589,65.04,NONE,0.0,0.0,0.0,NONE,7.468477697514554E-11,3.426474093739276E-11,0.0,1,22.5,22.5,22.5,22.5,16.267,16.267,16.194,1.3312175,0,2658,4.07,12.0,1.709,76,26.9,OK,579,0,0,0,0,0,65,100,0.0,0,0.0,438008.0,9.0E-44,0.0,-1.05007105E-23,62,1.105942E-10,-1.10594665E-10,4.4061627E-29,False,False,0,None,-1.6118966E-36,1.0842106E-19,
2318632056,.685,9.120718253912813,62.69084760860224,14,608.4145,608.5989,0.20892812,0.013314902,-0.9781307,1.000284,-0.12141571,0.4747823,-0.48753545,0.69126755,20,276,1473,1498.0,-0.009942605,0.021134494,-0.0012774235,0.023391323,0.023356416636141266,0.01320450986238474,-0.8553226881342034,12.17299552974418,-39.269103330905146,320.7308966690949,-728.91723474906,54.1547937639326,-168.95015556157523,-42.14381692351208,8.373583717188087,319.24099729301895,-91.82860669227948,-89.31583810152217,64.97,-0.0095212539062004,,9.1207172,62.6908478,20190920,203609,2019-09-20T20:36:09Z,667.959,0.75,1.37,6.95,8,6,14,0.01,-0.01,-0.01,9.120718759932991,62.690772303512546,60,12884622,20,94,557,3290,3512,4220,4255,-1355,17051,19,2,16452,0,false,false,false,false,false,false,false,false,false,false,396,394,345,393,59,75,76,57,1292,1301,1297,1295,1282,1282,1282,1282,0.1,0.1,0.1,0.1,1600.0,1596.9,1596.3,1597.5,7.47,6.88,7.74,7.17,0,0,0,0,-136.12330271407544,9.120718040267478,62.69084727521235,0,608.4145,608.24835,0.20892812,0.013314902,-0.9781307,1.000284,-0.12141571,0.4747823,-0.48753545,0.69126755,20,276,1473,1498.0,2.9315654E-4,0.0016437921,1.1200392E-4,0.0016734808,0.001669728496837282,0.05235599914304281,-1.0146535924751088,12.136165989192996,-41.95918140493484,318.04081859506516,-734.6199721680711,54.339698977171125,-166.6452190193335,-42.62719439691993,8.336553504969977,2.103730870406512E7,-23.76297571120056,-21.250207120443257,64.97,NONE,0.0,0.0,0.0,NONE,7.468477697514554E-11,3.426474093739276E-11,0.0,1,22.5,22.5,22.5,22.5,16.29,16.29,16.19,1.3312175,0,2658,4.07,12.0,1.709,76,26.9,OK,579,0,0,0,0,0,65,100,0.0,0,0.0,409912.0,9.0E-44,0.0,-1.05007105E-23,62,1.105942E-10,-1.10594665E-10,4.38829E-29,False,False,0,None,-1.602162E-36,1.0842106E-19,
2318837097,.738,9.120718253912813,62.69084760860224,14,608.4145,608.5989,0.20892812,0.013314902,-0.9781307,1.000284,-0.12141571,0.4747823,-0.48753545,0.69126755,20,276,1473,1498.0,-0.009942605,0.021134494,-0.0012774235,0.023391323,0.023356416636141266,-0.023356416636141266,-0.8553226881342034,12.17299552974418,-39.269103330905146,320.7308966690949,-728.91723474906,54.1547937639326,-168.95015556157523,-42.14381692351208,8.373583717188087,319.24099729301895,-91.82860669227948,-89.31583810152217,64.97,-0.0095212539062004,,9.1207171,62.6908477,20190920,203609,2019-09-20T20:36:09Z,667.983,0.75,1.37,6.95,8,6,14,-0.01,0.01,-0.01,9.120718759932991,62.690772303512546,60,12884622,20,94,557,3290,3512,4220,4255,-1355,17051,19,2,16452,0,false,false,false,false,false,false,false,false,false,false,396,394,345,393,59,75,76,57,1292,1301,1297,1295,1282,1282,1282,1282,0.1,0.1,0.1,0.1,1600.0,1596.9,1596.3,1597.5,7.47,6.88,7.74,7.17,0,0,0,0,-136.12330271407544,9.120718040267478,62.69084727521235,0,608.4145,608.24835,0.20892812,0.013314902,-0.9781307,1.000284,-0.12141571,0.4747823,-0.48753545,0.69126755,20,276,1473,1498.0,2.9315654E-4,0.0016437921,1.1200392E-4,0.0016734808,0.001669728496837282,-0.001669728496837282,-1.0146535924751088,12.136165989192996,-41.95918140493484,318.04081859506516,-734.6199721680711,54.339698977171125,-166.6452190193335,-42.62719439691993,8.336553504969977,2.103730870406512E7,-23.76297571120056,-21.250207120443257,64.97,NONE,0.0,0.0,0.0,NONE,7.468477697514554E-11,3.426474093739276E-11,0.0,1,16.25,16.25,16.25,16.25,16.29,16.29,16.19,1.3312175,0,2658,4.07,12.0,1.709,76,26.9,OK,579,0,0,0,0,0,65,100,0.0,0,0.0,409912.0,9.0E-44,0.0,-1.05007105E-23,62,1.105942E-10,-1.10594665E-10,4.38829E-29,False,False,0,None,-1.602162E-36,1.0842106E-19,
2319063724,.797,9.120718209475866,62.690847597704696,14,608.4145,608.5992,0.21514879,0.014344719,-0.9751807,0.9987353,0.2928758,0.14301707,-0.10166408,0.3414172,26,272,1461,1486.0,-0.0015983916,0.010428035,-0.0020175073,0.010741001,0.010549823058669488,0.033092417838415475,-0.8511704773951844,12.177028753008772,-39.256293487269566,320.74370651273045,-728.9466312536912,54.16334829770714,-168.91933214797186,-41.43461391724723,8.37237926769886,319.24356779231147,-120.63845063596561,-118.12568204520831,65.0,-0.0095212539062004,,9.1207171,62.6908477,20190920,203609,2019-09-20T20:36:09Z,667.983,0.75,1.37,6.95,8,6,14,-0.01,0.01,-0.01,9.120718759932991,62.690772303512546,60,12884622,20,94,557,3290,3512,4220,4255,-1355,17051,19,2,16452,0,false,false,false,false,false,false,false,false,false,false,455,446,402,419,59,76,76,59,1241,1250,1247,1245,1232,1232,1232,1232,0.1,0.1,0.1,0.1,1599.3,1597.5,1596.9,1600.6,7.46,6.87,7.66,7.16,0,0,0,0,-161.99583839408663,9.120717634136016,62.6908472397958,0,608.4145,608.2484,0.21514879,0.014344719,-0.9751807,0.9987353,0.2928758,0.14301707,-0.10166408,0.3414172,26,272,1461,1486.0,0.0031844696,2.3194601E-5,-0.0010397239,0.0033499866,0.003184554167578699,0.35488163084995084,-1.0102439733762665,12.141100708717332,-41.946247247890504,318.0537527521095,-734.6493675242248,54.34825317673283,-166.61439680995474,-41.914716763646105,8.332732449770685,2.1037308725154985E7,-103.27486355510653,-100.76209496434923,65.0,NONE,0.0,0.0,0.0,NONE,0.0,1.1136040804546091E-10,0.0,1,16.25,16.25,16.25,16.25,16.29,16.29,16.19,1.3312175,0,2658,4.07,12.0,1.709,76,26.9,OK,579,0,0,0,0,0,65,100,0.0,0,0.0,409912.0,9.0E-44,0.0,-1.05007105E-23,62,1.105942E-10,-1.10594665E-10,4.38829E-29,False,False,0,None,-1.602162E-36,1.0842106E-19,
2319221173,.838,9.120718209475866,62.690847597704696,14,608.4145,608.5992,0.21514879,0.014344719,-0.9751807,0.9987353,0.2928758,0.14301707,-0.10166408,0.3414172,26,272,1461,1486.0,-0.0015983916,0.010428035,-0.0020175073,0.010741001,0.010549823058669488,-0.010549823058669488,-0.8511704773951844,12.177028753008772,-39.256293487269566,320.74370651273045,-728.9466312536912,54.16334829770714,-168.91933214797186,-41.43461391724723,8.37237926769886,319.24356779231147,-120.63845063596561,-118.12568204520831,65.0,-0.0095212539062004,,9.1207171,62.6908477,20190920,203609,2019-09-20T20:36:09Z,667.983,0.75,1.37,6.95,8,6,14,-0.01,0.01,-0.01,9.120718759932991,62.690772303512546,60,12884622,20,94,557,3290,3512,4220,4255,-1355,17051,19,2,16452,0,false,false,false,false,false,false,false,false,false,false,466,479,498,486,58,76,76,58,1392,1402,1399,1396,1382,1382,1382,1382,0.1,0.1,0.1,0.1,1600.6,1594.4,1595.0,1600.6,7.42,6.85,7.61,7.16,0,0,0,0,32.66091272167381,9.120717634136016,62.6908472397958,0,608.4145,608.2484,0.21514879,0.014344719,-0.9751807,0.9987353,0.2928758,0.14301707,-0.10166408,0.3414172,26,272,1461,1486.0,0.0031844696,2.3194601E-5,-0.0010397239,0.0033499866,0.003184554167578699,-0.003184554167578699,-1.0102439733762665,12.141100708717332,-41.946247247890504,318.0537527521095,-734.6493675242248,54.34825317673283,-166.61439680995474,-41.914716763646105,8.332732449770685,2.1037308725154985E7,-103.27486355510653,-100.76209496434923,65.0,NONE,0.0,0.0,0.0,NONE,0.0,1.1136040804546091E-10,0.0,1,10.0,10.0,10.0,10.0,16.29,16.29,16.19,1.3312175,0,2658,4.07,12.0,1.709,76,26.9,OK,579,0,0,0,0,0,65,100,0.0,0,0.0,409912.0,9.0E-44,0.0,-1.05007105E-23,62,1.105942E-10,-1.10594665E-10,4.38829E-29,False,False,0,None,-1.602162E-36,1.0842106E-19,
2319438245,.894,9.120717948194088,62.69084755568107,14,608.4821,608.5989,0.21280573,0.015954195,-0.97708666,1.0001196,-0.0041355663,-1.0846556,0.30916286,1.1278638,23,279,1470,1496.0,-0.0028565894,0.012109475,-0.0015398944,0.012536776,0.012441844344847238,0.23792489684767504,-0.85169596701633,12.213318561259019,-39.25432820410255,320.74567179589747,-728.9362772660234,54.177756154661914,-168.9663190007241,-42.13209487614537,8.36776182937561,319.2576924925854,-111.83166891466207,-109.31890032390477,64.96,0.0581056992187996,,9.1207169,62.6908477,20190920,203610,2019-09-20T20:36:10Z,668.002,0.75,1.37,6.95,8,6,14,0.01,-0.01,-0.01,9.120718759932991,62.690772303512546,60,12884622,20,94,557,3290,3512,4220,4255,-1355,17051,19,2,16452,0,false,false,false,false,false,false,false,false,false,false,466,479,498,486,58,76,76,58,1392,1402,1399,1396,1382,1382,1382,1382,0.1,0.1,0.1,0.1,1600.6,1594.4,1595.0,1600.6,7.42,6.85,7.61,7.16,0,0,0,0,32.66091272167381,9.120717578944557,62.6908472554889,0,608.4821,608.2484,0.21280573,0.015954195,-0.97708666,1.0001196,-0.0041355663,-1.0846556,0.30916286,1.1278638,23,279,1470,1496.0,0.0026027914,4.340959E-4,-5.547421E-4,0.0026964238,0.002638742558213265,0.056076808713882126,-1.0152087003535892,12.14934492435252,-41.946708672364736,318.0532913276353,-734.6390133478089,54.362661296335624,-166.66138451925374,-42.67874239797699,8.33449727923512,2.1037308728467483E7,-60.723906780858485,-58.21113819010118,64.96,NONE,0.0,0.0,0.0,NONE,0.0,1.1136040804546091E-10,0.0,1,10.0,10.0,10.0,10.0,16.32,16.32,16.18,1.3312175,0,2658,4.07,12.0,1.709,76,26.9,OK,579,0,0,0,0,0,65,100,0.0,0,0.0,316984.0,9.0E-44,0.0,-1.05007105E-23,62,1.105942E-10,-1.10594665E-10,4.3709567E-29,False,False,0,None,-1.592703E-36,1.0842106E-19,
2319592090,.934,9.120717948194088,62.69084755568107,14,608.4821,608.5989,0.21280573,0.015954195,-0.97708666,1.0001196,-0.0041355663,-1.0846556,0.30916286,1.1278638,23,279,1470,1496.0,-0.0028565894,0.012109475,-0.0015398944,0.012536776,0.012441844344847238,-0.012441844344847238,-0.85169596701633,12.213318561259019,-39.25432820410255,320.74567179589747,-728.9362772660234,54.177756154661914,-168.9663190007241,-42.13209487614537,8.36776182937561,319.2576924925854,-111.83166891466207,-109.31890032390477,64.96,0.0581056992187996,,9.1207169,62.6908477,20190920,203610,2019-09-20T20:36:10Z,668.002,0.75,1.37,6.95,8,6,14,0.01,-0.01,-0.01,9.120718759932991,62.690772303512546,60,12884622,20,94,557,3290,3512,4220,4255,-1355,17051,19,2,16452,0,false,false,false,false,false,false,false,false,false,false,466,479,498,486,58,76,76,58,1392,1402,1399,1396,1382,1382,1382,1382,0.1,0.1,0.1,0.1,1600.6,1594.4,1595.0,1600.6,7.42,6.85,7.61,7.16,0,0,0,0,32.66091272167381,9.120717578944557,62.6908472554889,0,608.4821,608.2484,0.21280573,0.015954195,-0.97708666,1.0001196,-0.0041355663,-1.0846556,0.30916286,1.1278638,23,279,1470,1496.0,0.0026027914,4.340959E-4,-5.547421E-4,0.0026964238,0.002638742558213265,-0.002638742558213265,-1.0152087003535892,12.14934492435252,-41.946708672364736,318.0532913276353,-734.6390133478089,54.362661296335624,-166.66138451925374,-42.67874239797699,8.33449727923512,2.1037308728467483E7,-60.723906780858485,-58.21113819010118,64.96,NONE,0.0,0.0,0.0,NONE,0.0,1.1136040804546091E-10,0.0,1,28.75,28.75,28.75,28.75,16.32,16.32,16.18,1.3312175,0,2658,4.07,12.0,1.709,76,26.9,OK,579,0,0,0,0,0,65,100,0.0,0,0.0,316984.0,9.0E-44,0.0,-1.05007105E-23,62,1.105942E-10,-1.10594665E-10,4.3709567E-29,False,False,0,None,-1.592703E-36,1.0842106E-19,
2319831736,.997,9.120717801010704,62.69084754247439,14,608.48474,608.5991,0.22024307,0.025873926,-0.97433573,0.999253,-0.15512314,-0.54690117,0.35826546,0.67195106,26,272,1451,1476.0,-0.011495327,0.019090388,-0.0018400662,0.022360038,0.022284197224585404,0.1005562091238775,-0.8563386648363571,12.219059511798422,-39.25339906983915,320.74660093016087,-728.9029727197475,54.169809175330016,-169.04773337297132,-41.525427170273794,8.366333866617078,319.26534335206503,-103.57886388239389,-101.06609529163659,64.95,0.0607302109375496,,9.1207169,62.6908477,20190920,203610,2019-09-20T20:36:10Z,668.002,0.75,1.37,6.95,8,6,14,0.01,-0.01,-0.01,9.120718759932991,62.690772303512546,60,12884622,20,94,557,3290,3512,4220,4255,-1355,17051,19,2,16452,0,false,false,false,false,false,false,false,false,false,false,534,531,546,517,58,77,76,59,1342,1352,1348,1345,1332,1332,1332,1332,0.1,0.1,0.1,0.1,1601.2,1596.3,1596.3,1600.0,7.35,6.8,7.6,7.16,0,0,0,0,94.39870535499551,9.1207175256202,62.690847077476704,0,608.48474,608.24896,0.22024307,0.025873926,-0.97433573,0.999253,-0.15512314,-0.54690117,0.35826546,0.67195106,26,272,1451,1476.0,3.2954616E-4,0.0027402807,-0.00231052,0.003599478,0.0027600251632728693,0.3180359750246424,-1.0206259994231963,12.153269068506418,-41.94635564706574,318.05364435293427,-734.6057008222981,54.35471241303497,-166.74281839707845,-42.079283089127955,8.314723901166042,2.1037308748447597E7,-174.68745632581653,-172.17468773505922,64.95,NONE,0.0,0.0,0.0,NONE,0.0,1.1136040804546091E-10,0.0,1,28.75,28.75,28.75,28.75,16.32,16.32,16.18,1.3312175,0,2658,4.07,12.0,1.709,76,26.9,OK,579,0,0,0,0,0,65,100,0.0,0,0.0,316984.0,9.0E-44,0.0,-1.05007105E-23,62,1.105942E-10,-1.10594665E-10,4.3709567E-29,False,False,0,None,-1.592703E-36,1.0842106E-19,
2319989136,1.038,9.120717801010704,62.69084754247439,14,608.48474,608.5991,0.22024307,0.025873926,-0.97433573,0.999253,-0.15512314,-0.54690117,0.35826546,0.67195106,26,272,1451,1476.0,-0.011495327,0.019090388,-0.0018400662,0.022360038,0.022284197224585404,-0.022284197224585404,-0.8563386648363571,12.219059511798422,-39.25339906983915,320.74660093016087,-728.9029727197475,54.169809175330016,-169.04773337297132,-41.525427170273794,8.366333866617078,319.26534335206503,-103.57886388239389,-101.06609529163659,64.95,0.0607302109375496,,9.1207169,62.6908477,20190920,203610,2019-09-20T20:36:10Z,668.002,0.75,1.37,6.95,8,6,14,0.01,-0.01,-0.01,9.120718759932991,62.690772303512546,60,12884622,20,94,557,3290,3512,4220,4255,-1355,17051,19,2,16452,0,false,false,false,false,false,false,false,false,false,false,948,1187,1020,1104,58,76,76,58,1292,1302,1298,1296,1282,1282,1282,1282,0.1,0.0,0.1,0.0,1604.9,1600.0,1600.0,1604.9,5.96,4.78,5.9,5.7,0,0,0,0,94.05934636479924,9.1207175256202,62.690847077476704,0,608.48474,608.24896,0.22024307,0.025873926,-0.97433573,0.999253,-0.15512314,-0.54690117,0.35826546,0.67195106,26,272,1451,1476.0,3.2954616E-4,0.0027402807,-0.00231052,0.003599478,0.0027600251632728693,-0.0027600251632728693,-1.0206259994231963,12.153269068506418,-41.94635564706574,318.05364435293427,-734.6057008222981,54.35471241303497,-166.74281839707845,-42.079283089127955,8.314723901166042,2.1037308748447597E7,-174.68745632581653,-172.17468773505922,64.95,NONE,0.0,0.0,0.0,NONE,0.0,1.1136040804546091E-10,0.0,1,22.5,22.5,22.5,22.5,16.32,16.32,16.18,1.3312175,0,2658,4.07,12.0,1.709,76,26.9,OK,579,0,0,0,0,0,65,100,0.0,0,0.0,316984.0,9.0E-44,0.0,-1.05007105E-23,62,1.105942E-10,-1.10594665E-10,4.3709567E-29,False,False,0,None,-1.592703E-36,1.0842106E-19,
2320206261,1.094,9.120717668596072,62.69084752319361,14,608.4145,608.5995,0.23838563,0.065454245,-0.9704932,1.0014834,3.7103748,-5.4280553,9.496835,11.55078,29,272,1467,1492.0,-0.0160697,0.023208097,-6.2109035E-4,0.028235381,0.028228549440992224,0.09736505215213127,-0.799317725694177,12.128292678572059,-39.18146819641506,320.81853180358496,-728.4111820163027,54.34722387151822,-169.34589654513158,-41.056387506865,8.364232215553232,319.272430575795,-110.12092371049735,-107.60815511974005,65.0,-0.0095212539062004,,9.120717,62.6908477,20190920,203610,2019-09-20T20:36:10Z,668.026,0.75,1.37,6.95,8,6,14,-0.01,0.01,-0.01,9.120718759932991,62.690772303512546,60,12884622,20,94,557,3290,3512,4220,4255,-1355,17051,19,2,16452,0,false,false,false,false,false,false,false,false,false,false,948,1187,1020,1104,58,76,76,58,1292,1302,1298,1296,1282,1282,1282,1282,0.1,0.0,0.1,0.0,1604.9,1600.0,1600.0,1604.9,5.96,4.78,5.9,5.7,0,0,0,0,94.05934636479924,9.120717468748357,62.690847074317944,0,608.4145,608.2489,0.23838563,0.065454245,-0.9704932,1.0014834,3.7103748,-5.4280553,9.496835,11.55078,29,272,1467,1492.0,-0.0017195718,0.006344696,-0.0031458433,0.0072875526,0.006573590660329842,0.04521670507627776,-0.9575984586889584,12.084421020605788,-41.881190124738914,318.1188098752611,-734.1140292191417,54.53208414350357,-167.04090936104217,-41.55313684349454,8.314395152447494,2.1037308751370113E7,-99.41545382941536,-96.90268523865805,65.0,NONE,0.0,0.0,0.0,NONE,0.0,1.1136040804546091E-10,0.0,1,22.5,22.5,22.5,22.5,16.331,16.331,16.17,1.3312175,0,2658,4.07,12.0,1.709,76,26.9,OK,579,0,0,0,0,0,65,100,0.0,0,0.0,293744.0,9.0E-44,0.0,-1.05007105E-23,62,1.105942E-10,-1.10594665E-10,4.214494E-29,False,False,0,None,-1.5073878E-36,1.0842106E-19,
2320373105,1.137,9.120717668596072,62.69084752319361,14,608.4145,608.5995,0.23838563,0.065454245,-0.9704932,1.0014834,3.7103748,-5.4280553,9.496835,11.55078,29,272,1467,1492.0,-0.0160697,0.023208097,-6.2109035E-4,0.028235381,0.028228549440992224,-0.028228549440992224,-0.799317725694177,12.128292678572059,-39.18146819641506,320.81853180358496,-728.4111820163027,54.34722387151822,-169.34589654513158,-41.056387506865,8.364232215553232,319.272430575795,-110.12092371049735,-107.60815511974005,65.0,-0.0095212539062004,,9.120717,62.6908477,20190920,203610,2019-09-20T20:36:10Z,668.026,0.75,1.37,6.95,8,6,14,-0.01,0.01,-0.01,9.120718759932991,62.690772303512546,60,12884622,20,94,557,3290,3512,4220,4255,-1355,17051,19,2,16452,0,false,false,false,false,false,false,false,false,false,false,948,1187,1020,1104,58,76,76,58,1292,1302,1298,1296,1282,1282,1282,1282,0.1,0.0,0.1,0.0,1604.9,1600.0,1600.0,1604.9,5.96,4.78,5.9,5.7,0,0,0,0,94.05934636479924,9.120717468748357,62.690847074317944,0,608.4145,608.2489,0.23838563,0.065454245,-0.9704932,1.0014834,3.7103748,-5.4280553,9.496835,11.55078,29,272,1467,1492.0,-0.0017195718,0.006344696,-0.0031458433,0.0072875526,0.006573590660329842,-0.006573590660329842,-0.9575984586889584,12.084421020605788,-41.881190124738914,318.1188098752611,-734.1140292191417,54.53208414350357,-167.04090936104217,-41.55313684349454,8.314395152447494,2.1037308751370113E7,-99.41545382941536,-96.90268523865805,65.0,NONE,0.0,0.0,0.0,NONE,0.0,1.1136040804546091E-10,0.0,1,16.25,16.25,16.25,16.25,16.331,16.331,16.17,1.3312175,0,2658,4.07,12.0,1.709,76,26.9,OK,579,0,0,0,0,0,65,100,0.0,0,0.0,293744.0,9.0E-44,0.0,-1.05007105E-23,62,1.105942E-10,-1.10594665E-10,4.214494E-29,False,False,0,None,-1.5073878E-36,1.0842106E-19,
2320552043,1.184,9.120717596246001,62.69084745420947,14,608.4145,608.5997,0.22912648,0.041340742,-0.9443823,0.9726592,3.077451,5.3568597,7.4263477,9.660088,32,272,1464,1489.0,-0.011925093,0.0018537166,0.0035922886,0.01259161,0.012068309534803093,0.17097575161573744,-0.7166768930927121,12.126152377047871,-38.89007278760967,321.10992721239035,-727.5667469620056,54.685923613553186,-169.3494490719125,-40.65066917456735,8.35658710458688,319.2809430737065,-156.81696940128438,-154.30420081052708,65.03,-0.0095212539062004,,9.120717,62.6908477,20190920,203610,2019-09-20T20:36:10Z,668.026,0.75,1.37,6.95,8,6,14,-0.01,0.01,-0.01,9.120718759932991,62.690772303512546,60,12884622,20,94,557,3290,3512,4220,4255,-1355,17051,19,2,16452,0,false,false,false,false,false,false,false,false,false,false,2338,2338,2399,2275,59,76,77,59,1242,1250,1247,1245,1232,1232,1232,1232,0.0,0.0,0.0,0.0,1600.6,1596.3,1596.3,1599.3,4.66,4.06,4.88,4.27,0,0,0,0,90.92404535277274,9.120717272198789,62.69084706746292,0,608.4145,608.2496,0.22912648,0.041340742,-0.9443823,0.9726592,3.077451,5.3568597,7.4263477,9.660088,32,272,1464,1489.0,-0.004639361,-0.0059779547,0.0018045167,0.0077791964,0.0075670080555194945,0.20866616005090405,-0.868311183156802,12.066015653660418,-41.586758323785766,318.4132416762142,-733.2696029613637,54.870780357287586,-167.04446185081622,-41.16465535563248,8.313718424706337,2.1037308761426076E7,-96.85997104811983,-94.34720245736253,65.03,NONE,0.0,0.0,0.0,NONE,-2.240543293905603E-10,-2.741179274440611E-10,0.0,1,16.25,16.25,16.25,16.25,16.331,16.331,16.17,1.3312175,0,2658,4.07,12.0,1.709,76,26.9,OK,579,0,0,0,0,0,65,100,0.0,0,0.0,293744.0,9.0E-44,0.0,-1.05007105E-23,62,1.105942E-10,-1.10594665E-10,4.214494E-29,False,False,0,None,-1.5073878E-36,1.0842106E-19,
2320757164,1.237,9.120717596246001,62.69084745420947,14,608.4145,608.5997,0.22912648,0.041340742,-0.9443823,0.9726592,3.077451,5.3568597,7.4263477,9.660088,32,272,1464,1489.0,-0.011925093,0.0018537166,0.0035922886,0.01259161,0.012068309534803093,-0.012068309534803093,-0.7166768930927121,12.126152377047871,-38.89007278760967,321.10992721239035,-727.5667469620056,54.685923613553186,-169.3494490719125,-40.65066917456735,8.35658710458688,319.2809430737065,-156.81696940128438,-154.30420081052708,65.03,-0.0095212539062004,,9.120717,62.6908477,20190920,203610,2019-09-20T20:36:10Z,668.026,0.75,1.37,6.95,8,6,14,-0.01,0.01,-0.01,9.120718759932991,62.690772303512546,60,12884622,20,94,557,3290,3512,4220,4255,-1355,17051,19,2,16452,0,false,false,false,false,false,false,false,false,false,false,3224,3170,3221,3191,58,75,75,57,1207,1209,1224,1226,1200,1201,1220,1222,0.0,0.0,0.0,0.0,1606.1,1600.0,1601.8,1605.5,3.15,2.54,3.28,2.74,0,0,0,0,-53.13010235415595,9.120717272198789,62.69084706746292,0,608.4145,608.2496,0.22912648,0.041340742,-0.9443823,0.9726592,3.077451,5.3568597,7.4263477,9.660088,32,272,1464,1489.0,-0.004639361,-0.0059779547,0.0018045167,0.0077791964,0.0075670080555194945,-0.0075670080555194945,-0.868311183156802,12.066015653660418,-41.586758323785766,318.4132416762142,-733.2696029613637,54.870780357287586,-167.04446185081622,-41.16465535563248,8.313718424706337,2.1037308761426076E7,-96.85997104811983,-94.34720245736253,65.03,NONE,0.0,0.0,0.0,NONE,-2.240543293905603E-10,-2.741179274440611E-10,0.0,1,10.0,10.0,10.0,10.0,16.331,16.331,16.17,1.3312175,0,2658,4.07,12.0,1.709,76,26.9,OK,579,0,0,0,0,0,65,100,0.0,0,0.0,293744.0,9.0E-44,0.0,-1.05007105E-23,62,1.105942E-10,-1.10594665E-10,4.214494E-29,False,False,0,None,-1.5073878E-36,1.0842106E-19,
2320974254,1.294,9.120717182907713,62.69084730185876,14,608.4145,608.5995,0.18733448,0.02008085,-0.99206233,1.0097946,-2.9573834,-2.6662438,8.571832,9.451522,32,276,1470,1496.0,-0.017641786,0.01410818,-0.0013905601,0.022631992,0.022589231612909016,0.4568202626498802,-0.7085858797450798,12.126860455052457,-38.63236231798578,321.3676376820142,-726.7682620556236,54.691916305651965,-169.21515778035698,-40.918971335414376,8.339823669172088,319.3079917020064,-131.29062574196584,-128.77785715120854,64.98,-0.0095212539062004,,9.1207169,62.6908477,20190920,203610,2019-09-20T20:36:10Z,668.051,0.75,1.37,6.94,8,6,14,0.02,0.01,-0.02,9.120718759932991,62.690772303512546,60,12884622,20,94,557,3290,3512,4220,4255,-1355,17051,19,2,16452,0,false,false,false,false,false,false,false,false,false,false,3224,3170,3221,3191,58,75,75,57,1207,1209,1224,1226,1200,1201,1220,1222,0.0,0.0,0.0,0.0,1606.1,1600.0,1601.8,1605.5,3.15,2.54,3.28,2.74,0,0,0,0,-53.13010235415595,9.120717197178745,62.69084705804021,0,608.4145,608.2497,0.18733448,0.02008085,-0.99206233,1.0097946,-2.9573834,-2.6662438,8.571832,9.451522,32,276,1470,1496.0,-0.0072228913,0.001604786,-0.0021467013,0.0077041434,0.007399020093645159,0.06292974438011392,-0.8796023760569924,12.058847290264428,-41.33902878000156,318.66097121999843,-732.471105581416,54.87677314300146,-166.91016846142364,-41.49594866275658,8.31270653492051,2.1037308765394077E7,-107.82339122167497,-105.31062263091766,64.98,NONE,0.0,0.0,0.0,NONE,-2.240543293905603E-10,-2.741179274440611E-10,0.0,1,10.0,10.0,10.0,10.0,16.35,16.35,16.209,1.3312175,0,2658,4.07,12.0,1.709,76,26.9,OK,579,0,0,0,0,0,65,100,0.0,0,0.0,250464.0,9.0E-44,0.0,-1.05007105E-23,62,1.105942E-10,-1.10594665E-10,4.2002423E-29,False,False,0,None,-1.5021532E-36,1.0842106E-19,
2321141463,1.337,9.120717182907713,62.69084730185876,14,608.4145,608.5995,0.18733448,0.02008085,-0.99206233,1.0097946,-2.9573834,-2.6662438,8.571832,9.451522,32,276,1470,1496.0,-0.017641786,0.01410818,-0.0013905601,0.022631992,0.022589231612909016,-0.022589231612909016,-0.7085858797450798,12.126860455052457,-38.63236231798578,321.3676376820142,-726.7682620556236,54.691916305651965,-169.21515778035698,-40.918971335414376,8.339823669172088,319.3079917020064,-131.29062574196584,-128.77785715120854,64.98,-0.0095212539062004,,9.1207169,62.6908477,20190920,203610,2019-09-20T20:36:10Z,668.051,0.75,1.37,6.94,8,6,14,0.02,0.01,-0.02,9.120718759932991,62.690772303512546,60,12884622,20,94,557,3290,3512,4220,4255,-1355,17051,19,2,16452,0,false,false,false,false,false,false,false,false,false,false,3224,3170,3221,3191,58,75,75,57,1207,1209,1224,1226,1200,1201,1220,1222,0.0,0.0,0.0,0.0,1606.1,1600.0,1601.8,1605.5,3.15,2.54,3.28,2.74,0,0,0,0,-53.13010235415595,9.120717197178745,62.69084705804021,0,608.4145,608.2497,0.18733448,0.02008085,-0.99206233,1.0097946,-2.9573834,-2.6662438,8.571832,9.451522,32,276,1470,1496.0,-0.0072228913,0.001604786,-0.0021467013,0.0077041434,0.007399020093645159,-0.007399020093645159,-0.8796023760569924,12.058847290264428,-41.33902878000156,318.66097121999843,-732.471105581416,54.87677314300146,-166.91016846142364,-41.49594866275658,8.31270653492051,2.1037308765394077E7,-107.82339122167497,-105.31062263091766,64.98,NONE,0.0,0.0,0.0,NONE,-2.240543293905603E-10,-2.741179274440611E-10,0.0,2,10.0,10.54,12.28,12.21,16.35,16.35,16.209,1.3312175,0,2658,4.07,12.0,1.709,76,26.9,OK,579,0,0,0,0,0,65,100,0.0,0,0.0,250464.0,9.0E-44,0.0,-1.05007105E-23,62,1.105942E-10,-1.10594665E-10,4.2002423E-29,False,False,0,None,-1.5021532E-36,1.0842106E-19,
2321367728,1.396,9.120717113526327,62.69084726117698,14,608.4145,608.59973,0.2560704,0.032024544,-0.9390609,0.9738753,-0.8443455,-2.3642209,-1.6955041,3.0293884,29,272,1467,1492.0,-0.01250197,0.025172029,0.00414021,0.028409006,0.028105698484167118,0.06956914041424195,-0.7742347844998813,12.30848365539166,-38.36067015630644,321.63932984369353,-726.4251542756392,54.502221620209625,-169.46616263060596,-40.61642750610933,8.335335186274612,319.31373549633116,-144.47125646368042,-141.95848787292311,65.0,-0.0095212539062004,,9.1207169,62.6908477,20190920,203610,2019-09-20T20:36:10Z,668.051,0.75,1.37,6.94,8,6,14,0.02,0.01,-0.02,9.120718759932991,62.690772303512546,60,12884622,20,94,557,3290,3512,4220,4255,-1355,17051,19,2,16452,0,false,false,false,false,false,false,false,false,false,false,2673,2666,2725,2805,58,76,75,59,1207,1210,1221,1225,1200,1200,1219,1219,0.0,0.0,0.0,0.0,1622.0,1619.0,1618.4,1622.0,0.17,0.4,0.04,0.33,0,0,0,0,-24.489140717036832,9.120717484319966,62.69084704510112,0,608.4145,608.25085,0.2560704,0.032024544,-0.9390609,0.9738753,-0.8443455,-2.3642209,-1.6955041,3.0293884,29,272,1467,1492.0,0.0036866977,0.004968075,0.0029311809,0.006845826,0.0061865587231609035,0.24411551941319745,-0.9362143313969604,12.247281187451335,-41.0602111546974,318.9397888453026,-732.1280004821217,54.68707993963762,-167.16117135057976,-41.1571741284599,8.311140233194386,2.1037308780113157E7,93.09674082110499,95.60950941186229,65.0,NONE,0.0,0.0,0.0,NONE,-2.240543293905603E-10,-2.741179274440611E-10,0.0,2,10.0,10.54,12.28,12.21,16.35,16.35,16.209,1.3312175,0,2658,4.07,12.0,1.709,76,26.9,OK,579,0,0,0,0,0,65,100,0.0,0,0.0,250464.0,9.0E-44,0.0,-1.05007105E-23,62,1.105942E-10,-1.10594665E-10,4.2002423E-29,False,False,0,None,-1.5021532E-36,1.0842106E-19,
2321512063,1.433,9.120717113526327,62.69084726117698,14,608.4145,608.59973,0.2560704,0.032024544,-0.9390609,0.9738753,-0.8443455,-2.3642209,-1.6955041,3.0293884,29,272,1467,1492.0,-0.01250197,0.025172029,0.00414021,0.028409006,0.028105698484167118,-0.028105698484167118,-0.7742347844998813,12.30848365539166,-38.36067015630644,321.63932984369353,-726.4251542756392,54.502221620209625,-169.46616263060596,-40.61642750610933,8.335335186274612,319.31373549633116,-144.47125646368042,-141.95848787292311,65.0,-0.0095212539062004,,9.1207169,62.6908477,20190920,203610,2019-09-20T20:36:10Z,668.051,0.75,1.37,6.94,8,6,14,0.02,0.01,-0.02,9.120718759932991,62.690772303512546,60,12884622,20,94,557,3290,3512,4220,4255,-1355,17051,19,2,16452,0,false,false,false,false,false,false,false,false,false,false,2673,2666,2725,2805,58,76,75,59,1207,1210,1221,1225,1200,1200,1219,1219,0.0,0.0,0.0,0.0,1622.0,1619.0,1618.4,1622.0,0.17,0.4,0.04,0.33,0,0,0,0,-24.489140717036832,9.120717484319966,62.69084704510112,0,608.4145,608.25085,0.2560704,0.032024544,-0.9390609,0.9738753,-0.8443455,-2.3642209,-1.6955041,3.0293884,29,272,1467,1492.0,0.0036866977,0.004968075,0.0029311809,0.006845826,0.0061865587231609035,-0.0061865587231609035,-0.9362143313969604,12.247281187451335,-41.0602111546974,318.9397888453026,-732.1280004821217,54.68707993963762,-167.16117135057976,-41.1571741284599,8.311140233194386,2.1037308780113157E7,93.09674082110499,95.60950941186229,65.0,NONE,0.0,0.0,0.0,NONE,-2.240543293905603E-10,-2.741179274440611E-10,0.0,2,10.0,10.15,12.26,12.25,16.35,16.35,16.209,1.3312175,0,2658,4.07,12.0,1.709,76,26.9,OK,579,0,0,0,0,0,65,100,0.0,0,0.0,250464.0,9.0E-44,0.0,-1.05007105E-23,62,1.105942E-10,-1.10594665E-10,4.2002423E-29,False,False,0,None,-1.5021532E-36,1.0842106E-19,
2321742244,1.493,9.120717056990584,62.69084723669495,14,608.4145,608.5994,0.20253165,0.009277606,-0.98458207,1.0052397,-0.73053753,-0.10296249,-2.058482,2.1866949,26,272,1464,1489.0,-0.016489899,0.024642028,-2.2045523E-4,0.02965122,0.02965040092664082,0.03664552384304511,-0.762309065480252,12.279014072875267,-38.36599684353872,321.6340031564613,-726.6125135577536,54.423620113806344,-169.5892983365299,-40.94239504394308,8.33264261882729,319.31770151817784,-135.85857736854103,-133.34580877778373,65.04,-0.0095212539062004,,9.120717,62.6908477,20190920,203610,2019-09-20T20:36:10Z,668.071,0.75,1.37,6.94,8,6,14,-0.02,0.01,-0.02,9.120718759932991,62.690772303512546,60,12884622,20,94,557,3290,3512,4220,4255,-1355,17051,19,2,16452,0,false,false,false,false,false,false,false,false,false,false,2199,2211,2326,2343,58,78,77,59,1207,1210,1226,1226,1200,1202,1218,1217,0.0,0.0,0.0,0.0,1621.4,1617.1,1617.1,1622.0,0.01,0.02,0.21,0.0,0,0,0,0,-1.1059587522885295,9.12071744331846,62.69084704047542,0,608.4145,608.25037,0.20253165,0.009277606,-0.98458207,1.0052397,-0.73053753,-0.10296249,-2.058482,2.1866949,26,272,1464,1489.0,-2.9073734E-4,0.0035167844,-0.002392372,0.004263302,0.0035287818343713116,0.03247769350424385,-0.9368496049974548,12.249999753471347,-41.063949241683495,318.9360507583165,-732.3153602520581,54.60847822858182,-167.28430737710866,-41.449364608061266,8.310642537121941,2.1037308782267172E7,-106.32780268076235,-103.81503409000504,65.04,NONE,0.0,0.0,0.0,NONE,-2.240543293905603E-10,-2.741179274440611E-10,0.0,2,10.0,10.15,12.26,12.25,16.336,16.336,16.318,1.4241333,0,2657,4.07,12.0,4.975,76,26.9,OK,580,0,0,0,0,0,65,100,0.0,0,0.0,287704.0,9.0E-44,0.0,-1.05007105E-23,62,1.105942E-10,-1.10594665E-10,4.1822926E-29,False,False,0,None,-1.49724E-36,1.0842106E-19,
