Tick#,offsetTime,IMU_ATTI(0):Longitude,IMU_ATTI(0):Latitude,IMU_ATTI(0):numSats,IMU_ATTI(0):barometer:Raw,IMU_ATTI(0):barometer:Smooth,IMU_ATTI(0):accel:X,IMU_ATTI(0):accel:Y,IMU_ATTI(0):accel:Z,IMU_ATTI(0):accel:Composite,IMU_ATTI(0):gyro:X,IMU_ATTI(0):gyro:Y,IMU_ATTI(0):gyro:Z,IMU_ATTI(0):gyro:Composite,IMU_ATTI(0):mag:X,IMU_ATTI(0):mag:Y,IMU_ATTI(0):mag:Z,IMU_ATTI(0):mag:Mod,IMU_ATTI(0):velN,IMU_ATTI(0):velE,IMU_ATTI(0):velD,IMU_ATTI(0):velComposite,IMU_ATTI(0):velH,IMU_ATTI(0):GPS-H,IMU_ATTI(0):roll,IMU_ATTI(0):pitch,IMU_ATTI(0):yaw,IMU_ATTI(0):yaw360,IMU_ATTI(0):totalGyro:Z,IMU_ATTI(0):totalGyro:X,IMU_ATTI(0):totalGyro:Y,IMU_ATTI(0):magYaw,IMU_ATTI(0):distanceHP,IMU_ATTI(0):distanceTravelled,IMU_ATTI(0):directionOfTravel[mag],IMU_ATTI(0):directionOfTravel[true],IMU_ATTI(0):temperature,General:relativeHeight,General:absoluteHeight,GPS(0):Long,GPS(0):Lat,GPS(0):Date,GPS(0):Time,GPS:dateTimeStamp,GPS(0):heightMSL,GPS(0):hDOP,GPS(0):pDOP,GPS(0):sAcc,GPS(0):numGPS,GPS(0):numGLNAS,GPS(0):numSV,GPS(0):velN,GPS(0):velE,GPS(0):velD,HP:Longitude,HP:Latitude,HP:rthHeight,BatBlackBox:tick,BatBlackBox:id,BatBlackBox:rsoc,BatBlackBox:index,BatBlackBox:rm,BatBlackBox:fcc,BatBlackBox:cell_min,BatBlackBox:cell_max,BatBlackBox:current,BatBlackBox:voltage,BatBlackBox:temp,BatBlackBox:flag,BatBlackBox:reserve,BatBlackBox:user_data,OA:avoidObst,OA:emergBrake,OA:radiusLimit,OA:airportLimit,OA:groundForceLanding,OA:horizNearBoundary,OA:vertLowLimit,OA:vertAirportLimit,OA:roofLimit,OA:hitGroundLimit,Motor:Speed:RFront,Motor:Speed:LFront,Motor:Speed:LBack,Motor:Speed:RBack,Motor:EscTemp:RFront,Motor:EscTemp:LFront,Motor:EscTemp:LBack,Motor:EscTemp:RBack,Motor:PPMrecv:RFront,Motor:PPMrecv:LFront,Motor:PPMrecv:LBack,Motor:PPMrecv:RBack,Motor:PPMsend:RFront,Motor:PPMsend:LFront,Motor:PPMsend:LBack,Motor:PPMsend:RBack,Motor:V_out:RFront,Motor:V_out:LFront,Motor:V_out:LBack,Motor:V_out:RBack,Motor:Volts:RFront,Motor:Volts:LFront,Motor:Volts:LBack,Motor:Volts:RBack,Motor:Current:RFront,Motor:Current:LFront,Motor:Current:LBack,Motor:Current:RBack,Motor:Status:RFront,Motor:Status:LFront,Motor:Status:LBack,Motor:Status:RBack,Motor:thrustAngle,IMU_ATTI(1):Longitude,IMU_ATTI(1):Latitude,IMU_ATTI(1):numSats,IMU_ATTI(1):barometer:Raw,IMU_ATTI(1):barometer:Smooth,IMU_ATTI(1):accel:X,IMU_ATTI(1):accel:Y,IMU_ATTI(1):accel:Z,IMU_ATTI(1):accel:Composite,IMU_ATTI(1):gyro:X,IMU_ATTI(1):gyro:Y,IMU_ATTI(1):gyro:Z,IMU_ATTI(1):gyro:Composite,IMU_ATTI(1):mag:X,IMU_ATTI(1):mag:Y,IMU_ATTI(1):mag:Z,IMU_ATTI(1):mag:Mod,IMU_ATTI(1):velN,IMU_ATTI(1):velE,IMU_ATTI(1):velD,IMU_ATTI(1):velComposite,IMU_ATTI(1):velH,IMU_ATTI(1):GPS-H,IMU_ATTI(1):roll,IMU_ATTI(1):pitch,IMU_ATTI(1):yaw,IMU_ATTI(1):yaw360,IMU_ATTI(1):totalGyro:Z,IMU_ATTI(1):totalGyro:X,IMU_ATTI(1):totalGyro:Y,IMU_ATTI(1):magYaw,IMU_ATTI(1):distanceHP,IMU_ATTI(1):distanceTravelled,IMU_ATTI(1):directionOfTravel[mag],IMU_ATTI(1):directionOfTravel[true],IMU_ATTI(1):temperature,IMUEX(0):err,IMUEX(0):rtk_Longitude,IMUEX(0):rtk_Latitude,IMUEX(0):rtk_Alti,IMUEX(1):err,IMUEX(1):rtk_Longitude,IMUEX(1):rtk_Latitude,IMUEX(1):rtk_Alti,MotorCtrl:Status,MotorCtrl:PWM:RFront,MotorCtrl:PWM:LFront,MotorCtrl:PWM:LBack,MotorCtrl:PWM:RBack,BattInfo:Voltage,BattInfo:BatVoltage,BattInfo:AdVoltage,BattInfo:AvgCurrent,BattInfo:R_time,BattInfo:R_CAP_MAH,BattInfo:LowCellVoltage,BattInfo:LowCellVolThreshold,BattInfo:BatCurrent,BattInfo:Remaining%,BattInfo:Temp,BattInfo:status,battery_info:BatDynCnt,battery_info:Vol1Protect,battery_info:Vol2Protect,battery_info:Cap1Protect,battery_info:Cap2Protect,battery_info:Batpresent,battery_info:sopPercentage,battery_info:sopValue,battery_info:sopScale,battery_info:sopFlg,BattInfo:WindHeading:WindDir,battery_info:home_dir,BattInfo:Wind:rangeMin,BattInfo:Wind:rangeMax,battery_info:cap_speed,battery_info:against_wind,battery_info:emergency_land_cap,battery_info:intel_bat_land_cap,battery_info:intel_bat_gh_cap,BattInfo:Smart:SmartGh,BattInfo:Smart:SmartLand,BattInfo:GoHome:CntDown,BattInfo:GoHome:GhCmd,BattInfo:GoHome:CapLevel,BattInfo:GoHome:LandCapLv,Attribute|Value,ConvertDatV3,3.6.6-Tablet
137470957,.000,9.094510963573693,62.69286098017967,15,567.74207,568.2079,0.03911834,0.016280968,-0.9944593,0.9953615,0.22271219,-0.033257537,0.16588458,0.2796864,-445,106,1448,1518.0,0.010344398,0.0019218235,0.021175856,0.02364565,0.01052140600687083,-0.01052140600687083,-0.9324540222113189,2.304433905294375,-158.38163824478295,201.61836175521705,1.289379273285006,2.1490634100444495,-0.4854602697717518,-161.4692050141194,0.7994950897711731,0.46551616102650184,-73.42945151747224,-70.92899829051738,32.63,,,9.0945108,62.6928607,20190921,180035,2019-09-21T18:00:35Z,621.966,0.72,1.35,8.76,7,8,15,0.0,0.0,0.0,9.09449925802649,62.69286576131303,120,1564211,48,99,450,3437,3437,4388,4393,175,17543,19,212,17542,0,false,false,false,false,false,false,false,false,false,false,0,0,0,0,43,55,55,42,943,945,945,944,940,940,940,940,0.0,0.0,0.0,0.0,1603.0,1597.5,1597.5,1603.6,0.0,0.0,0.0,0.0,0,0,0,0,-45.0,9.09451079699979,62.6928606468171,0,567.74207,568.09186,0.03911834,0.016280968,-0.9944593,0.9953615,0.22271219,-0.033257537,0.16588458,0.2796864,-445,106,1448,1518.0,-3.7126476E-4,0.002048253,-2.7163333E-4,0.0020992768,0.002081628777480006,-0.002081628777480006,-0.9250117647330921,2.261837194138648,-159.0426293361855,200.9573706638145,1.2390685052402162,2.2734692360800497,-0.5585426629288571,-161.54261040626088,0.8184770240711363,0.4646508188970747,-55.52168781539579,-53.021234588440926,32.63,NONE,0.0,0.0,0.0,NONE,7.884789707523683E-11,3.239109182877539E-11,0.0,,,,,,16.125,16.125,16.228,1.2701409,0,2325,4.031,12.0,1.297,67,26.8,OK,33,0,0,0,0,0,65,100,0.0,0,0.0,3.2907802E19,2.68E-43,0.0,-1.05007105E-23,62,2.4738434E-11,-2.473855E-11,2.840438E-36,False,False,0,None,3.1849102E31,1.0842106E-19,Firmware Date| Jul 26 2019
137724830,.066,9.094510895797447,62.69286103553414,15,567.9315,568.2026,0.038927283,0.015233048,-0.9934161,0.9942951,0.15273616,0.052970473,0.12053356,0.20164955,-451,106,1442,1514.0,0.006764869,0.002961053,0.021968344,0.023176268,0.007384530487175502,0.0996121832488864,-0.9323564501113156,2.3041935735467085,-158.381336814168,201.618663185832,1.3036721540765492,2.16779908948137,-0.48447655188898514,-161.75724351591438,0.7928232277007036,0.4725758529739809,-31.823721757516182,-29.323268530561325,32.59,-0.3495484453125073,,9.0945108,62.6928607,20190921,180035,2019-09-21T18:00:35Z,621.966,0.72,1.35,8.76,7,8,15,0.0,0.0,0.0,9.09449925802649,62.69286576131303,120,1564211,48,99,450,3437,3437,4388,4393,175,17543,19,212,17542,0,false,false,false,false,false,false,false,false,false,false,0,0,0,0,43,55,55,42,943,945,945,944,940,940,940,940,0.0,0.0,0.0,0.0,1603.0,1597.5,1597.5,1603.6,0.0,0.0,0.0,0.0,0,0,0,0,-45.0,9.094510675090277,62.69286061843581,0,567.9315,568.09216,0.038927283,0.015233048,-0.9934161,0.9942951,0.15273616,0.052970473,0.12053356,0.20164955,-451,106,1442,1514.0,1.4758951E-4,7.2463136E-4,9.3620917E-4,0.0011930469,7.395088297673795E-4,0.104954693125105,-0.917671529452465,2.25891342726587,-159.04157459324134,200.95842540675866,1.2533614604705514,2.292205013094314,-0.5575589399227866,-161.85546461815977,0.8162240387031737,0.4716245705234721,-119.40679112596209,-116.90633789900723,32.59,NONE,0.0,0.0,0.0,NONE,2.786299428907409E-11,1.907326688319418E-12,0.0,,,,,,16.125,16.125,16.228,1.2701409,0,2325,4.031,12.0,1.297,67,26.8,OK,33,0,0,0,0,0,65,100,0.0,0,0.0,3.2907802E19,2.68E-43,0.0,-1.05007105E-23,62,2.4738434E-11,-2.473855E-11,2.840438E-36,False,False,0,None,3.1849102E31,1.0842106E-19,ACType|MavicEnterprise
137853706,.099,9.094510895797447,62.69286103553414,15,567.9315,568.2026,0.038927283,0.015233048,-0.9934161,0.9942951,0.15273616,0.052970473,0.12053356,0.20164955,-451,106,1442,1514.0,0.006764869,0.002961053,0.021968344,0.023176268,0.007384530487175502,-0.007384530487175502,-0.9323564501113156,2.3041935735467085,-158.381336814168,201.618663185832,1.3036721540765492,2.16779908948137,-0.48447655188898514,-161.75724351591438,0.7928232277007036,0.4725758529739809,-31.823721757516182,-29.323268530561325,32.59,-0.3495484453125073,,9.0945108,62.6928607,20190921,180035,2019-09-21T18:00:35Z,621.966,0.72,1.35,8.76,7,8,15,0.0,0.0,0.0,9.09449925802649,62.69286576131303,120,1564211,48,99,450,3437,3437,4388,4393,175,17543,19,212,17542,0,false,false,false,false,false,false,false,false,false,false,209,792,536,209,46,58,58,46,1130,1131,1131,1131,1126,1126,1126,1126,0.1,0.0,0.1,0.1,1582.8,1576.1,1576.1,1582.2,6.83,5.47,8.0,6.62,0,0,0,0,105.71228445448901,9.094510675090277,62.69286061843581,0,567.9315,568.09216,0.038927283,0.015233048,-0.9934161,0.9942951,0.15273616,0.052970473,0.12053356,0.20164955,-451,106,1442,1514.0,1.4758951E-4,7.2463136E-4,9.3620917E-4,0.0011930469,7.395088297673795E-4,-7.395088297673795E-4,-0.917671529452465,2.25891342726587,-159.04157459324134,200.95842540675866,1.2533614604705514,2.292205013094314,-0.5575589399227866,-161.85546461815977,0.8162240387031737,0.4716245705234721,-119.40679112596209,-116.90633789900723,32.59,NONE,0.0,0.0,0.0,NONE,2.786299428907409E-11,1.907326688319418E-12,0.0,,,,,,16.125,16.125,16.228,1.2701409,0,2325,4.031,12.0,1.297,67,26.8,OK,33,0,0,0,0,0,65,100,0.0,0,0.0,3.2907802E19,2.68E-43,0.0,-1.05007105E-23,62,2.4738434E-11,-2.473855E-11,2.840438E-36,False,False,0,None,3.1849102E31,1.0842106E-19,dateTime|2019-9-21 18:0:24 GMT
138003310,.138,9.094510751869203,62.692861146870044,15,567.9315,568.2066,0.038840793,0.015146329,-0.99508065,0.99595356,0.39742666,-0.07449745,0.0024920853,0.40435633,-451,97,1442,1513.0,0.0054420084,0.0040916596,0.016523013,0.017870845,0.006808607355712629,0.3633783115727024,-0.9344323820911925,2.2939224869725816,-158.38161080485816,201.61838919514184,1.3098109507165532,2.1952513935092717,-0.48555071581834575,-162.95285303793895,0.7791325273470916,0.4869692422245375,-33.170819518063944,-30.670366291109087,32.66,-0.3495484453125073,,9.0945105,62.6928607,20190921,180035,2019-09-21T18:00:35Z,622.004,0.72,1.35,8.73,7,8,15,-0.01,0.0,0.0,9.09449925802649,62.69286576131303,120,1564211,48,99,450,3437,3437,4388,4393,175,17543,19,212,17542,0,false,false,false,false,false,false,false,false,false,false,209,792,536,209,46,58,58,46,1130,1131,1131,1131,1126,1126,1126,1126,0.1,0.0,0.1,0.1,1582.8,1576.1,1576.1,1582.2,6.83,5.47,8.0,6.62,0,0,0,0,105.71228445448901,9.09451057808198,62.692860634202546,0,567.9315,568.092,0.038840793,0.015146329,-0.99508065,0.99595356,0.39742666,-0.07449745,0.0024920853,0.40435633,-451,97,1442,1513.0,-8.172268E-4,4.526737E-4,6.440342E-4,0.001134704,9.342232982899859E-4,0.13409047544784844,-0.9127013161042581,2.2600691567447195,-159.04234663982862,200.95765336017138,1.2595002411236478,2.3196572456297933,-0.5586331010547652,-163.06058006981198,0.8114677720433762,0.4768745211514362,-72.99221688800482,-70.49176366104996,32.66,NONE,0.0,0.0,0.0,NONE,2.786299428907409E-11,1.907326688319418E-12,0.0,1,0.83,0.83,0.83,0.83,16.114,16.114,16.188,1.2701409,0,2325,4.031,12.0,1.297,67,26.8,OK,33,0,0,0,0,0,65,100,0.0,0,0.0,2.2068089E20,2.68E-43,0.0,-1.05007105E-23,62,2.4738434E-11,-2.473855E-11,2.7696328E-36,False,False,0,None,3.0091846E31,1.0842106E-19,geoDeclination|2.50 degrees
138156972,.178,9.094510751869203,62.692861146870044,15,567.9315,568.2066,0.038840793,0.015146329,-0.99508065,0.99595356,0.39742666,-0.07449745,0.0024920853,0.40435633,-451,97,1442,1513.0,0.0054420084,0.0040916596,0.016523013,0.017870845,0.006808607355712629,-0.006808607355712629,-0.9344323820911925,2.2939224869725816,-158.38161080485816,201.61838919514184,1.3098109507165532,2.1952513935092717,-0.48555071581834575,-162.95285303793895,0.7791325273470916,0.4869692422245375,-33.170819518063944,-30.670366291109087,32.66,-0.3495484453125073,,9.0945105,62.6928607,20190921,180035,2019-09-21T18:00:35Z,622.004,0.72,1.35,8.73,7,8,15,-0.01,0.0,0.0,9.09449925802649,62.69286576131303,120,1564211,48,99,450,3437,3437,4388,4393,175,17543,19,212,17542,0,false,false,false,false,false,false,false,false,false,false,209,792,536,209,46,58,58,46,1130,1131,1131,1131,1126,1126,1126,1126,0.1,0.0,0.1,0.1,1582.8,1576.1,1576.1,1582.2,6.83,5.47,8.0,6.62,0,0,0,0,105.71228445448901,9.09451057808198,62.692860634202546,0,567.9315,568.092,0.038840793,0.015146329,-0.99508065,0.99595356,0.39742666,-0.07449745,0.0024920853,0.40435633,-451,97,1442,1513.0,-8.172268E-4,4.526737E-4,6.440342E-4,0.001134704,9.342232982899859E-4,-9.342232982899859E-4,-0.9127013161042581,2.2600691567447195,-159.04234663982862,200.95765336017138,1.2595002411236478,2.3196572456297933,-0.5586331010547652,-163.06058006981198,0.8114677720433762,0.4768745211514362,-72.99221688800482,-70.49176366104996,32.66,NONE,0.0,0.0,0.0,NONE,2.786299428907409E-11,1.907326688319418E-12,0.0,1,0.83,0.83,0.83,0.83,16.114,16.114,16.188,1.2701409,0,2325,4.031,12.0,1.297,67,26.8,OK,33,0,0,0,0,0,65,100,0.0,0,0.0,2.2068089E20,2.68E-43,0.0,-1.05007105E-23,62,2.4738434E-11,-2.473855E-11,2.7696328E-36,False,False,0,None,3.0091846E31,1.0842106E-19,geoInclination|74.35 degrees
138312861,.219,9.094510666312138,62.69286116516765,15,567.9315,568.20013,0.039747324,0.016021177,-0.993709,0.99463266,0.27924487,0.016422896,0.17597891,0.3304784,-442,100,1445,1514.0,-0.0028453579,0.0040751407,0.018726302,0.019374656,0.0049701944517874744,0.11388420019944115,-0.9340601520018011,2.2936521970538104,-158.3833369870111,201.6166630129889,1.3187163182118045,2.2290160301115387,-0.48844852668081906,-162.16082296368427,0.774509428727818,0.4917846105556926,-67.50651682520001,-65.00606359824515,32.74,-0.3495484453125073,,9.0945105,62.6928607,20190921,180035,2019-09-21T18:00:35Z,622.004,0.72,1.35,8.73,7,8,15,-0.01,0.0,0.0,9.09449925802649,62.69286576131303,120,1564211,48,99,450,3437,3437,4388,4393,175,17543,19,212,17542,0,false,false,false,false,false,false,false,false,false,false,209,209,209,209,46,60,59,45,1136,1139,1138,1137,1133,1133,1133,1133,0.1,0.1,0.1,0.1,1580.3,1576.1,1575.5,1580.9,7.6,6.94,7.9,7.0,0,0,0,0,-45.0,9.09451057808198,62.692860634202546,0,567.9315,568.092,0.038840793,0.015146329,-0.99508065,0.99595356,0.39742666,-0.07449745,0.0024920853,0.40435633,-451,97,1442,1513.0,-8.172268E-4,4.526737E-4,6.440342E-4,0.001134704,9.342232982899859E-4,-9.342232982899859E-4,-0.9127013161042581,2.2600691567447195,-159.04234663982862,200.95765336017138,1.2595002411236478,2.3196572456297933,-0.5586331010547652,-163.06058006981198,0.8114677720433762,0.4768745211514362,-72.99221688800482,-70.49176366104996,32.66,NONE,0.0,0.0,0.0,NONE,2.786299428907409E-11,1.907326688319418E-12,0.0,1,1.66,1.66,1.66,1.66,16.114,16.114,16.188,1.2701409,0,2325,4.031,12.0,1.297,67,26.8,OK,33,0,0,0,0,0,65,100,0.0,0,0.0,2.2068089E20,2.68E-43,0.0,-1.05007105E-23,62,2.4738434E-11,-2.473855E-11,2.7696328E-36,False,False,0,None,3.0091846E31,1.0842106E-19,geoIntensity|51658.88 nanoTesla
138492826,.266,9.094510666312138,62.69286116516765,15,567.9315,568.20013,0.039747324,0.016021177,-0.993709,0.99463266,0.27924487,0.016422896,0.17597891,0.3304784,-442,100,1445,1514.0,-0.0028453579,0.0040751407,0.018726302,0.019374656,0.0049701944517874744,-0.0049701944517874744,-0.9340601520018011,2.2936521970538104,-158.3833369870111,201.6166630129889,1.3187163182118045,2.2290160301115387,-0.48844852668081906,-162.16082296368427,0.774509428727818,0.4917846105556926,-67.50651682520001,-65.00606359824515,32.74,-0.3495484453125073,,9.0945105,62.6928607,20190921,180035,2019-09-21T18:00:35Z,622.004,0.72,1.35,8.73,7,8,15,-0.01,0.0,0.0,9.09449925802649,62.69286576131303,120,1564211,48,99,450,3437,3437,4388,4393,175,17543,19,212,17542,0,false,false,false,false,false,false,false,false,false,false,209,209,209,209,46,60,59,45,1136,1139,1138,1137,1133,1133,1133,1133,0.1,0.1,0.1,0.1,1580.3,1576.1,1575.5,1580.9,7.6,6.94,7.9,7.0,0,0,0,0,-45.0,9.09451057808198,62.692860634202546,0,567.9315,568.092,0.038840793,0.015146329,-0.99508065,0.99595356,0.39742666,-0.07449745,0.0024920853,0.40435633,-451,97,1442,1513.0,-8.172268E-4,4.526737E-4,6.440342E-4,0.001134704,9.342232982899859E-4,-9.342232982899859E-4,-0.9127013161042581,2.2600691567447195,-159.04234663982862,200.95765336017138,1.2595002411236478,2.3196572456297933,-0.5586331010547652,-163.06058006981198,0.8114677720433762,0.4768745211514362,-72.99221688800482,-70.49176366104996,32.66,NONE,0.0,0.0,0.0,NONE,2.786299428907409E-11,1.907326688319418E-12,0.0,1,1.66,1.66,1.66,1.66,16.114,16.114,16.188,1.2701409,0,2325,4.031,12.0,1.297,67,26.8,OK,33,0,0,0,0,0,65,100,0.0,0,0.0,2.2068089E20,2.68E-43,0.0,-1.05007105E-23,62,2.4738434E-11,-2.473855E-11,2.7696328E-36,False,False,0,None,3.0091846E31,1.0842106E-19,
138621555,.299,9.094510666312138,62.69286116516765,15,567.9315,568.20013,0.039747324,0.016021177,-0.993709,0.99463266,0.27924487,0.016422896,0.17597891,0.3304784,-442,100,1445,1514.0,-0.0028453579,0.0040751407,0.018726302,0.019374656,0.0049701944517874744,-0.0049701944517874744,-0.9340601520018011,2.2936521970538104,-158.3833369870111,201.6166630129889,1.3187163182118045,2.2290160301115387,-0.48844852668081906,-162.16082296368427,0.774509428727818,0.4917846105556926,-67.50651682520001,-65.00606359824515,32.74,-0.3495484453125073,,9.0945105,62.6928607,20190921,180035,2019-09-21T18:00:35Z,622.004,0.72,1.35,8.73,7,8,15,-0.01,0.0,0.0,9.09449925802649,62.69286576131303,120,1564211,48,99,450,3437,3437,4388,4393,175,17543,19,212,17542,0,false,false,false,false,false,false,false,false,false,false,209,209,209,209,47,58,59,47,1143,1145,1144,1144,1139,1139,1139,1139,0.1,0.1,0.1,0.1,1580.9,1576.1,1576.1,1581.6,7.61,7.03,7.71,7.09,0,0,0,0,-45.0,9.09451057808198,62.692860634202546,0,567.9315,568.092,0.038840793,0.015146329,-0.99508065,0.99595356,0.39742666,-0.07449745,0.0024920853,0.40435633,-451,97,1442,1513.0,-8.172268E-4,4.526737E-4,6.440342E-4,0.001134704,9.342232982899859E-4,-9.342232982899859E-4,-0.9127013161042581,2.2600691567447195,-159.04234663982862,200.95765336017138,1.2595002411236478,2.3196572456297933,-0.5586331010547652,-163.06058006981198,0.8114677720433762,0.4768745211514362,-72.99221688800482,-70.49176366104996,32.66,NONE,0.0,0.0,0.0,NONE,2.786299428907409E-11,1.907326688319418E-12,0.0,1,1.66,1.66,1.66,1.66,16.114,16.114,16.188,1.2701409,0,2325,4.031,12.0,1.297,67,26.8,OK,33,0,0,0,0,0,65,100,0.0,0,0.0,2.2068089E20,2.68E-43,0.0,-1.05007105E-23,62,2.4738434E-11,-2.473855E-11,2.7696328E-36,False,False,0,None,3.0091846E31,1.0842106E-19,
138924896,.378,9.094510666312138,62.69286116516765,15,567.9315,568.20013,0.039747324,0.016021177,-0.993709,0.99463266,0.27924487,0.016422896,0.17597891,0.3304784,-442,100,1445,1514.0,-0.0028453579,0.0040751407,0.018726302,0.019374656,0.0049701944517874744,-0.0049701944517874744,-0.9340601520018011,2.2936521970538104,-158.3833369870111,201.6166630129889,1.3187163182118045,2.2290160301115387,-0.48844852668081906,-162.16082296368427,0.774509428727818,0.4917846105556926,-67.50651682520001,-65.00606359824515,32.74,-0.3495484453125073,,9.0945105,62.6928607,20190921,180035,2019-09-21T18:00:35Z,622.004,0.72,1.35,8.73,7,8,15,-0.01,0.0,0.0,9.09449925802649,62.69286576131303,120,1564211,48,99,450,3437,3437,4388,4393,175,17543,19,212,17542,0,false,false,false,false,false,false,false,false,false,false,209,209,209,209,47,58,59,47,1143,1145,1144,1144,1139,1139,1139,1139,0.1,0.1,0.1,0.1,1580.9,1576.1,1576.1,1581.6,7.61,7.03,7.71,7.09,0,0,0,0,-45.0,9.0945105263595,62.69286062046984,0,567.9315,568.09204,0.03920664,0.016371671,-0.9936291,0.99453706,0.3846597,-0.20522569,-0.25898263,0.50710225,-445,97,1451,1520.0,-0.001601527,-8.51939E-5,-0.0025730142,0.0030319218,0.0016037913645269458,0.037064319397995774,-0.9113761404454848,2.2519604879938426,-159.04405783772214,200.95594216227786,1.2339070499652596,2.397695550362196,-0.5865444932297301,-162.79308728884365,0.8106683475877505,0.47992299774441755,-122.56055946159901,-120.06010623464415,32.75,NONE,0.0,0.0,0.0,NONE,2.786299428907409E-11,1.907326688319418E-12,0.0,1,2.49,2.49,2.49,2.49,16.068,16.068,16.048,1.2701409,0,2325,4.03,12.0,1.297,67,26.8,OK,33,0,0,0,0,0,65,100,0.0,0,0.0,6.0482217E19,2.68E-43,0.0,-1.05007105E-23,62,2.4738434E-11,-2.473855E-11,2.7593013E-36,False,False,0,None,2.9835593E31,1.0842106E-19,
139059320,.413,9.094510666312138,62.69286116516765,15,567.9315,568.20013,0.039747324,0.016021177,-0.993709,0.99463266,0.27924487,0.016422896,0.17597891,0.3304784,-442,100,1445,1514.0,-0.0028453579,0.0040751407,0.018726302,0.019374656,0.0049701944517874744,-0.0049701944517874744,-0.9340601520018011,2.2936521970538104,-158.3833369870111,201.6166630129889,1.3187163182118045,2.2290160301115387,-0.48844852668081906,-162.16082296368427,0.774509428727818,0.4917846105556926,-67.50651682520001,-65.00606359824515,32.74,-0.3495484453125073,,9.0945105,62.6928607,20190921,180035,2019-09-21T18:00:35Z,622.004,0.72,1.35,8.73,7,8,15,-0.01,0.0,0.0,9.09449925802649,62.69286576131303,120,1564211,48,99,450,3437,3437,4388,4393,175,17543,19,212,17542,0,false,false,false,false,false,false,false,false,false,false,250,209,260,263,47,58,58,46,1150,1151,1151,1151,1146,1146,1146,1146,0.1,0.1,0.1,0.1,1580.3,1575.5,1576.1,1580.3,7.52,7.03,7.61,7.12,0,0,0,0,-34.508522987668414,9.0945105263595,62.69286062046984,0,567.9315,568.09204,0.03920664,0.016371671,-0.9936291,0.99453706,0.3846597,-0.20522569,-0.25898263,0.50710225,-445,97,1451,1520.0,-0.001601527,-8.51939E-5,-0.0025730142,0.0030319218,0.0016037913645269458,-0.0016037913645269458,-0.9113761404454848,2.2519604879938426,-159.04405783772214,200.95594216227786,1.2339070499652596,2.397695550362196,-0.5865444932297301,-162.79308728884365,0.8106683475877505,0.47992299774441755,-122.56055946159901,-120.06010623464415,32.75,NONE,0.0,0.0,0.0,NONE,1.7126259305423725E-10,-6.404602248268821E-11,0.0,1,3.33,3.33,3.33,3.33,16.068,16.068,16.048,1.2701409,0,2325,4.03,12.0,1.297,67,26.8,OK,33,0,0,0,0,0,65,100,0.0,0,0.0,6.0482217E19,2.68E-43,0.0,-1.05007105E-23,62,2.4738434E-11,-2.473855E-11,2.7593013E-36,False,False,0,None,2.9835593E31,1.0842106E-19,
139251371,.463,9.094510552706748,62.69286117711392,15,567.9315,568.19495,0.039566718,0.014792717,-0.9941099,0.995007,0.006307663,-0.23219967,0.13806747,0.27022046,-448,100,1467,1537.0,-0.005962708,0.0040906104,0.017633831,0.01905883,0.00723097374992903,0.11188602871956713,-0.9351779749138651,2.287182119438408,-158.3796559506152,201.6203440493848,1.3500530900969847,2.2575095744647724,-0.5099795737766034,-162.3361227636682,0.7692836265390367,0.49773012071533845,-79.5902841183805,-77.08983089142563,32.78,-0.3495484453125073,,9.0945105,62.6928607,20190921,180035,2019-09-21T18:00:35Z,622.004,0.72,1.35,8.73,7,8,15,-0.01,0.0,0.0,9.09449925802649,62.69286576131303,120,1564211,48,99,450,3437,3437,4388,4393,175,17543,19,212,17542,0,false,false,false,false,false,false,false,false,false,false,250,209,260,263,47,58,58,46,1150,1151,1151,1151,1146,1146,1146,1146,0.1,0.1,0.1,0.1,1580.3,1575.5,1576.1,1580.3,7.52,7.03,7.61,7.12,0,0,0,0,-34.508522987668414,9.0945105263595,62.69286062046984,0,567.9315,568.09204,0.03920664,0.016371671,-0.9936291,0.99453706,0.3846597,-0.20522569,-0.25898263,0.50710225,-445,97,1451,1520.0,-0.001601527,-8.51939E-5,-0.0025730142,0.0030319218,0.0016037913645269458,-0.0016037913645269458,-0.9113761404454848,2.2519604879938426,-159.04405783772214,200.95594216227786,1.2339070499652596,2.397695550362196,-0.5865444932297301,-162.79308728884365,0.8106683475877505,0.47992299774441755,-122.56055946159901,-120.06010623464415,32.75,NONE,0.0,0.0,0.0,NONE,1.7126259305423725E-10,-6.404602248268821E-11,0.0,1,3.33,3.33,3.33,3.33,16.068,16.068,16.048,1.2701409,0,2325,4.03,12.0,1.297,67,26.8,OK,33,0,0,0,0,0,65,100,0.0,0,0.0,6.0482217E19,2.68E-43,0.0,-1.05007105E-23,62,2.4738434E-11,-2.473855E-11,2.7593013E-36,False,False,0,None,2.9835593E31,1.0842106E-19,
139389586,.499,9.094510552706748,62.69286117711392,15,567.9315,568.19495,0.039566718,0.014792717,-0.9941099,0.995007,0.006307663,-0.23219967,0.13806747,0.27022046,-448,100,1467,1537.0,-0.005962708,0.0040906104,0.017633831,0.01905883,0.00723097374992903,-0.00723097374992903,-0.9351779749138651,2.287182119438408,-158.3796559506152,201.6203440493848,1.3500530900969847,2.2575095744647724,-0.5099795737766034,-162.3361227636682,0.7692836265390367,0.49773012071533845,-79.5902841183805,-77.08983089142563,32.78,-0.3495484453125073,,9.0945105,62.6928607,20190921,180035,2019-09-21T18:00:35Z,622.004,0.72,1.35,8.73,7,8,15,-0.01,0.0,0.0,9.09449925802649,62.69286576131303,120,1564211,48,99,450,3437,3437,4388,4393,175,17543,19,212,17542,0,false,false,false,false,false,false,false,false,false,false,301,297,325,294,48,60,60,47,1359,1370,1367,1364,1352,1352,1352,1352,0.1,0.1,0.1,0.1,1580.3,1575.5,1574.8,1580.9,7.5,7.02,7.66,7.11,0,0,0,0,52.125016348901795,9.0945105263595,62.69286062046984,0,567.9315,568.09204,0.03920664,0.016371671,-0.9936291,0.99453706,0.3846597,-0.20522569,-0.25898263,0.50710225,-445,97,1451,1520.0,-0.001601527,-8.51939E-5,-0.0025730142,0.0030319218,0.0016037913645269458,-0.0016037913645269458,-0.9113761404454848,2.2519604879938426,-159.04405783772214,200.95594216227786,1.2339070499652596,2.397695550362196,-0.5865444932297301,-162.79308728884365,0.8106683475877505,0.47992299774441755,-122.56055946159901,-120.06010623464415,32.75,NONE,0.0,0.0,0.0,NONE,1.7126259305423725E-10,-6.404602248268821E-11,0.0,1,3.33,3.33,3.33,3.33,16.068,16.068,16.048,1.2701409,0,2325,4.03,12.0,1.297,67,26.8,OK,33,0,0,0,0,0,65,100,0.0,0,0.0,6.0482217E19,2.68E-43,0.0,-1.05007105E-23,62,2.4738434E-11,-2.473855E-11,2.7593013E-36,False,False,0,None,2.9835593E31,1.0842106E-19,
139520112,.533,9.094510531493704,62.69286113298878,15,567.9315,568.19476,0.039480656,0.015861582,-0.9943845,0.9952944,0.4180073,0.11289478,-0.08446983,0.44114682,-448,100,1448,1519.0,-0.006960237,0.003649192,0.016509088,0.018284187,0.007858848550946169,0.14025261052267116,-0.9231382840796127,2.283697888999007,-158.3786486064665,201.6213513935335,1.3527272746406678,2.2786802197287948,-0.5159321363904168,-162.45403122999235,0.7717367823192739,0.5027545239450713,-170.06309890126553,-167.5626456743107,32.78,-0.3495484453125073,,9.0945103,62.6928607,20190921,180035,2019-09-21T18:00:35Z,622.031,0.72,1.35,8.7,7,8,15,0.01,0.0,0.01,9.09449925802649,62.69286576131303,120,1564211,48,99,450,3437,3437,4388,4393,175,17543,19,212,17542,0,false,false,false,false,false,false,false,false,false,false,301,297,325,294,48,60,60,47,1359,1370,1367,1364,1352,1352,1352,1352,0.1,0.1,0.1,0.1,1580.3,1575.5,1574.8,1580.9,7.5,7.02,7.66,7.11,0,0,0,0,52.125016348901795,9.094510308358391,62.69286061173326,0,567.9315,568.092,0.039480656,0.015861582,-0.9943845,0.9952944,0.4180073,0.11289478,-0.08446983,0.44114682,-448,100,1448,1519.0,0.001777131,5.7927106E-4,-0.0038650474,0.0042932904,0.001869157442718198,0.3271979429354538,-0.905676293880178,2.2615959315901804,-159.03790624457233,200.96209375542767,1.1996332140077026,2.477795364885648,-0.5957583871441785,-162.5365815306644,0.8035133776264104,0.49108598143440413,-97.49295599976173,-94.99250277280687,32.78,NONE,0.0,0.0,0.0,NONE,1.7126259305423725E-10,-6.404602248268821E-11,0.0,1,28.75,28.75,28.75,28.75,16.053,16.053,16.007,1.2701409,0,2325,4.03,12.0,1.297,67,26.8,OK,33,0,0,0,0,0,65,100,0.0,0,0.0,1.53442565E18,2.68E-43,0.0,-1.05007105E-23,62,2.4738434E-11,-2.473855E-11,2.697542E-36,False,False,0,None,2.8303642E31,1.0842106E-19,
139692950,.577,9.094510531493704,62.69286113298878,15,567.9315,568.19476,0.039480656,0.015861582,-0.9943845,0.9952944,0.4180073,0.11289478,-0.08446983,0.44114682,-448,100,1448,1519.0,-0.006960237,0.003649192,0.016509088,0.018284187,0.007858848550946169,-0.007858848550946169,-0.9231382840796127,2.283697888999007,-158.3786486064665,201.6213513935335,1.3527272746406678,2.2786802197287948,-0.5159321363904168,-162.45403122999235,0.7717367823192739,0.5027545239450713,-170.06309890126553,-167.5626456743107,32.78,-0.3495484453125073,,9.0945103,62.6928607,20190921,180035,2019-09-21T18:00:35Z,622.031,0.72,1.35,8.7,7,8,15,0.01,0.0,0.01,9.09449925802649,62.69286576131303,120,1564211,48,99,451,3437,3437,4388,4393,175,17543,19,212,17542,0,false,false,false,false,false,false,false,false,false,false,301,297,325,294,48,60,60,47,1359,1370,1367,1364,1352,1352,1352,1352,0.1,0.1,0.1,0.1,1580.3,1575.5,1574.8,1580.9,7.5,7.02,7.66,7.11,0,0,0,0,52.125016348901795,9.094510308358391,62.69286061173326,0,567.9315,568.092,0.039480656,0.015861582,-0.9943845,0.9952944,0.4180073,0.11289478,-0.08446983,0.44114682,-448,100,1448,1519.0,0.001777131,5.7927106E-4,-0.0038650474,0.0042932904,0.001869157442718198,-0.001869157442718198,-0.905676293880178,2.2615959315901804,-159.03790624457233,200.96209375542767,1.1996332140077026,2.477795364885648,-0.5957583871441785,-162.5365815306644,0.8035133776264104,0.49108598143440413,-97.49295599976173,-94.99250277280687,32.78,NONE,0.0,0.0,0.0,NONE,1.7126259305423725E-10,-6.404602248268821E-11,0.0,1,28.75,28.75,28.75,28.75,16.053,16.053,16.007,1.2701409,0,2325,4.03,12.0,1.297,67,26.8,OK,33,0,0,0,0,0,65,100,0.0,0,0.0,1.53442565E18,2.68E-43,0.0,-1.05007105E-23,62,2.4738434E-11,-2.473855E-11,2.697542E-36,False,False,0,None,2.8303642E31,1.0842106E-19,
139848621,.618,9.094510447475946,62.692861126782375,15,567.96747,568.19464,0.03784215,0.015494631,-0.99503636,0.9958762,0.17780516,0.068445034,0.15937625,0.24839522,-448,100,1448,1519.0,-0.008106181,-0.0023142388,0.013855499,0.01621853,0.00843005805012069,0.09886846963777433,-0.9255127422119963,2.282885158933885,-158.3802502167604,201.6197497832396,1.3564644286927539,2.3084058825754767,-0.5068849164132622,-162.44691236190022,0.7690106465553229,0.507095628787887,-101.64778218009816,-99.1473289531433,32.85,-0.3135987382812573,,9.0945103,62.6928607,20190921,180035,2019-09-21T18:00:35Z,622.031,0.72,1.35,8.7,7,8,15,0.01,0.0,0.01,9.09449925802649,62.69286576131303,120,1564211,48,99,451,3437,3437,4388,4393,175,17543,19,212,17542,0,false,false,false,false,false,false,false,false,false,false,301,297,325,294,48,60,60,47,1359,1370,1367,1364,1352,1352,1352,1352,0.1,0.1,0.1,0.1,1580.3,1575.5,1574.8,1580.9,7.5,7.02,7.66,7.11,0,0,0,0,52.125016348901795,9.094510308358391,62.69286061173326,0,567.9315,568.092,0.039480656,0.015861582,-0.9943845,0.9952944,0.4180073,0.11289478,-0.08446983,0.44114682,-448,100,1448,1519.0,0.001777131,5.7927106E-4,-0.0038650474,0.0042932904,0.001869157442718198,-0.001869157442718198,-0.905676293880178,2.2615959315901804,-159.03790624457233,200.96209375542767,1.1996332140077026,2.477795364885648,-0.5957583871441785,-162.5365815306644,0.8035133776264104,0.49108598143440413,-97.49295599976173,-94.99250277280687,32.78,NONE,0.0,0.0,0.0,NONE,1.7126259305423725E-10,-6.404602248268821E-11,0.0,1,22.5,22.5,22.5,22.5,16.053,16.053,16.007,1.2701409,0,2325,4.03,12.0,1.297,67,26.8,OK,33,0,0,0,0,0,65,100,0.0,0,0.0,1.53442565E18,2.68E-43,0.0,-1.05007105E-23,62,2.4738434E-11,-2.473855E-11,2.697542E-36,False,False,0,None,2.8303642E31,1.0842106E-19,
140019375,.662,9.094510447475946,62.692861126782375,15,567.96747,568.19464,0.03784215,0.015494631,-0.99503636,0.9958762,0.17780516,0.068445034,0.15937625,0.24839522,-448,100,1448,1519.0,-0.008106181,-0.0023142388,0.013855499,0.01621853,0.00843005805012069,-0.00843005805012069,-0.9255127422119963,2.282885158933885,-158.3802502167604,201.6197497832396,1.3564644286927539,2.3084058825754767,-0.5068849164132622,-162.44691236190022,0.7690106465553229,0.507095628787887,-101.64778218009816,-99.1473289531433,32.85,-0.3135987382812573,,9.0945103,62.6928607,20190921,180035,2019-09-21T18:00:35Z,622.031,0.72,1.35,8.7,7,8,15,0.01,0.0,0.01,9.09449925802649,62.69286576131303,120,1564211,48,99,451,3437,3437,4388,4393,175,17543,19,212,17542,0,false,false,false,false,false,false,false,false,false,false,301,297,325,294,48,60,60,47,1359,1370,1367,1364,1352,1352,1352,1352,0.1,0.1,0.1,0.1,1580.3,1575.5,1574.8,1580.9,7.5,7.02,7.66,7.11,0,0,0,0,52.125016348901795,9.094510333883818,62.69286059409635,0,567.96747,568.092,0.03784215,0.015494631,-0.99503636,0.9958762,0.17780516,0.068445034,0.15937625,0.24839522,-448,100,1448,1519.0,0.0017045579,1.6268645E-4,-0.0018381816,0.0025121497,0.0017123039104402157,0.05133269592490951,-0.899568255420912,2.2526324297639744,-159.0488230250515,200.9511769749485,1.2033703193901835,2.5075206406098673,-0.5867112849905388,-162.56673710079315,0.805824539729112,0.4934400230441672,143.91731736030357,146.41777058725842,32.85,NONE,0.0,0.0,0.0,NONE,1.7126259305423725E-10,-6.404602248268821E-11,0.0,1,22.5,22.5,22.5,22.5,16.053,16.053,16.007,1.2701409,0,2325,4.03,12.0,1.297,67,26.8,OK,33,0,0,0,0,0,65,100,0.0,0,0.0,1.53442565E18,2.68E-43,0.0,-1.05007105E-23,62,2.4738434E-11,-2.473855E-11,2.697542E-36,False,False,0,None,2.8303642E31,1.0842106E-19,
140157723,.698,9.094510447475946,62.692861126782375,15,567.96747,568.19464,0.03784215,0.015494631,-0.99503636,0.9958762,0.17780516,0.068445034,0.15937625,0.24839522,-448,100,1448,1519.0,-0.008106181,-0.0023142388,0.013855499,0.01621853,0.00843005805012069,-0.00843005805012069,-0.9255127422119963,2.282885158933885,-158.3802502167604,201.6197497832396,1.3564644286927539,2.3084058825754767,-0.5068849164132622,-162.44691236190022,0.7690106465553229,0.507095628787887,-101.64778218009816,-99.1473289531433,32.85,-0.3135987382812573,,9.0945103,62.6928607,20190921,180035,2019-09-21T18:00:35Z,622.031,0.72,1.35,8.7,7,8,15,0.01,0.0,0.01,9.09449925802649,62.69286576131303,120,1564211,48,99,451,3437,3437,4388,4393,175,17543,19,212,17542,0,false,false,false,false,false,false,false,false,false,false,438,419,385,416,48,60,60,48,1259,1269,1266,1263,1252,1252,1252,1252,0.1,0.1,0.1,0.1,1580.3,1575.5,1574.8,1579.7,7.46,6.95,7.55,7.08,0,0,0,0,-138.23970029610211,9.094510333883818,62.69286059409635,0,567.96747,568.092,0.03784215,0.015494631,-0.99503636,0.9958762,0.17780516,0.068445034,0.15937625,0.24839522,-448,100,1448,1519.0,0.0017045579,1.6268645E-4,-0.0018381816,0.0025121497,0.0017123039104402157,-0.0017123039104402157,-0.899568255420912,2.2526324297639744,-159.0488230250515,200.9511769749485,1.2033703193901835,2.5075206406098673,-0.5867112849905388,-162.56673710079315,0.805824539729112,0.4934400230441672,143.91731736030357,146.41777058725842,32.85,NONE,0.0,0.0,0.0,NONE,1.7126259305423725E-10,-6.404602248268821E-11,0.0,1,22.5,22.5,22.5,22.5,16.053,16.053,16.007,1.2701409,0,2325,4.03,12.0,1.297,67,26.8,OK,33,0,0,0,0,0,65,100,0.0,0,0.0,1.53442565E18,2.68E-43,0.0,-1.05007105E-23,62,2.4738434E-11,-2.473855E-11,2.697542E-36,False,False,0,None,2.8303642E31,1.0842106E-19,
140297739,.735,9.094510377918816,62.692861120865835,15,567.9315,568.1944,0.03779334,0.015241989,-0.9955297,0.9963634,0.20793964,0.06284134,0.10772906,0.24247366,-448,100,1451,1521.0,-0.007497075,-0.0021712456,0.012239367,0.014516286,0.007805154698292403,0.09136377119073799,-0.927858653206496,2.3085353812683964,-158.37653933061233,201.62346066938767,1.369799076666661,2.3276633478361073,-0.5003307311401618,-162.39967622398174,0.7668232150130389,0.5107043395312606,-103.00455555571159,-100.50410232875673,32.88,-0.3495484453125073,,9.0945102,62.6928607,20190921,180036,2019-09-21T18:00:36Z,622.041,0.72,1.35,8.69,7,8,15,0.02,0.0,0.01,9.09449925802649,62.69286576131303,120,1564211,48,99,451,3437,3437,4388,4393,175,17543,19,212,17542,0,false,false,false,false,false,false,false,false,false,false,438,419,385,416,48,60,60,48,1259,1269,1266,1263,1252,1252,1252,1252,0.1,0.1,0.1,0.1,1580.3,1575.5,1574.8,1579.7,7.46,6.95,7.55,7.08,0,0,0,0,-138.23970029610211,9.094510251664012,62.69286060134099,0,567.9315,568.092,0.03779334,0.015241989,-0.9955297,0.9963634,0.20793964,0.06284134,0.10772906,0.24247366,-448,100,1451,1521.0,1.2555765E-4,-4.958052E-4,-6.648924E-4,8.3885E-4,5.114562560785399E-4,0.11685314377499276,-0.8961412594866867,2.2383778569624218,-159.06314132983468,200.93685867016532,1.2167048285251423,2.5267779053638004,-0.5801571679589244,-162.58233907267845,0.8023130940655251,0.4977108658432291,-81.62818336999719,-79.12773014304233,32.88,NONE,0.0,0.0,0.0,NONE,1.7126259305423725E-10,-6.404602248268821E-11,0.0,1,16.25,16.25,16.25,16.25,16.041,16.041,16.004,1.3070455,0,2324,4.03,12.0,3.009,67,26.8,OK,34,0,0,0,0,0,65,100,0.0,0,0.0,4.38370888E17,2.68E-43,0.0,-1.05007105E-23,62,2.4738434E-11,-2.473855E-11,2.6850064E-36,False,False,0,None,2.79923E31,1.0842106E-19,
140460900,.777,9.094510377918816,62.692861120865835,15,567.9315,568.1944,0.03779334,0.015241989,-0.9955297,0.9963634,0.20793964,0.06284134,0.10772906,0.24247366,-448,100,1451,1521.0,-0.007497075,-0.0021712456,0.012239367,0.014516286,0.007805154698292403,-0.007805154698292403,-0.927858653206496,2.3085353812683964,-158.37653933061233,201.62346066938767,1.369799076666661,2.3276633478361073,-0.5003307311401618,-162.39967622398174,0.7668232150130389,0.5107043395312606,-103.00455555571159,-100.50410232875673,32.88,-0.3495484453125073,,9.0945102,62.6928607,20190921,180036,2019-09-21T18:00:36Z,622.041,0.72,1.35,8.69,7,8,15,0.02,0.0,0.01,9.09449925802649,62.69286576131303,120,1564211,48,99,451,3437,3437,4388,4393,175,17543,19,212,17542,0,false,false,false,false,false,false,false,false,false,false,438,419,385,416,48,60,60,48,1259,1269,1266,1263,1252,1252,1252,1252,0.1,0.1,0.1,0.1,1580.3,1575.5,1574.8,1579.7,7.46,6.95,7.55,7.08,0,0,0,0,-138.23970029610211,9.094510251664012,62.69286060134099,0,567.9315,568.092,0.03779334,0.015241989,-0.9955297,0.9963634,0.20793964,0.06284134,0.10772906,0.24247366,-448,100,1451,1521.0,1.2555765E-4,-4.958052E-4,-6.648924E-4,8.3885E-4,5.114562560785399E-4,-5.114562560785399E-4,-0.8961412594866867,2.2383778569624218,-159.06314132983468,200.93685867016532,1.2167048285251423,2.5267779053638004,-0.5801571679589244,-162.58233907267845,0.8023130940655251,0.4977108658432291,-81.62818336999719,-79.12773014304233,32.88,NONE,0.0,0.0,0.0,NONE,1.7126259305423725E-10,-6.404602248268821E-11,0.0,1,16.25,16.25,16.25,16.25,16.041,16.041,16.004,1.3070455,0,2324,4.03,12.0,3.009,67,26.8,OK,34,0,0,0,0,0,65,100,0.0,0,0.0,4.38370888E17,2.68E-43,0.0,-1.05007105E-23,62,2.4738434E-11,-2.473855E-11,2.6850064E-36,False,False,0,None,2.79923E31,1.0842106E-19,
140595289,.812,9.094510377918816,62.692861120865835,15,567.9315,568.1944,0.03779334,0.015241989,-0.9955297,0.9963634,0.20793964,0.06284134,0.10772906,0.24247366,-448,100,1451,1521.0,-0.007497075,-0.0021712456,0.012239367,0.014516286,0.007805154698292403,-0.007805154698292403,-0.927858653206496,2.3085353812683964,-158.37653933061233,201.62346066938767,1.369799076666661,2.3276633478361073,-0.5003307311401618,-162.39967622398174,0.7668232150130389,0.5107043395312606,-103.00455555571159,-100.50410232875673,32.88,-0.3495484453125073,,9.0945102,62.6928607,20190921,180036,2019-09-21T18:00:36Z,622.041,0.72,1.35,8.69,7,8,15,0.02,0.0,0.01,9.09449925802649,62.69286576131303,120,1564211,48,99,451,3437,3437,4388,4393,175,17543,19,212,17542,0,false,false,false,false,false,false,false,false,false,false,438,419,385,416,48,60,60,48,1259,1269,1266,1263,1252,1252,1252,1252,0.1,0.1,0.1,0.1,1580.3,1575.5,1574.8,1579.7,7.46,6.95,7.55,7.08,0,0,0,0,-138.23970029610211,9.094510251664012,62.69286060134099,0,567.9315,568.092,0.03779334,0.015241989,-0.9955297,0.9963634,0.20793964,0.06284134,0.10772906,0.24247366,-448,100,1451,1521.0,1.2555765E-4,-4.958052E-4,-6.648924E-4,8.3885E-4,5.114562560785399E-4,-5.114562560785399E-4,-0.8961412594866867,2.2383778569624218,-159.06314132983468,200.93685867016532,1.2167048285251423,2.5267779053638004,-0.5801571679589244,-162.58233907267845,0.8023130940655251,0.4977108658432291,-81.62818336999719,-79.12773014304233,32.88,NONE,0.0,0.0,0.0,NONE,2.180899288979957E-11,1.1176265156331174E-11,0.0,1,10.0,10.0,10.0,10.0,16.041,16.041,16.004,1.3070455,0,2324,4.03,12.0,3.009,67,26.8,OK,34,0,0,0,0,0,65,100,0.0,0,0.0,4.38370888E17,2.68E-43,0.0,-1.05007105E-23,62,2.4738434E-11,-2.473855E-11,2.6850064E-36,False,False,0,None,2.79923E31,1.0842106E-19,
140775495,.859,9.094510329710106,62.69286111635911,15,567.9315,568.1939,0.039661758,0.016318474,-0.9933782,0.9943036,0.13364807,0.006739826,-0.10797015,0.17194413,-445,103,1461,1530.0,0.004464912,0.0017539026,0.011189176,0.012174123,0.004797042482269238,0.04879037816054321,-0.9295874260523531,2.3035664927481068,-158.38032222319936,201.61967777680064,1.3697870511006132,2.344702029641938,-0.4968599642823036,-161.82927101504333,0.7653439351745754,0.5132140920390857,-104.01816153007272,-101.51770830311786,32.91,-0.3495484453125073,,9.0945102,62.6928607,20190921,180036,2019-09-21T18:00:36Z,622.041,0.72,1.35,8.69,7,8,15,0.02,0.0,0.01,9.09449925802649,62.69286576131303,120,1564211,48,99,451,3437,3437,4388,4393,175,17543,19,212,17542,0,false,false,false,false,false,false,false,false,false,false,438,419,385,416,48,60,60,48,1259,1269,1266,1263,1252,1252,1252,1252,0.1,0.1,0.1,0.1,1580.3,1575.5,1574.8,1579.7,7.46,6.95,7.55,7.08,0,0,0,0,-138.23970029610211,9.094510251664012,62.69286060134099,0,567.9315,568.092,0.03779334,0.015241989,-0.9955297,0.9963634,0.20793964,0.06284134,0.10772906,0.24247366,-448,100,1451,1521.0,1.2555765E-4,-4.958052E-4,-6.648924E-4,8.3885E-4,5.114562560785399E-4,-5.114562560785399E-4,-0.8961412594866867,2.2383778569624218,-159.06314132983468,200.93685867016532,1.2167048285251423,2.5267779053638004,-0.5801571679589244,-162.58233907267845,0.8023130940655251,0.4977108658432291,-81.62818336999719,-79.12773014304233,32.88,NONE,0.0,0.0,0.0,NONE,2.180899288979957E-11,1.1176265156331174E-11,0.0,1,10.0,10.0,10.0,10.0,16.041,16.041,16.004,1.3070455,0,2324,4.03,12.0,3.009,67,26.8,OK,34,0,0,0,0,0,65,100,0.0,0,0.0,4.38370888E17,2.68E-43,0.0,-1.05007105E-23,62,2.4738434E-11,-2.473855E-11,2.6850064E-36,False,False,0,None,2.79923E31,1.0842106E-19,
140925623,.898,9.094510329710106,62.69286111635911,15,567.9315,568.1939,0.039661758,0.016318474,-0.9933782,0.9943036,0.13364807,0.006739826,-0.10797015,0.17194413,-445,103,1461,1530.0,0.004464912,0.0017539026,0.011189176,0.012174123,0.004797042482269238,-0.004797042482269238,-0.9295874260523531,2.3035664927481068,-158.38032222319936,201.61967777680064,1.3697870511006132,2.344702029641938,-0.4968599642823036,-161.82927101504333,0.7653439351745754,0.5132140920390857,-104.01816153007272,-101.51770830311786,32.91,-0.3495484453125073,,9.0945102,62.6928607,20190921,180036,2019-09-21T18:00:36Z,622.041,0.72,1.35,8.69,7,8,15,0.02,0.0,0.01,9.09449925802649,62.69286576131303,120,1564211,48,99,451,3437,3437,4388,4393,175,17543,19,212,17542,0,false,false,false,false,false,false,false,false,false,false,515,531,528,508,47,59,61,46,1359,1371,1367,1363,1352,1352,1352,1352,0.1,0.1,0.1,0.1,1579.7,1575.5,1575.5,1580.3,7.37,6.89,7.5,7.05,0,0,0,0,105.52411099675425,9.094510251664012,62.69286060134099,0,567.9315,568.092,0.03779334,0.015241989,-0.9955297,0.9963634,0.20793964,0.06284134,0.10772906,0.24247366,-448,100,1451,1521.0,1.2555765E-4,-4.958052E-4,-6.648924E-4,8.3885E-4,5.114562560785399E-4,-5.114562560785399E-4,-0.8961412594866867,2.2383778569624218,-159.06314132983468,200.93685867016532,1.2167048285251423,2.5267779053638004,-0.5801571679589244,-162.58233907267845,0.8023130940655251,0.4977108658432291,-81.62818336999719,-79.12773014304233,32.88,NONE,0.0,0.0,0.0,NONE,2.180899288979957E-11,1.1176265156331174E-11,0.0,1,10.0,10.0,10.0,10.0,16.041,16.041,16.004,1.3070455,0,2324,4.03,12.0,3.009,67,26.8,OK,34,0,0,0,0,0,65,100,0.0,0,0.0,4.38370888E17,2.68E-43,0.0,-1.05007105E-23,62,2.4738434E-11,-2.473855E-11,2.6850064E-36,False,False,0,None,2.79923E31,1.0842106E-19,
141082698,.939,9.09451031299128,62.6928610669049,15,567.9315,568.19385,0.039479923,0.014264521,-0.99546236,0.99634707,0.39802012,-0.20757982,-0.14895213,0.47296524,-448,100,1442,1513.0,0.007348684,0.0017361359,0.009936539,0.01248007,0.007550981734961582,0.12876404372955857,-0.9252859898714397,2.315268270308083,-158.37877728880602,201.62122271119398,1.3569664446256302,2.3712326548862674,-0.5068820246864059,-162.43590837310927,0.7684395986363145,0.5187788924717701,-173.6845955903074,-171.18414236335255,32.89,-0.3495484453125073,,9.0945102,62.6928607,20190921,180036,2019-09-21T18:00:36Z,622.041,0.72,1.35,8.69,7,8,15,0.02,0.0,0.01,9.09449925802649,62.69286576131303,120,1564211,48,99,451,3437,3437,4388,4393,175,17543,19,212,17542,0,false,false,false,false,false,false,false,false,false,false,515,531,528,508,47,59,61,46,1359,1371,1367,1363,1352,1352,1352,1352,0.1,0.1,0.1,0.1,1579.7,1575.5,1575.5,1580.3,7.37,6.89,7.5,7.05,0,0,0,0,105.52411099675425,9.094510190897513,62.69286059403832,0,567.9315,568.092,0.039479923,0.014264521,-0.99546236,0.99634707,0.39802012,-0.20757982,-0.14895213,0.47296524,-448,100,1442,1513.0,0.0014887135,0.0019605313,-3.9888572E-4,0.0024938046,0.002461696848615178,0.07603315583377326,-0.8966301365950992,2.2411794733566177,-159.06369905692205,200.93630094307795,1.2125915109043477,2.5872417517219115,-0.5945994554390186,-162.61118835087842,0.8007319171570229,0.5009152682096002,-107.17969658192015,-104.6792433549653,32.89,NONE,0.0,0.0,0.0,NONE,2.180899288979957E-11,1.1176265156331174E-11,0.0,1,28.75,28.75,28.75,28.75,16.041,16.041,16.004,1.3070455,0,2324,4.03,12.0,3.009,67,26.8,OK,34,0,0,0,0,0,65,100,0.0,0,0.0,4.38370888E17,2.68E-43,0.0,-1.05007105E-23,62,2.4738434E-11,-2.473855E-11,2.6850064E-36,False,False,0,None,2.79923E31,1.0842106E-19,
141228988,.977,9.09451031299128,62.6928610669049,15,567.9315,568.19385,0.039479923,0.014264521,-0.99546236,0.99634707,0.39802012,-0.20757982,-0.14895213,0.47296524,-448,100,1442,1513.0,0.007348684,0.0017361359,0.009936539,0.01248007,0.007550981734961582,-0.007550981734961582,-0.9252859898714397,2.315268270308083,-158.37877728880602,201.62122271119398,1.3569664446256302,2.3712326548862674,-0.5068820246864059,-162.43590837310927,0.7684395986363145,0.5187788924717701,-173.6845955903074,-171.18414236335255,32.89,-0.3495484453125073,,9.0945102,62.6928607,20190921,180036,2019-09-21T18:00:36Z,622.041,0.72,1.35,8.69,7,8,15,0.02,0.0,0.01,9.09449925802649,62.69286576131303,120,1564211,48,99,451,3437,3437,4388,4393,175,17543,19,212,17542,0,false,false,false,false,false,false,false,false,false,false,515,531,528,508,47,59,61,46,1359,1371,1367,1363,1352,1352,1352,1352,0.1,0.1,0.1,0.1,1579.7,1575.5,1575.5,1580.3,7.37,6.89,7.5,7.05,0,0,0,0,105.52411099675425,9.094510190897513,62.69286059403832,0,567.9315,568.092,0.039479923,0.014264521,-0.99546236,0.99634707,0.39802012,-0.20757982,-0.14895213,0.47296524,-448,100,1442,1513.0,0.0014887135,0.0019605313,-3.9888572E-4,0.0024938046,0.002461696848615178,-0.002461696848615178,-0.8966301365950992,2.2411794733566177,-159.06369905692205,200.93630094307795,1.2125915109043477,2.5872417517219115,-0.5945994554390186,-162.61118835087842,0.8007319171570229,0.5009152682096002,-107.17969658192015,-104.6792433549653,32.89,NONE,0.0,0.0,0.0,NONE,2.180899288979957E-11,1.1176265156331174E-11,0.0,1,28.75,28.75,28.75,28.75,16.041,16.041,16.004,1.3070455,0,2324,4.03,12.0,3.009,67,26.8,OK,34,0,0,0,0,0,65,100,0.0,0,0.0,4.38370888E17,2.68E-43,0.0,-1.05007105E-23,62,2.4738434E-11,-2.473855E-11,2.6850064E-36,False,False,0,None,2.79923E31,1.0842106E-19,
141384652,1.017,9.09451027698734,62.69286106773581,15,567.9315,568.1932,0.03854144,0.016507238,-0.9939296,0.99481356,0.9895459,0.030795936,-0.62315357,1.1698161,-445,97,1448,1517.0,0.017816003,0.003849532,0.008877104,0.02027392,0.018227146471712485,0.027227961163546848,-0.9234599248840413,2.313368034536394,-158.38028717245936,201.61971282754064,1.3184388179911466,2.440471392622801,-0.5157034383159461,-162.69757482291737,0.7670299014044301,0.5206178414217754,-89.62055820166913,-87.12010497471427,32.92,-0.3495484453125073,,9.0945102,62.6928607,20190921,180036,2019-09-21T18:00:36Z,622.041,0.72,1.35,8.69,7,8,15,0.02,0.0,0.01,9.09449925802649,62.69286576131303,120,1564211,48,99,451,3437,3437,4388,4393,175,17543,19,212,17542,0,false,false,false,false,false,false,false,false,false,false,561,569,559,573,46,59,59,47,1310,1320,1316,1313,1302,1302,1302,1302,0.1,0.1,0.1,0.1,1580.3,1573.6,1574.2,1580.9,7.35,6.89,7.48,7.02,0,0,0,0,-71.56505117707798,9.094510190897513,62.69286059403832,0,567.9315,568.092,0.039479923,0.014264521,-0.99546236,0.99634707,0.39802012,-0.20757982,-0.14895213,0.47296524,-448,100,1442,1513.0,0.0014887135,0.0019605313,-3.9888572E-4,0.0024938046,0.002461696848615178,-0.002461696848615178,-0.8966301365950992,2.2411794733566177,-159.06369905692205,200.93630094307795,1.2125915109043477,2.5872417517219115,-0.5945994554390186,-162.61118835087842,0.8007319171570229,0.5009152682096002,-107.17969658192015,-104.6792433549653,32.89,NONE,0.0,0.0,0.0,NONE,2.180899288979957E-11,1.1176265156331174E-11,0.0,1,22.5,22.5,22.5,22.5,16.041,16.041,16.004,1.3070455,0,2324,4.03,12.0,3.009,67,26.8,OK,34,0,0,0,0,0,65,100,0.0,0,0.0,4.38370888E17,2.68E-43,0.0,-1.05007105E-23,62,2.4738434E-11,-2.473855E-11,2.6850064E-36,False,False,0,None,2.79923E31,1.0842106E-19,
141555371,1.062,9.09451027698734,62.69286106773581,15,567.9315,568.1932,0.03854144,0.016507238,-0.9939296,0.99481356,0.9895459,0.030795936,-0.62315357,1.1698161,-445,97,1448,1517.0,0.017816003,0.003849532,0.008877104,0.02027392,0.018227146471712485,-0.018227146471712485,-0.9234599248840413,2.313368034536394,-158.38028717245936,201.61971282754064,1.3184388179911466,2.440471392622801,-0.5157034383159461,-162.69757482291737,0.7670299014044301,0.5206178414217754,-89.62055820166913,-87.12010497471427,32.92,-0.3495484453125073,,9.0945102,62.6928607,20190921,180036,2019-09-21T18:00:36Z,622.041,0.72,1.35,8.69,7,8,15,0.02,0.0,0.01,9.09449925802649,62.69286576131303,120,1564211,48,99,451,3437,3437,4388,4393,175,17543,19,212,17542,0,false,false,false,false,false,false,false,false,false,false,561,569,559,573,46,59,59,47,1310,1320,1316,1313,1302,1302,1302,1302,0.1,0.1,0.1,0.1,1580.3,1573.6,1574.2,1580.9,7.35,6.89,7.48,7.02,0,0,0,0,-71.56505117707798,9.094510190897513,62.69286059403832,0,567.9315,568.092,0.039479923,0.014264521,-0.99546236,0.99634707,0.39802012,-0.20757982,-0.14895213,0.47296524,-448,100,1442,1513.0,0.0014887135,0.0019605313,-3.9888572E-4,0.0024938046,0.002461696848615178,-0.002461696848615178,-0.8966301365950992,2.2411794733566177,-159.06369905692205,200.93630094307795,1.2125915109043477,2.5872417517219115,-0.5945994554390186,-162.61118835087842,0.8007319171570229,0.5009152682096002,-107.17969658192015,-104.6792433549653,32.89,NONE,0.0,0.0,0.0,NONE,2.180899288979957E-11,1.1176265156331174E-11,0.0,1,22.5,22.5,22.5,22.5,16.041,16.041,16.004,1.3070455,0,2324,4.03,12.0,3.009,67,26.8,OK,34,0,0,0,0,0,65,100,0.0,0,0.0,4.38370888E17,2.68E-43,0.0,-1.05007105E-23,62,2.4738434E-11,-2.473855E-11,2.6850064E-36,False,False,0,None,2.79923E31,1.0842106E-19,
141693617,1.097,9.09451027698734,62.69286106773581,15,567.9315,568.1932,0.03854144,0.016507238,-0.9939296,0.99481356,0.9895459,0.030795936,-0.62315357,1.1698161,-445,97,1448,1517.0,0.017816003,0.003849532,0.008877104,0.02027392,0.018227146471712485,-0.018227146471712485,-0.9234599248840413,2.313368034536394,-158.38028717245936,201.61971282754064,1.3184388179911466,2.440471392622801,-0.5157034383159461,-162.69757482291737,0.7670299014044301,0.5206178414217754,-89.62055820166913,-87.12010497471427,32.92,-0.3495484453125073,,9.0945102,62.6928607,20190921,180036,2019-09-21T18:00:36Z,622.041,0.72,1.35,8.69,7,8,15,0.02,0.0,0.01,9.09449925802649,62.69286576131303,120,1564211,48,99,451,3437,3437,4388,4393,175,17543,19,212,17542,0,false,false,false,false,false,false,false,false,false,false,1895,1568,1758,1717,47,61,61,47,1259,1269,1266,1262,1252,1252,1252,1252,0.0,0.0,0.0,0.0,1582.2,1577.3,1576.7,1582.2,4.6,4.21,4.79,4.28,0,0,0,0,-87.59739053101396,9.094510190897513,62.69286059403832,0,567.9315,568.092,0.039479923,0.014264521,-0.99546236,0.99634707,0.39802012,-0.20757982,-0.14895213,0.47296524,-448,100,1442,1513.0,0.0014887135,0.0019605313,-3.9888572E-4,0.0024938046,0.002461696848615178,-0.002461696848615178,-0.8966301365950992,2.2411794733566177,-159.06369905692205,200.93630094307795,1.2125915109043477,2.5872417517219115,-0.5945994554390186,-162.61118835087842,0.8007319171570229,0.5009152682096002,-107.17969658192015,-104.6792433549653,32.89,NONE,0.0,0.0,0.0,NONE,2.180899288979957E-11,1.1176265156331174E-11,0.0,1,22.5,22.5,22.5,22.5,16.041,16.041,16.004,1.3070455,0,2324,4.03,12.0,3.009,67,26.8,OK,34,0,0,0,0,0,65,100,0.0,0,0.0,4.38370888E17,2.68E-43,0.0,-1.05007105E-23,62,2.4738434E-11,-2.473855E-11,2.6850064E-36,False,False,0,None,2.79923E31,1.0842106E-19,
141833747,1.134,9.094510244983962,62.692861069238866,15,567.9315,568.19244,0.045022886,0.005349583,-0.9951415,0.99617386,1.801488,1.3680965,-1.4377798,2.6803467,-439,94,1448,1516.0,0.021044042,0.0015012564,0.0067134537,0.022139918,0.021097523188440673,0.02396345686754609,-0.9079296256222872,2.320015729492114,-158.27651449544018,201.72348550455982,1.2156061335413157,2.5797333035793506,-0.4459040627490476,-162.89981518740652,0.7657204491488018,0.5222589244415652,-86.65516260989902,-84.15470938294416,32.97,-0.3495484453125073,,9.0945099,62.6928607,20190921,180036,2019-09-21T18:00:36Z,622.065,0.72,1.35,8.67,7,8,15,0.0,-0.01,0.01,9.09449925802649,62.69286576131303,120,1564211,48,99,451,3437,3437,4388,4393,175,17543,19,212,17542,0,false,false,false,false,false,false,false,false,false,false,1895,1568,1758,1717,47,61,61,47,1259,1269,1266,1262,1252,1252,1252,1252,0.0,0.0,0.0,0.0,1582.2,1577.3,1576.7,1582.2,4.6,4.21,4.79,4.28,0,0,0,0,-87.59739053101396,9.094510190897513,62.69286059403832,0,567.9315,568.092,0.039479923,0.014264521,-0.99546236,0.99634707,0.39802012,-0.20757982,-0.14895213,0.47296524,-448,100,1442,1513.0,0.0014887135,0.0019605313,-3.9888572E-4,0.0024938046,0.002461696848615178,-0.002461696848615178,-0.8966301365950992,2.2411794733566177,-159.06369905692205,200.93630094307795,1.2125915109043477,2.5872417517219115,-0.5945994554390186,-162.61118835087842,0.8007319171570229,0.5009152682096002,-107.17969658192015,-104.6792433549653,32.89,NONE,0.0,0.0,0.0,NONE,2.180899288979957E-11,1.1176265156331174E-11,0.0,1,16.25,16.25,16.25,16.25,15.965,15.965,15.995,1.3070455,0,2324,4.03,12.0,3.009,67,26.8,OK,34,0,0,0,0,0,65,100,0.0,0,0.0,3.09853372E16,2.68E-43,0.0,-1.05007105E-23,62,2.4738434E-11,-2.473855E-11,2.6558027E-36,False,False,0,None,2.7268105E31,1.0842106E-19,
141996988,1.176,9.094510244983962,62.692861069238866,15,567.9315,568.19244,0.045022886,0.005349583,-0.9951415,0.99617386,1.801488,1.3680965,-1.4377798,2.6803467,-439,94,1448,1516.0,0.021044042,0.0015012564,0.0067134537,0.022139918,0.021097523188440673,-0.021097523188440673,-0.9079296256222872,2.320015729492114,-158.27651449544018,201.72348550455982,1.2156061335413157,2.5797333035793506,-0.4459040627490476,-162.89981518740652,0.7657204491488018,0.5222589244415652,-86.65516260989902,-84.15470938294416,32.97,-0.3495484453125073,,9.0945099,62.6928607,20190921,180036,2019-09-21T18:00:36Z,622.065,0.72,1.35,8.67,7,8,15,0.0,-0.01,0.01,9.09449925802649,62.69286576131303,120,1564211,48,99,451,3437,3437,4388,4393,175,17543,19,212,17542,0,false,false,false,false,false,false,false,false,false,false,1895,1568,1758,1717,47,61,61,47,1259,1269,1266,1262,1252,1252,1252,1252,0.0,0.0,0.0,0.0,1582.2,1577.3,1576.7,1582.2,4.6,4.21,4.79,4.28,0,0,0,0,-87.59739053101396,9.094510190897513,62.69286059403832,0,567.9315,568.092,0.039479923,0.014264521,-0.99546236,0.99634707,0.39802012,-0.20757982,-0.14895213,0.47296524,-448,100,1442,1513.0,0.0014887135,0.0019605313,-3.9888572E-4,0.0024938046,0.002461696848615178,-0.002461696848615178,-0.8966301365950992,2.2411794733566177,-159.06369905692205,200.93630094307795,1.2125915109043477,2.5872417517219115,-0.5945994554390186,-162.61118835087842,0.8007319171570229,0.5009152682096002,-107.17969658192015,-104.6792433549653,32.89,NONE,0.0,0.0,0.0,NONE,2.180899288979957E-11,1.1176265156331174E-11,0.0,1,16.25,16.25,16.25,16.25,15.965,15.965,15.995,1.3070455,0,2324,4.03,12.0,3.009,67,26.8,OK,34,0,0,0,0,0,65,100,0.0,0,0.0,3.09853372E16,2.68E-43,0.0,-1.05007105E-23,62,2.4738434E-11,-2.473855E-11,2.6558027E-36,False,False,0,None,2.7268105E31,1.0842106E-19,
142131289,1.211,9.094510244983962,62.692861069238866,15,567.9315,568.19244,0.045022886,0.005349583,-0.9951415,0.99617386,1.801488,1.3680965,-1.4377798,2.6803467,-439,94,1448,1516.0,0.021044042,0.0015012564,0.0067134537,0.022139918,0.021097523188440673,-0.021097523188440673,-0.9079296256222872,2.320015729492114,-158.27651449544018,201.72348550455982,1.2156061335413157,2.5797333035793506,-0.4459040627490476,-162.89981518740652,0.7657204491488018,0.5222589244415652,-86.65516260989902,-84.15470938294416,32.97,-0.3495484453125073,,9.0945099,62.6928607,20190921,180036,2019-09-21T18:00:36Z,622.065,0.72,1.35,8.67,7,8,15,0.0,-0.01,0.01,9.09449925802649,62.69286576131303,120,1564211,48,99,451,3437,3437,4388,4393,175,17543,19,212,17542,0,false,false,false,false,false,false,false,false,false,false,1895,1568,1758,1717,47,61,61,47,1259,1269,1266,1262,1252,1252,1252,1252,0.0,0.0,0.0,0.0,1582.2,1577.3,1576.7,1582.2,4.6,4.21,4.79,4.28,0,0,0,0,-87.59739053101396,9.094510190897513,62.69286059403832,0,567.9315,568.092,0.039479923,0.014264521,-0.99546236,0.99634707,0.39802012,-0.20757982,-0.14895213,0.47296524,-448,100,1442,1513.0,0.0014887135,0.0019605313,-3.9888572E-4,0.0024938046,0.002461696848615178,-0.002461696848615178,-0.8966301365950992,2.2411794733566177,-159.06369905692205,200.93630094307795,1.2125915109043477,2.5872417517219115,-0.5945994554390186,-162.61118835087842,0.8007319171570229,0.5009152682096002,-107.17969658192015,-104.6792433549653,32.89,NONE,0.0,0.0,0.0,NONE,1.2005887050422085E-10,2.128175041744499E-11,0.0,1,10.0,10.0,10.0,10.0,15.965,15.965,15.995,1.3070455,0,2324,4.03,12.0,3.009,67,26.8,OK,34,0,0,0,0,0,65,100,0.0,0,0.0,3.09853372E16,2.68E-43,0.0,-1.05007105E-23,62,2.4738434E-11,-2.473855E-11,2.6558027E-36,False,False,0,None,2.7268105E31,1.0842106E-19,
142307745,1.257,9.094510217107194,62.692861070840436,15,567.9315,568.1922,0.050384495,0.017616637,-0.992236,0.9936706,0.626919,1.2992198,-0.57067424,1.5513442,-451,100,1467,1538.0,0.007139095,0.005276728,0.008729901,0.012450771,0.008877530004465124,0.022372981498067455,-0.9008359023625844,2.274115047596565,-158.39049695257867,201.60950304742133,1.1153716060757728,2.700926128150446,-0.3127881480176299,-162.59353961540523,0.7645587097747566,0.5236920767813242,-85.36228975038026,-82.8618365234254,33.0,-0.3495484453125073,,9.0945099,62.6928607,20190921,180036,2019-09-21T18:00:36Z,622.065,0.72,1.35,8.67,7,8,15,0.0,-0.01,0.01,9.09449925802649,62.69286576131303,120,1564211,48,99,451,3437,3437,4388,4393,175,17543,19,212,17542,0,false,false,false,false,false,false,false,false,false,false,1895,1568,1758,1717,47,61,61,47,1259,1269,1266,1262,1252,1252,1252,1252,0.0,0.0,0.0,0.0,1582.2,1577.3,1576.7,1582.2,4.6,4.21,4.79,4.28,0,0,0,0,-87.59739053101396,9.094510190897513,62.69286059403832,0,567.9315,568.092,0.039479923,0.014264521,-0.99546236,0.99634707,0.39802012,-0.20757982,-0.14895213,0.47296524,-448,100,1442,1513.0,0.0014887135,0.0019605313,-3.9888572E-4,0.0024938046,0.002461696848615178,-0.002461696848615178,-0.8966301365950992,2.2411794733566177,-159.06369905692205,200.93630094307795,1.2125915109043477,2.5872417517219115,-0.5945994554390186,-162.61118835087842,0.8007319171570229,0.5009152682096002,-107.17969658192015,-104.6792433549653,32.89,NONE,0.0,0.0,0.0,NONE,1.2005887050422085E-10,2.128175041744499E-11,0.0,1,10.0,10.0,10.0,10.0,15.965,15.965,15.995,1.3070455,0,2324,4.03,12.0,3.009,67,26.8,OK,34,0,0,0,0,0,65,100,0.0,0,0.0,3.09853372E16,2.68E-43,0.0,-1.05007105E-23,62,2.4738434E-11,-2.473855E-11,2.6558027E-36,False,False,0,None,2.7268105E31,1.0842106E-19,
