Tick#,offsetTime,IMU_ATTI(0):Longitude,IMU_ATTI(0):Latitude,IMU_ATTI(0):numSats,IMU_ATTI(0):barometer:Raw,IMU_ATTI(0):barometer:Smooth,IMU_ATTI(0):accel:X,IMU_ATTI(0):accel:Y,IMU_ATTI(0):accel:Z,IMU_ATTI(0):accel:Composite,IMU_ATTI(0):gyro:X,IMU_ATTI(0):gyro:Y,IMU_ATTI(0):gyro:Z,IMU_ATTI(0):gyro:Composite,IMU_ATTI(0):mag:X,IMU_ATTI(0):mag:Y,IMU_ATTI(0):mag:Z,IMU_ATTI(0):mag:Mod,IMU_ATTI(0):velN,IMU_ATTI(0):velE,IMU_ATTI(0):velD,IMU_ATTI(0):velComposite,IMU_ATTI(0):velH,IMU_ATTI(0):GPS-H,IMU_ATTI(0):roll,IMU_ATTI(0):pitch,IMU_ATTI(0):yaw,IMU_ATTI(0):yaw360,IMU_ATTI(0):totalGyro:Z,IMU_ATTI(0):totalGyro:X,IMU_ATTI(0):totalGyro:Y,IMU_ATTI(0):magYaw,IMU_ATTI(0):distanceHP,IMU_ATTI(0):distanceTravelled,IMU_ATTI(0):directionOfTravel[mag],IMU_ATTI(0):directionOfTravel[true],IMU_ATTI(0):temperature,General:relativeHeight,General:absoluteHeight,GPS(0):Long,GPS(0):Lat,GPS(0):Date,GPS(0):Time,GPS:dateTimeStamp,GPS(0):heightMSL,GPS(0):hDOP,GPS(0):pDOP,GPS(0):sAcc,GPS(0):numGPS,GPS(0):numGLNAS,GPS(0):numSV,GPS(0):velN,GPS(0):velE,GPS(0):velD,RC:Aileron,RC:Elevator,RC:Rudder,RC:Throttle,Controller:navHealth,Controller:ctrl_level,HP:Longitude,HP:Latitude,HP:rthHeight,BatBlackBox:tick,BatBlackBox:id,BatBlackBox:rsoc,BatBlackBox:index,BatBlackBox:rm,BatBlackBox:fcc,BatBlackBox:cell_min,BatBlackBox:cell_max,BatBlackBox:current,BatBlackBox:voltage,BatBlackBox:temp,BatBlackBox:flag,BatBlackBox:reserve,BatBlackBox:user_data,OA:avoidObst,OA:emergBrake,OA:radiusLimit,OA:airportLimit,OA:groundForceLanding,OA:horizNearBoundary,OA:vertLowLimit,OA:vertAirportLimit,OA:roofLimit,OA:hitGroundLimit,Motor:Speed:RFront,Motor:Speed:LFront,Motor:Speed:LBack,Motor:Speed:RBack,Motor:EscTemp:RFront,Motor:EscTemp:LFront,Motor:EscTemp:LBack,Motor:EscTemp:RBack,Motor:PPMrecv:RFront,Motor:PPMrecv:LFront,Motor:PPMrecv:LBack,Motor:PPMrecv:RBack,Motor:PPMsend:RFront,Motor:PPMsend:LFront,Motor:PPMsend:LBack,Motor:PPMsend:RBack,Motor:V_out:RFront,Motor:V_out:LFront,Motor:V_out:LBack,Motor:V_out:RBack,Motor:Volts:RFront,Motor:Volts:LFront,Motor:Volts:LBack,Motor:Volts:RBack,Motor:Current:RFront,Motor:Current:LFront,Motor:Current:LBack,Motor:Current:RBack,Motor:Status:RFront,Motor:Status:LFront,Motor:Status:LBack,Motor:Status:RBack,Motor:thrustAngle,IMU_ATTI(1):Longitude,IMU_ATTI(1):Latitude,IMU_ATTI(1):numSats,IMU_ATTI(1):barometer:Raw,IMU_ATTI(1):barometer:Smooth,IMU_ATTI(1):accel:X,IMU_ATTI(1):accel:Y,IMU_ATTI(1):accel:Z,IMU_ATTI(1):accel:Composite,IMU_ATTI(1):gyro:X,IMU_ATTI(1):gyro:Y,IMU_ATTI(1):gyro:Z,IMU_ATTI(1):gyro:Composite,IMU_ATTI(1):mag:X,IMU_ATTI(1):mag:Y,IMU_ATTI(1):mag:Z,IMU_ATTI(1):mag:Mod,IMU_ATTI(1):velN,IMU_ATTI(1):velE,IMU_ATTI(1):velD,IMU_ATTI(1):velComposite,IMU_ATTI(1):velH,IMU_ATTI(1):GPS-H,IMU_ATTI(1):roll,IMU_ATTI(1):pitch,IMU_ATTI(1):yaw,IMU_ATTI(1):yaw360,IMU_ATTI(1):totalGyro:Z,IMU_ATTI(1):totalGyro:X,IMU_ATTI(1):totalGyro:Y,IMU_ATTI(1):magYaw,IMU_ATTI(1):distanceHP,IMU_ATTI(1):distanceTravelled,IMU_ATTI(1):directionOfTravel[mag],IMU_ATTI(1):directionOfTravel[true],IMU_ATTI(1):temperature,IMUEX(0):err,IMUEX(0):rtk_Longitude,IMUEX(0):rtk_Latitude,IMUEX(0):rtk_Alti,IMUEX(1):err,IMUEX(1):rtk_Longitude,IMUEX(1):rtk_Latitude,IMUEX(1):rtk_Alti,MotorCtrl:Status,MotorCtrl:PWM:RFront,MotorCtrl:PWM:LFront,MotorCtrl:PWM:LBack,MotorCtrl:PWM:RBack,BattInfo:Voltage,BattInfo:BatVoltage,BattInfo:AdVoltage,BattInfo:AvgCurrent,BattInfo:R_time,BattInfo:R_CAP_MAH,BattInfo:LowCellVoltage,BattInfo:LowCellVolThreshold,BattInfo:BatCurrent,BattInfo:Remaining%,BattInfo:Temp,BattInfo:status,battery_info:BatDynCnt,battery_info:Vol1Protect,battery_info:Vol2Protect,battery_info:Cap1Protect,battery_info:Cap2Protect,battery_info:Batpresent,battery_info:sopPercentage,battery_info:sopValue,battery_info:sopScale,battery_info:sopFlg,BattInfo:WindHeading:WindDir,battery_info:home_dir,BattInfo:Wind:rangeMin,BattInfo:Wind:rangeMax,battery_info:cap_speed,battery_info:against_wind,battery_info:emergency_land_cap,battery_info:intel_bat_land_cap,battery_info:intel_bat_gh_cap,BattInfo:Smart:SmartGh,BattInfo:Smart:SmartLand,BattInfo:GoHome:CntDown,BattInfo:GoHome:GhCmd,BattInfo:GoHome:CapLevel,BattInfo:GoHome:LandCapLv,Attribute|Value,ConvertDatV3,3.6.6-Tablet
246181017,.000,10.405537756852443,63.41959804501043,11,50.729897,50.97336,0.07161763,-0.02273373,-0.985544,0.9884043,0.4459847,0.078476064,0.07705862,0.45934612,-442,-107,1422,1492.0,-0.0032327496,0.0014219215,0.009081621,0.009744145,0.003531646955139456,-0.003531646955139456,1.2419768625786658,4.144028341077906,175.89750943313513,175.89750943313516,-595.0923635123786,-429.22685683690383,-123.020581252012,157.836553204229,1.4730436577032762,21.94891657761505,-47.755621210446535,-44.59756939147993,37.48,-1.3586314545898404,,10.4055376,63.4195977,20190906,71308,2019-09-06T07:13:08Z,35.231,0.9,1.68,12.59,7,4,11,0.01,-0.01,0.01,-9998,-9998,9994,-9886,4,4,10.405543749290569,63.41961101821535,120,10283538,114,99,415,3517,3517,4376,4392,259,17586,28,3498,17570,0,false,false,false,false,false,false,false,false,false,false,0,0,0,0,41,52,51,42,943,944,944,944,940,940,940,940,0.0,0.0,0.0,0.0,1714.6,1707.9,1708.5,1714.6,0.0,0.0,0.0,0.0,0,0,0,0,-45.0,10.405537360366012,63.41959739309603,0,50.727257,50.83175,0.07188222,-0.022774566,-0.9857586,0.98863834,0.4179281,0.037188847,0.069695346,0.42532852,-442,-107,1422,1492.0,-1.528495E-4,2.2413832E-4,2.3185767E-4,3.5687382E-4,2.712949653365451E-4,-2.712949653365451E-4,1.5168043226972847,3.715293528066636,177.90156129649762,177.90156129649768,-597.8207905092615,-430.5433982580536,-124.66742891879169,157.50235278627827,1.5480326490974492,7104272.397236372,138.55013780762835,141.70818962659496,37.48,NONE,0.0,0.0,0.0,NONE,4.7864968915540175E-12,-4.069293587790363E-11,0.0,,,,,,17.235,17.235,6.16,1.3021005,0,3464,4.297,12.0,1.29,99,20.2,OK,59,0,0,0,0,0,65,100,0.0,0,0.0,3.55021997E14,8.7E-44,0.0,-1.05007105E-23,62,3.026841E-10,-3.0268596E-10,2.8316637E-34,False,False,0,None,4.0651178E33,1.0842106E-19,Firmware Date| Oct 17 2018
250035010,1.002,10.4055373983283,63.419597719134366,11,50.762398,50.977978,0.069285646,-0.025698032,-0.9861569,0.98892176,1.0850813,0.138144,-0.49689925,1.2014134,-439,-113,1422,1492.0,0.0019365854,0.0086232405,0.0063044154,0.010856164,0.008838022561036909,0.03148454316535276,1.2381820573340545,4.135762706869524,175.8462457552896,175.8462457552896,-595.1589865573283,-428.7865932525978,-122.91147777652601,156.81374908322695,1.5121739106097853,22.002737364929725,-166.25292312477782,-163.0948713058112,37.78,-0.5042072338867172,,10.4055373,63.4195972,20190906,71309,2019-09-06T07:13:09Z,35.312,0.9,1.68,12.41,7,4,11,0.01,0.0,0.01,0,0,0,0,4,4,10.405543749290569,63.41961101821535,120,10283930,48,99,416,3522,3522,4382,4396,170,17578,28,212,17579,0,false,false,false,false,false,false,false,false,false,false,541,538,522,555,45,57,57,46,1339,1349,1345,1343,1332,1332,1332,1332,0.1,0.1,0.1,0.1,1666.8,1660.0,1659.4,1665.6,8.03,7.56,8.21,7.76,0,0,0,0,-93.17983011986422,10.405536886989657,63.41959697222084,0,50.762398,50.821682,0.07003387,-0.026283573,-0.9858262,0.9886601,0.49898565,0.51986814,-0.5974525,0.93605506,-439,-113,1422,1492.0,-0.0058356444,0.003525366,0.01235729,0.014113312,0.006817840565995114,0.045488305799603626,1.4501277818840632,3.7720971762689732,177.8983855938273,177.89838559382724,-597.9844049583586,-430.13608737282175,-124.40390691480124,156.6310996790265,1.5987274148623223,7104272.492058609,-177.54481037394385,-174.38675855497723,37.76,NONE,0.0,0.0,0.0,NONE,3.3236237236279845E-10,-2.7735448444602463E-10,6.1035156E-5,1,22.5,22.5,22.5,22.5,17.212,17.212,5.987,1.3023611,0,3463,4.296,12.0,1.328,99,20.2,OK,60,0,0,0,0,0,65,100,0.0,0,0.0,2.72882293E16,8.7E-44,0.0,-1.05007105E-23,62,3.026841E-10,-3.0268596E-10,3.3347753E-34,False,False,0,None,5.409065E33,1.0842106E-19,ACType|MavicEnterprise
253922318,2.012,10.405537065119061,63.419596851483114,11,50.762398,50.97397,0.06767864,-0.020114891,-0.98877364,0.9912912,0.43246505,-0.6429065,-2.6670413,2.7773123,-439,-110,1422,1492.0,-0.011386512,-0.0094063375,0.00601446,0.015946962,0.01476928709833984,0.08212575835260272,1.254340949859594,4.092631599854424,175.8055371024889,175.80553710248887,-595.3562641790758,-428.0357901198338,-123.43583252710769,157.25603399057115,1.609991592957488,22.102599089082837,153.54038003963186,156.69843185859847,38.07,-0.5042072338867172,,10.4055373,63.4195966,20190906,71311,2019-09-06T07:13:11Z,35.362,0.9,1.68,12.24,7,4,11,-0.01,0.0,0.01,0,0,0,0,4,4,10.405543749290569,63.41961101821535,120,10283930,48,99,417,3522,3522,4382,4396,170,17578,28,212,17579,0,false,false,false,false,false,false,false,false,false,false,2089,2049,2128,2145,45,58,57,45,1204,1206,1207,1212,1200,1200,1205,1206,0.0,0.0,0.0,0.0,1704.8,1697.5,1698.1,1704.2,0.7,0.27,0.78,0.4,0,0,0,0,-22.890551656248306,10.405536622067643,63.419596425919,0,50.762398,50.724773,0.06943524,-0.02337151,-0.9860143,0.98873234,0.8859544,-2.2283697,-2.1153262,3.197679,-439,-110,1422,1492.0,-0.047616716,0.012991889,0.072622314,0.08780741,0.04935727692036675,0.012168977584965116,1.394874114035285,3.7730294206197614,177.91592062844697,177.915920628447,-598.9832660375492,-429.25487655649,-124.25241714890166,157.243363614005,1.6608869454324526,7104272.565779334,-171.0884354773423,-167.9303836583757,38.08,NONE,0.0,0.0,0.0,NONE,1.2307279878076456E-9,-1.8783002748279817E-9,3.1280518E-4,2,10.25,10.0,10.36,10.58,16.882,16.882,6.127,1.3855838,0,3463,4.296,12.0,5.399,99,20.2,OK,61,0,0,0,0,0,65,100,0.0,0,0.0,2.92868666E15,8.7E-44,0.0,-1.05007105E-23,62,3.026841E-10,-3.0268596E-10,4.550252E-34,False,False,0,None,9.6639344E33,1.0842106E-19,dateTime|2015-10-18 0:0:6 GMT
257777348,3.014,10.405537299544118,63.41959642826192,11,50.762398,50.97339,0.07110319,-0.018282607,-0.983391,0.9861277,1.2828453,2.6446915,-3.657557,4.6923137,-442,-110,1425,1496.0,-0.019028282,7.3876325E-4,0.0044916524,0.01956518,0.019042617996360083,0.029349112924310236,1.2470506362608194,4.073552659214094,175.71322994542413,175.71322994542413,-594.949231506893,-427.969317642708,-123.49223094497974,157.46885365315825,1.6537624160924687,22.160743102229922,177.4481731105295,-179.3937750705039,38.4,-0.5042072338867172,,10.4055374,63.4195961,20190906,71312,2019-09-06T07:13:12Z,35.389,0.9,1.69,12.12,7,4,11,0.0,-0.01,0.01,0,0,0,0,4,4,10.405543749290569,63.41961101821535,120,10283930,48,99,418,3522,3522,4382,4396,170,17578,28,212,17579,0,false,false,false,false,false,false,false,false,false,false,2086,2058,2152,2131,47,58,57,46,1204,1206,1210,1209,1200,1200,1206,1208,0.0,0.0,0.0,0.0,1706.1,1697.5,1698.7,1704.8,0.68,0.28,0.78,0.44,0,0,0,0,-2.8829634525395704,10.405536818062401,63.419595768223225,0,50.762398,50.685795,0.069397606,-0.024362952,-0.98611206,0.98885113,-1.2091817,-0.72965795,-1.527609,2.080411,-442,-110,1425,1496.0,-0.047059074,0.008481121,0.06524003,0.08088725,0.04781721303031865,0.02582222207360127,1.3685820758181755,3.8161440126838886,177.90338294128287,177.90338294128287,-599.170140947507,-428.7538361056117,-123.9961656103385,157.425545925811,1.730433654352479,7104272.643965925,176.97537725079735,-179.86657093023604,38.41,NONE,0.0,0.0,0.0,NONE,7.745149993748934E-10,-2.1181744473142113E-9,3.2806396E-4,2,10.29,10.0,10.87,11.05,17.107,17.107,6.13,1.6212085,0,3461,4.177,12.0,2.491,99,20.3,OK,62,0,0,0,0,0,65,100,0.0,0,0.0,1.11484928E8,8.7E-44,0.0,-1.05007105E-23,62,3.026841E-10,-3.0268596E-10,6.260831E-34,False,False,0,None,1.7344946E34,1.0842106E-19,geoDeclination|316 degrees
261690758,4.031,10.405538033034482,63.419596029530894,11,50.762398,50.972607,0.07125733,-0.020525716,-0.98633224,0.98911583,4.121519,1.5881457,-4.6668987,6.4256573,-436,-113,1440,1508.0,-0.01659824,0.007392149,0.001691039,0.018248426,0.018169904033603333,0.03829064626574327,1.281427508385234,4.084532277998859,175.61537767516697,175.615377675167,-595.0767373034525,-427.3357208993006,-122.75737417148758,156.41501974215353,1.6907581876168023,22.23202947131456,117.38164790600813,120.53969972497474,38.7,-0.5042072338867172,,10.405538,63.4195957,20190906,71313,2019-09-06T07:13:13Z,35.432,0.9,1.69,12.02,7,4,11,0.0,0.0,0.01,0,0,0,9982,4,4,10.405543749290569,63.41961101821535,120,10283930,48,99,419,3522,3522,4382,4396,170,17578,28,212,17579,0,false,false,false,false,false,false,false,false,false,false,2295,2200,2262,2323,47,59,58,47,1245,1227,1250,1264,1251,1249,1243,1245,0.0,0.0,0.0,0.0,1696.8,1692.6,1692.6,1698.1,1.66,1.08,1.65,1.52,0,0,0,0,-60.01836063115064,10.405537728227914,63.41959559002844,0,50.762398,50.659863,0.07320139,-0.02565423,-0.98059636,0.98365945,1.4263058,3.3356628,0.7162176,3.6978323,-436,-110,1425,1494.0,-0.03661484,0.017937766,0.026316702,0.04852812,0.040772660746706914,0.007827383316452385,1.3499054949154434,3.8370003400311035,177.91227871374062,177.91227871374065,-599.1433620448453,-428.0722661514742,-124.25815331987292,157.10349300582592,1.7414963025365653,7104272.730246916,130.4178462517786,133.5758980707452,38.66,NONE,0.0,0.0,0.0,NONE,1.6034764221470605E-9,-2.639686603978087E-9,5.264282E-4,2,21.07,17.47,21.53,24.24,17.137,17.137,6.114,1.8885123,0,3460,4.271,12.0,1.889,99,20.3,OK,63,0,0,0,0,0,65,100,0.0,0,0.0,1.6829915E-10,8.7E-44,0.0,-1.05007105E-23,62,3.026841E-10,-3.0268596E-10,6.4238723E-34,False,False,0,None,1.8145468E34,1.0842106E-19,geoInclination|7479 degrees
265550494,5.034,10.405537806781698,63.419595366605996,11,51.22213,51.263218,-0.020092692,0.00942809,-0.84426117,0.8445529,-2.696281,-10.670936,0.77810895,11.033777,-365,-161,1431,1485.0,0.035591274,-0.06957099,-0.46328905,0.4698336,0.07814641003494215,-0.003810453992331528,-1.1869049275519428,0.1772275925605133,176.12365132249516,176.1236513224951,-592.7366484001778,-428.85676823837224,-124.87488293610825,159.98739814513925,0.0010639540759153471,22.32772160813046,176.71137980829042,179.86943162725703,39.02,-0.04447517822265468,,10.4055378,63.4195954,20190906,71314,2019-09-06T07:13:14Z,35.77,0.9,1.69,11.91,7,4,11,-0.05,-0.13,-0.34,0,0,0,0,4,4,10.40553779598847,63.41959535834586,120,10283931,19,100,420,3522,3522,4377,4391,85,17582,28,1,17132,0,false,false,false,false,false,false,true,false,false,false,5116,5091,4534,4567,43,55,55,44,1498,1485,1421,1437,1490,1481,1412,1426,0.0,0.0,0.0,0.0,1653.3,1645.9,1646.6,1651.5,4.08,3.26,3.24,2.58,0,0,0,0,-176.99808868769685,10.405537080379391,63.419594916953876,0,51.21949,51.002422,-0.020694327,0.010342463,-0.8455157,0.84583217,-6.6421556,-2.7473795,-3.099052,7.827544,-365,-161,1431,1485.0,0.00938633,-0.12118178,-0.51198786,0.52621734,0.12154475180599045,-0.04031028280175916,-1.3784680585172926,0.11200489199295856,178.37994664213053,178.37994664213056,-598.7581061580375,-433.16435703364476,-129.1171577863042,160.743744432358,0.06063498795597485,7104272.8338978775,-106.79614761567467,-103.63809579670806,39.03,NONE,0.0,0.0,0.0,NONE,-7.598563017169937E-9,8.127878373531955E-10,-0.0033416748,2,43.95,44.83,39.2,38.42,16.991,16.991,5.938,2.0893285,0,3459,4.271,12.0,2.748,99,20.3,OK,64,0,0,0,0,0,65,100,0.0,0,0.0,-0.03847599,8.7E-44,0.0,-1.05007105E-23,62,3.57133E-10,-3.2990685E-10,1.344271E-36,False,False,0,None,2.4847778E29,1.199685E-19,geoIntensity|5185124 nanoTesla
269570272,6.079,10.405537892858497,63.419596559954186,11,51.762913,51.82536,-0.02993929,0.019897215,-0.9466987,0.947381,3.6122983,2.2126706,-53.498383,53.665833,-149,-379,1440,1496.0,-0.059832036,-0.037953276,-0.1780945,0.19167154,0.07085424246384854,0.056225803863932014,-1.4259087118926748,-1.7242696599873883,141.58431489314694,141.58431489314694,-625.2867840769992,-427.99683250734006,-127.3143441783554,119.30275172005959,0.13369965113714846,22.481102573834445,100.46893729539613,103.62698911436274,39.29,0.4963077502441422,,10.4055379,63.419596,20190906,71315,2019-09-06T07:13:15Z,36.423,0.9,1.69,11.75,7,4,11,-0.02,-0.02,-0.55,0,0,-9998,2996,4,4,10.40553779598847,63.41959535834586,120,10283932,114,100,421,3522,3522,4376,4390,0,17523,28,3517,679,0,false,false,false,false,false,false,true,false,false,false,5279,5318,4532,4903,44,57,57,44,1508,1524,1450,1479,1501,1509,1451,1472,0.0,0.0,0.0,0.0,1637.3,1629.4,1630.0,1636.7,4.52,4.15,3.86,3.66,0,0,0,0,-164.05460409907715,10.405537325942346,63.41959612507113,0,51.89234,51.723797,-0.03006556,0.016749494,-0.952157,0.9527788,-7.8639383,5.4737787,-65.24406,65.94385,-149,-379,1440,1496.0,0.029618375,-0.069500394,-0.35731092,0.3652104,0.07554834956630503,0.053568231455846146,-1.4653683591641047,-1.8958912067193268,143.54529318264957,143.54529318264957,-635.9102483996746,-435.7599655987359,-130.91751379141743,119.9220881216046,0.0884054696997391,7104273.039255967,-24.862068989971,-21.70401717100439,39.3,NONE,0.0,0.0,0.0,NONE,-4.1546786284163E-9,4.406616130613851E-9,-0.004749298,2,49.15,49.41,39.41,43.87,16.707,16.707,5.945,2.3516905,0,3457,4.219,12.0,7.623,99,20.3,OK,65,0,0,0,0,0,65,100,0.0,0,0.0,36.94043,9.0E-44,0.0,5.9807744E7,63,7.556764E-10,-4.5667478E-10,1.618383E-36,False,False,0,None,3.467586E29,1.7374186E-19,mcID(SN)|298DG13001W644
273443918,7.086,10.405539519817525,63.41959738449564,11,52.86203,52.95206,-0.044103406,-0.004673133,-0.83435786,0.83553576,-0.80744994,9.546226,-54.001606,54.844833,314,-408,1440,1529.0,0.031390157,0.1093694,-2.4842036,2.486808,0.11378491588256638,0.007701959312013465,2.109268597674551,-3.8433856388365144,81.65447112219346,81.65447112219346,-688.9425426256134,-429.20133896051334,-130.72178077257436,64.69385341648834,0.24107094366603948,22.631165178761336,68.50690867482454,71.66496049379116,39.6,1.5954250292968766,,10.4055403,63.4195976,20190906,71316,2019-09-06T07:13:16Z,37.367,0.9,1.69,11.59,7,4,11,-0.12,-0.13,-0.97,0,12,-9224,5688,4,4,10.40553779598847,63.41959535834586,120,10888732,181,100,422,3455,3517,4355,4369,0,17437,25,58118,3,0,false,false,false,false,false,false,true,false,false,false,5182,5344,4633,4578,45,57,57,45,1481,1477,1436,1400,1534,1520,1360,1319,0.0,0.0,0.0,0.0,1657.6,1650.8,1650.2,1655.8,3.32,2.06,2.6,1.35,0,0,0,0,170.62955450287166,10.405539668043401,63.41959684419305,0,52.962337,52.89884,-0.042848326,-0.004498073,-0.825774,0.82689714,1.170637,-0.18238798,-50.922024,50.935802,314,-408,1440,1529.0,0.055338103,0.07775565,-2.5241594,2.525963,0.09543713761119078,0.0449431969649748,2.112297580104593,-3.990533226556044,83.68843445937,83.68843445937,-690.9099992528287,-430.55386134745436,-132.1486092838576,65.07486019845433,0.18966514572613322,7104273.298298898,50.841313274016926,53.99936509298353,39.61,NONE,0.0,0.0,0.0,NONE,4.170832430443526E-9,2.8902685077663464E-9,-0.012836456,2,45.05,45.14,37.46,37.32,16.545,16.545,5.785,2.8375795,0,3455,4.131,12.0,7.228,99,20.3,OK,66,0,0,0,0,0,65,100,0.0,0,0.0,1.1234569E-10,2.69E-43,0.0,5.9807744E7,63,2.4093652E-9,-8.36682E-10,3.0572277E-36,False,False,0,None,1.1454814E30,2.9564265E-19,mcVer|v3.4.1.6
277298801,8.087,10.405541912893963,63.419597813302396,11,56.42383,55.778538,-0.019103836,-0.020686742,-0.6703221,0.6709133,1.3863854,-1.309158,1.8801714,2.677873,361,-347,1443,1527.0,-0.1811142,-0.15777169,-3.394423,3.4029107,0.240196287035613,-0.11217657150724825,0.943786075418272,0.16818416378013887,62.3371865944402,62.3371865944402,-707.2232045676395,-429.1904827443031,-126.36138435899058,45.42853014167959,0.34128379788311985,22.802408918171718,163.2187083993425,166.3767602183091,39.85,5.157223125000002,,10.405544,63.419598,20190906,71317,2019-09-06T07:13:17Z,40.057,0.9,1.69,11.44,7,4,11,-0.2,-0.11,-2.2,0,0,0,6781,4,4,10.40553779598847,63.41959535834586,120,11144347,80,100,423,3436,3514,4350,4365,0,17416,23,0,3,0,false,false,false,false,false,false,true,false,false,false,4824,5152,4492,4357,44,57,57,44,1452,1477,1408,1402,1444,1460,1389,1396,0.0,0.0,0.0,0.0,1658.8,1651.5,1652.7,1657.0,2.45,2.46,2.52,1.47,0,0,0,0,157.66590618952483,10.405543429197815,63.419597418168294,0,56.407974,55.6865,-0.018791245,-0.020784575,-0.6667615,0.66735,-1.8080034,0.813008,-1.7897923,2.6708078,361,-347,1443,1527.0,0.0034496554,0.027936265,-3.3829195,3.3830366,0.028148446145004738,0.16920187688036986,0.8089616034643248,-0.2592303356842976,64.68130957927809,64.68130957927809,-710.4310763991153,-433.000120564141,-128.9454599702396,46.01972229465965,0.3619609500218522,7104273.541187799,64.52274296797448,67.68079478694109,39.85,NONE,0.0,0.0,0.0,NONE,4.080785309876186E-9,1.0034015316022568E-9,-0.018001556,2,37.9,41.89,33.58,32.88,16.252,16.252,5.85,3.577898,0,3452,4.124,12.0,10.617,99,20.3,OK,67,0,0,0,0,0,65,100,0.0,0,0.0,1.5819126E-27,2.69E-43,0.0,5.9807744E7,63,4.314643E-8,-3.4904282E-9,1.138067E-35,False,False,0,None,1.2404469E31,1.088947E-18,
281200096,9.101,10.405544253685395,63.419597372604734,11,58.30106,57.72166,-0.022112422,-0.036446366,-0.72577554,0.7270264,0.4891494,-0.19028166,1.9931715,2.061118,328,-328,1456,1528.0,-0.030928802,-0.13794261,-0.9394546,0.95003146,0.14136744910008053,-0.016748938727396898,1.8896243856500907,0.7338908786821314,62.51477811119599,62.514778111195994,-708.4231581372369,-427.81191272830995,-126.69127886811361,47.32753752085026,0.391661140271636,22.967551816585488,-131.7227743276894,-128.56472250872278,40.2,7.034454722900392,,10.4055464,63.4195979,20190906,71318,2019-09-06T07:13:18Z,42.288,0.9,1.69,11.3,7,4,11,0.08,0.15,-2.14,0,0,0,4103,4,4,10.40553779598847,63.41959535834586,120,11144368,114,98,424,3436,3514,4349,4364,-14,17416,23,3522,2,0,false,false,false,false,false,false,true,false,false,false,4730,4851,4197,4122,46,58,58,45,1512,1512,1439,1446,1511,1548,1461,1443,0.0,0.0,0.0,0.0,1625.7,1631.8,1630.6,1630.6,5.04,4.0,3.82,3.17,0,0,0,0,171.1719769342152,10.405545634267146,63.4195971199435,0,58.245575,57.554604,-0.022696657,-0.037073642,-0.73835814,0.7396366,-0.34853056,-4.505687,-1.0961912,4.6501966,328,-328,1456,1528.0,0.032564137,-0.10225656,-0.8528423,0.85956776,0.10731647696093699,0.005723209750919125,1.8703372605944002,0.4932723073221764,64.56381175348645,64.56381175348645,-709.4058545000898,-431.28280261218237,-126.0210722641184,47.79320849411142,0.43641879016002466,7104273.694978944,44.86185152224358,48.01990334121019,40.2,NONE,0.0,0.0,0.0,NONE,-8.141074746261446E-9,1.5324087081678222E-9,-0.0059013367,2,61.21,65.43,54.99,52.6,16.53,16.53,5.929,4.4919734,0,3450,4.004,12.0,7.722,99,20.4,OK,68,0,0,0,0,0,65,100,0.0,0,0.0,7.120408E-38,2.69E-43,0.0,5.9807744E7,63,3.2660319E-7,-9.946294E-9,2.559952E-35,False,False,0,None,5.513042E31,2.7519176E-18,
285057342,10.104,10.40554236308237,63.419597594467206,11,60.561306,59.53398,-0.018728629,-0.042633243,-0.5659286,0.5678411,1.8125252,-2.2286527,-1.0555198,3.060435,358,-296,1456,1528.0,-0.025193796,-0.23034343,-1.307419,1.3277941,0.23171711506334308,-0.13471051247560586,2.595126316201166,-0.01401695061167405,62.807053323669926,62.80705332366995,-710.1690843381914,-428.98970049088746,-125.81213674637313,45.3165419173124,0.3368376817534526,23.134242411948417,-112.17078152842782,-109.01272970946121,40.5,9.294700999755861,,10.4055441,63.4195975,20190906,71319,2019-09-06T07:13:19Z,44.169,0.9,1.69,11.21,7,4,11,-0.06,-0.19,-2.11,0,0,0,0,4,4,10.40553779598847,63.41959535834586,120,11148581,114,98,425,3432,3532,4343,4358,-16,17390,27,3514,5,0,false,false,false,false,false,false,false,false,false,false,4260,4630,3837,3780,46,57,57,46,1395,1419,1345,1360,1374,1423,1366,1341,0.0,0.0,0.0,0.0,1664.4,1658.2,1657.0,1663.7,2.51,2.16,1.32,1.78,0,0,0,0,161.45709882340012,10.405543582728233,63.419596821675356,0,60.43704,59.390533,-0.021594938,-0.043001983,-0.5652858,0.5673302,0.07709629,-2.6941102,0.28691816,2.710442,358,-296,1456,1528.0,0.0054274914,-0.18620035,-1.2558776,1.2696174,0.18627942686463866,-0.07921868486049599,2.6367152620045364,-0.6391297064680966,64.6130313059601,64.61303130596013,-707.1540586590013,-427.67190084105954,-129.48172934924875,46.68784081092261,0.3307144314371141,7104273.826113217,-62.610319392401,-59.4522675734344,40.53,NONE,0.0,0.0,0.0,NONE,-1.556656575198531E-8,-1.2796841547975542E-10,-0.012058258,2,34.32,38.34,29.08,29.7,16.358,16.358,5.95,5.415037,0,3448,4.123,12.0,8.678,99,20.4,OK,69,0,0,0,0,0,65,100,0.0,0,0.0,1.7243262E-37,2.69E-43,0.0,5.9807744E7,63,2.12359E-6,-2.5431865E-8,3.1855355E-35,False,False,0,None,7.433335E31,6.369503E-18,
288955102,11.117,10.405538016786334,63.41959762568285,11,61.361393,60.144615,-0.01692646,-0.059478972,-0.9486223,0.9506358,-6.478949,-2.6362593,-2.467866,7.417345,340,-254,1462,1522.0,0.18783095,-0.04146692,-0.27767518,0.33779207,0.19235376438872925,0.021144310767307578,3.8859573349990124,0.12297154053241519,62.970307855639795,62.97030785563982,-709.7877988070181,-426.972765469328,-125.83877460284822,45.77456159318963,0.25235560153585773,23.407802370922802,-73.43996241558901,-70.2819105966224,40.81,10.094787974853517,,10.4055403,63.4195977,20190906,71320,2019-09-06T07:13:20Z,44.858,0.9,1.69,11.09,7,4,11,0.17,-0.08,-1.29,0,0,0,1038,4,4,10.40553779598847,63.41959535834586,120,11166181,114,95,426,3347,3531,4317,4334,-16,17293,29,3532,6,0,false,false,false,false,false,false,false,false,false,false,4931,5253,4435,4294,46,58,59,46,1498,1536,1459,1437,1490,1538,1461,1432,0.0,0.0,0.0,0.0,1628.8,1624.5,1623.2,1628.2,4.44,4.35,4.22,3.32,0,0,0,0,162.34825041399523,10.405539820006531,63.41959683723936,0,60.992104,59.931946,-0.022967277,-0.04968602,-0.79431653,0.79620034,1.6253136,2.7836776,4.375746,5.434856,346,-254,1471,1532.0,0.063321166,-0.13311118,-0.2999824,0.33424184,0.14740472947582464,0.03741119445425714,4.48319637753601,-0.18436832785429108,64.6996892192143,64.69968921921429,-706.7965708893144,-426.10466332397,-129.05432090153107,47.16813358894617,0.19283053963275026,7104274.038426034,-140.34208199745706,-137.18403017849045,40.81,NONE,0.0,0.0,0.0,NONE,-1.2228584458187838E-8,3.789256561337963E-9,-0.0030097961,2,48.78,55.08,44.83,39.19,16.46,16.46,5.899,6.1982965,0,3446,4.002,12.0,6.105,99,20.4,OK,70,0,0,0,0,0,65,100,0.0,0,0.0,1.7047995E-14,2.69E-43,0.0,5.9807744E7,63,3.760506E-6,-3.3849812E-8,2.2238245E-35,False,False,0,None,3.9870335E31,8.512311E-18,
292814387,12.120,10.405533643105844,63.4195978564871,11,62.33005,60.80343,-0.025815362,-0.08017273,-1.2989634,1.3016913,22.328367,10.33578,12.370859,27.53947,423,-274,1450,1535.0,0.13268155,-0.10094121,-1.2458675,1.2569723,0.16671389541422393,0.05174690531000625,3.7686497685238107,-2.008515117793991,63.214294118907496,63.2142941189075,-709.443129354682,-427.7332382494849,-127.47543455634951,44.69484382970558,0.34620204489734296,23.630965459793625,-81.5697559781603,-78.41170415919369,41.16,11.063446422119142,,10.4055357,63.4195981,20190906,71321,2019-09-06T07:13:21Z,45.414,0.9,1.69,11.03,7,4,11,0.16,-0.16,-0.9,0,0,0,6809,4,4,10.40553779598847,63.41959535834586,120,11183981,114,93,427,3248,3518,4291,4308,-15,17188,29,3531,6,0,false,false,false,false,false,false,false,false,false,false,6115,6869,5713,5233,47,57,58,47,1531,1637,1519,1458,1509,1563,1477,1444,0.0,0.0,0.0,0.0,1629.4,1612.9,1612.2,1623.9,3.43,5.04,3.94,2.03,0,0,0,0,148.80527987208305,10.405534910684224,63.41959741235025,0,62.35882,60.617916,-0.026624769,-0.08005365,-1.2786142,1.2813945,-7.0823345,6.176158,-11.4441185,14.807844,423,-274,1450,1535.0,0.06909829,-0.08652156,-1.2800953,1.2848754,0.11072738336581686,0.14100817969432808,3.8816664492928132,-2.4583668399071144,64.8231149572441,64.82311495724412,-706.2444510996532,-425.08195893515204,-130.56431589163017,45.7955868012485,0.2697643704597068,7104274.3106545145,-57.88100587629548,-54.72295405732888,41.13,NONE,0.0,0.0,0.0,NONE,-9.340834346378226E-9,3.021981294582552E-9,-0.0061187744,2,59.39,68.96,54.84,46.85,16.294,16.294,5.744,6.8015156,0,3444,4.118,12.0,8.928,99,20.5,OK,71,0,0,0,0,0,65,100,0.0,0,0.0,2.9851135E-17,9.0E-44,0.0,5.9807744E7,63,6.9000525E-6,-4.632535E-8,3.0292682E-35,False,False,0,None,6.953757E31,1.11582305E-17,
296713711,13.133,10.405531941343842,63.41959907705473,11,62.76091,61.43581,-0.028410101,-0.062294435,-0.9439412,0.94642097,3.561983,-0.6694101,8.467238,9.210319,385,-219,1465,1530.0,0.0751155,-0.038106814,0.015517786,0.08564619,0.0842286648956303,0.07361987905213208,5.350974043694357,-1.198868184832821,63.20549181399482,63.2054918139948,-706.9878322680279,-422.8158258281238,-127.26753399108796,44.98719010016591,0.5058026959575548,23.832876273431037,-112.73031485383542,-109.57226303486881,41.43,11.494305034179689,,10.4055338,63.4195993,20190906,71322,2019-09-06T07:13:22Z,46.187,0.9,1.69,10.91,7,4,11,0.14,0.07,-0.8,0,0,0,0,4,4,10.40553779598847,63.41959535834586,120,11202281,114,90,428,3175,3536,4264,4281,-15,17083,30,3518,6,0,false,false,false,false,false,false,false,false,false,false,5549,5916,4991,4893,47,58,59,47,1553,1584,1471,1475,1536,1597,1484,1458,0.0,0.0,0.0,0.0,1617.7,1611.6,1611.6,1617.7,4.96,4.5,3.65,3.35,0,0,0,0,163.6104596659652,10.405532526087278,63.41959860729903,0,62.76017,61.136993,-0.028354092,-0.06490746,-0.9461808,0.9488283,-10.3645935,-2.374298,-8.11173,13.373939,385,-219,1465,1530.0,0.0056312988,-0.0017163947,0.026177892,0.02683169,0.005887065156920777,0.16988810046708483,5.461377095097299,-1.6529365376106009,64.86896213501517,64.86896213501518,-708.6638207249404,-425.12010729736346,-131.80948117781446,46.14951944127057,0.44638943390162117,7104274.514456844,-55.70249983239903,-52.54444801343242,41.46,NONE,0.0,0.0,0.0,NONE,-3.653886273672039E-9,1.965037283996163E-9,-1.9454956E-4,2,51.29,57.42,45.7,43.49,16.379,16.379,5.834,7.2855525,0,3441,4.106,12.0,8.083,98,20.5,OK,72,0,0,0,0,0,65,100,0.0,0,0.0,7.212684E-20,9.0E-44,0.0,5.9807744E7,63,1.3705343E-5,-6.2477305E-8,6.786461E-35,False,False,0,None,2.9393153E32,1.4680459E-17,
300630633,14.151,10.405539136014285,63.41960103191137,11,63.161037,61.539627,-0.042494114,-0.09109007,-1.0291091,1.0340061,4.227339,0.8325925,-2.777344,5.1261334,775,-251,1324,1554.0,0.8120041,1.323494,-0.0215071,1.5528842,1.552735296285104,-1.1413400786389838,4.182269116965252,-16.97711892013851,63.73917048902472,63.73917048902473,-702.4184040651928,-419.3468156419171,-141.76419872115997,43.85761204597821,0.6343849819544569,24.276622699847653,56.42448367218971,59.582535491156314,41.77,11.894432445068361,,10.4055365,63.4196001,20190906,71323,2019-09-06T07:13:23Z,46.181,0.9,1.69,10.91,7,4,11,0.31,0.6,-0.36,0,9827,0,0,4,4,10.40553779598847,63.41959535834586,120,11220281,114,88,429,3087,3535,4238,4255,-14,16980,31,3536,6,0,false,false,false,false,false,false,false,false,false,false,5425,6044,5002,4862,47,58,58,47,1513,1590,1487,1471,1508,1590,1495,1453,0.0,0.0,0.0,0.0,1620.8,1612.9,1612.9,1619.6,4.02,4.35,3.82,3.2,0,0,0,0,154.69066429056718,10.405540017549875,63.41960052131821,0,63.2358,61.1622,-0.042263076,-0.08972631,-1.0278625,1.0326366,3.7835286,5.4584417,5.4429245,8.586914,775,-251,1324,1554.0,0.66565734,1.3014569,-0.0073493663,1.461829,1.46181041729809,-1.04017900453358,4.414607854314155,-16.991300420207462,65.56281750782131,65.56281750782131,-711.69060150348,-430.00695813727606,-147.27667780593728,44.285984255985056,0.5846401327974675,7104274.975758515,57.70389319021204,60.86194500917865,41.8,NONE,0.0,0.0,0.0,NONE,1.2621681458126523E-7,2.8926205359475518E-8,-3.8146973E-5,2,50.94,57.09,44.28,44.05,16.434,16.434,5.815,7.678107,0,3439,4.109,12.0,8.137,98,20.5,OK,73,0,0,0,0,0,65,100,0.0,0,0.0,375.8125,9.0E-44,0.0,5.9807744E7,63,1.3968907E-5,-6.350867E-8,8.2972653E-35,False,False,0,None,4.4884735E32,1.4899417E-17,
304547258,15.169,10.405563750579905,63.419607119394506,11,63.377464,61.611366,-0.059705075,-0.056049243,-1.0223461,1.0256207,2.872592,-5.557659,10.26239,12.018986,624,-267,1385,1542.0,0.5974191,1.4478593,0.046540458,1.5669627,1.5662713884627066,-0.19159468438823368,5.3778474111943755,-16.697763316093763,83.58236776757823,83.58236776757826,-685.4908598940655,-423.1120303598724,-137.11214490862605,62.189297241438,1.8378971238497874,25.678573381521776,64.58196209481049,67.7400139137771,42.05,12.110859294433595,,10.4055602,63.4196064,20190906,71324,2019-09-06T07:13:24Z,46.189,0.9,1.69,10.83,7,4,11,0.62,0.98,-0.18,0,9998,0,0,4,4,10.40553779598847,63.41959535834586,120,11239181,114,85,430,2992,3536,4211,4227,-15,16875,31,3535,5,0,false,false,false,false,false,false,false,false,false,false,5635,5791,5267,5005,47,59,59,47,1559,1562,1514,1477,1546,1547,1522,1483,0.0,0.0,0.0,0.0,1615.3,1608.5,1607.9,1614.7,5.42,3.69,4.3,2.75,0,0,0,0,160.0886826672649,10.405564247299715,63.41960676145523,0,63.373085,61.16683,-0.061396178,-0.05356088,-1.0208004,1.0240467,4.950491,-7.308316,15.382902,17.735628,624,-267,1385,1542.0,0.54677916,1.5386044,0.064306,1.6341377,1.632871927886458,-0.26638532980389384,5.250961505856074,-17.295449119028508,84.52075325226244,84.52075325226247,-688.7887422227969,-428.7515976002052,-140.85814408227938,63.821170598831166,1.8275089775804014,7104276.374632848,63.415949410802135,66.57400122976874,42.06,NONE,0.0,0.0,0.0,NONE,1.0945028468670416E-7,2.5572858510120783E-8,3.5858154E-4,2,54.58,53.06,48.71,45.33,16.347,16.347,5.807,7.966475,0,3437,4.058,12.0,8.178,98,20.6,OK,74,0,0,0,0,0,65,100,0.0,0,0.0,1.3386402E-24,2.69E-43,0.0,5.9807744E7,63,1.4090212E-5,-6.398161E-8,4.466339E-33,False,False,0,None,6.0314816E35,1.4999367E-17,
308402807,16.171,10.405615326803117,63.419613246146355,11,62.555,61.665226,-0.09712199,-0.05749204,-0.99213535,0.9985342,5.2066255,13.518375,1.8247281,14.600858,615,-315,1382,1545.0,0.66840553,3.5405595,-0.0023326762,3.6031005,3.603099701818238,-0.9534635668291962,4.127349002805164,-15.942711650326288,85.4607203104487,85.46072031044872,-684.4593074772208,-426.77342367164727,-134.70398730046037,62.10670995330033,4.340117569339204,28.336765205718752,74.94770871521062,78.10576053417724,42.26,11.288395305175783,,10.4056028,63.4196122,20190906,71325,2019-09-06T07:13:25Z,46.236,0.9,1.69,10.7,7,4,11,0.76,2.99,-0.11,0,10000,0,0,4,4,10.40553779598847,63.41959535834586,120,11255981,114,83,431,2911,3532,4188,4204,-14,16780,31,3536,6,0,false,false,false,false,false,false,false,false,false,false,5135,5570,5281,5065,46,59,59,47,1506,1541,1508,1501,1506,1523,1494,1493,0.0,0.0,0.0,0.0,1620.8,1613.5,1614.7,1620.2,3.87,3.91,4.36,3.33,0,0,0,0,118.87494716131317,10.405615866420366,63.41961283940852,0,62.579807,61.195744,-0.09770503,-0.05724254,-0.99029917,0.99675244,1.3019127,-10.888365,-3.9162464,11.644245,615,-315,1382,1545.0,0.867543,3.7338092,0.013952989,3.8332958,3.8332704179548784,-1.182958739024207,4.076257870613978,-16.36505610796606,81.59539398019471,81.59539398019473,-686.4049763313378,-427.2299864318741,-139.99979549571165,63.23858896596326,4.343570672271129,7104279.033902666,74.20426080026593,77.36231261923254,42.26,NONE,0.0,0.0,0.0,NONE,3.7135038171061374E-7,3.867482467495773E-8,5.340576E-5,2,46.92,50.49,49.04,46.99,16.34,16.34,5.806,8.170019,0,3434,4.067,12.0,8.299,98,20.6,OK,75,0,0,0,0,0,65,100,0.0,0,0.0,2.809156E-36,2.69E-43,0.0,5.9807744E7,63,1.4336314E-5,-6.4942036E-8,9.054425E-30,False,False,0,None,-1.7999757E-37,1.5203502E-17,
312290620,17.182,10.405701437102229,63.419620569234986,11,61.121407,61.640255,-0.06572894,-0.06009181,-0.92546064,0.9297358,1.6238574,79.80015,-3.2905679,79.88447,-161,-360,1483,1534.0,0.7236266,4.3181524,0.058304563,4.3787527,4.378364577126859,-0.06229030875634489,3.9301938800357017,20.980510573533262,83.04941183961341,83.04941183961341,-690.2146565131277,-427.73521314789133,-94.31963510030857,51.19346255146826,8.610974756106245,32.698221709908104,76.42168028997327,79.57973210893988,42.59,9.854801555175783,,10.4056845,63.419619,20190906,71326,2019-09-06T07:13:26Z,46.324,0.9,1.69,10.65,7,4,11,0.77,4.6,-0.1,0,0,0,0,4,4,10.40553779598847,63.41959535834586,120,11273981,114,80,432,2825,3533,4163,4179,-14,16683,31,3532,5,0,false,false,false,false,false,false,false,false,false,false,4226,4522,4744,4944,47,59,59,46,1389,1398,1520,1523,1409,1457,1510,1476,0.0,0.0,0.0,0.0,1623.2,1620.8,1619.0,1623.9,1.9,2.82,4.2,5.23,0,0,0,0,5.831266462677547,10.405702457264427,63.41962008322158,0,61.174618,61.26663,-0.056469426,-0.06203766,-0.91774577,0.9215719,-6.14413,67.89179,-6.59973,68.487976,-161,-360,1483,1534.0,0.9222374,4.5688715,0.015727367,4.6610465,4.661019973460011,-0.32330869411410124,3.8581362940548547,20.67651297893994,80.02522689040046,80.02522689040046,-686.9529537313093,-425.67877720152944,-98.1029899825925,51.63911702565993,8.641638429598485,7104283.42042451,76.53770042599994,79.69575224496656,42.58,NONE,0.0,0.0,0.0,NONE,4.934490964532693E-7,4.589298970644602E-8,2.3269653E-4,2,42.76,48.71,46.87,47.58,16.299,16.299,5.826,8.296062,0,3432,4.067,12.0,7.68,98,20.6,OK,76,0,0,0,0,0,65,100,0.0,0,0.0,-8.579915E31,2.68E-43,0.0,1.4640026E-27,64,1.5183818E-5,-6.82526E-8,2.4441516E-23,False,False,0,None,-1.3985863E-31,1.5905269E-17,
316139879,18.182,10.405750220513566,63.419624299367534,11,62.783375,61.56626,-0.033595912,-0.05212252,-0.99352473,0.99545807,-5.1612964,-7.4620013,-2.2492855,9.3477125,104,-344,1495,1537.0,0.3112957,1.4125016,0.020307146,1.4465401,1.4463975287441646,1.0149828938753274,3.3580115739767296,3.232244309422286,83.45475385882477,83.4547538588248,-690.6467646557534,-428.89324989403855,-112.77277921692054,66.56129689522419,11.048146176250656,35.16500158379001,68.54688865852692,71.70494047749354,42.88,11.516769786376955,,10.4057513,63.4196243,20190906,71327,2019-09-06T07:13:27Z,46.416,0.9,1.69,10.55,7,4,11,0.15,1.37,-0.08,0,2037,0,0,4,4,10.40553779598847,63.41959535834586,120,11292381,114,78,433,2722,3523,4138,4154,-15,16583,32,3533,5,0,false,false,false,false,false,false,false,false,false,false,5209,5598,4990,4810,48,59,59,48,1510,1559,1487,1453,1508,1545,1464,1451,0.0,0.0,0.0,0.0,1622.6,1615.3,1616.5,1620.2,3.78,3.92,4.07,2.44,0,0,0,0,150.53161093512531,10.405750966026178,63.41962373898955,0,62.828846,61.135174,-0.033361744,-0.046287827,-0.99055344,0.99219537,-1.5875843,-11.264447,-1.1955098,11.43842,104,-344,1495,1537.0,0.2615785,1.5319469,0.0036283643,1.5541228,1.5541186034651522,0.8924122212707306,3.4020898280598186,2.3110340113538266,80.58650050857216,80.58650050857216,-686.7420367591749,-424.53396478303074,-113.59169126981982,69.30122120634928,11.065704561840478,7104285.878711567,79.01214422478932,82.17019604375594,42.88,NONE,0.0,0.0,0.0,NONE,1.5529299622373676E-7,1.1876963756587926E-8,2.2888184E-5,2,46.77,53.43,44.94,40.21,16.351,16.351,5.819,8.35392,0,3430,4.047,12.0,8.381,98,20.6,OK,77,0,0,0,0,0,65,100,0.0,0,0.0,-7.859831E27,2.68E-43,0.0,1.4640026E-27,64,1.3479963E-5,-6.1596914E-8,4.314459E-19,False,False,0,None,-1.05105855E-27,1.4494112E-17,
320001827,19.186,10.405762727302937,63.41962505763701,11,62.903553,61.653667,-0.008034004,-0.03844252,-0.9881306,0.9889108,4.020891,-14.71036,6.054433,16.407877,89,-379,1495,1544.0,-0.08065977,-0.02562627,-0.0036832858,0.08471287,0.0846327603974803,0.5410056175571296,2.633585121428909,3.6053995378112282,83.17875286777738,83.17875286777735,-691.4336676491085,-429.96259508656124,-116.44359979768255,67.89833677473578,11.668425436583167,35.84413770619249,-151.7772983600688,-148.6192465411022,43.32,11.636948009033205,,10.4057636,63.4196252,20190906,71328,2019-09-06T07:13:28Z,46.47,0.9,1.69,10.42,7,4,11,-0.06,0.02,-0.05,0,0,0,0,4,4,10.40553779598847,63.41959535834586,120,11310481,114,75,434,2630,3512,4114,4130,-14,16488,32,3523,5,0,false,false,false,false,false,false,false,false,false,false,5328,5721,4753,4754,48,60,60,48,1524,1565,1455,1450,1513,1555,1452,1443,0.0,0.0,0.0,0.0,1622.0,1615.3,1615.3,1622.0,4.1,4.17,3.58,2.49,0,0,0,0,165.73667079014214,10.405762818116896,63.41962438319351,0,62.966087,61.15245,-0.007870406,-0.036359373,-0.9889695,0.98966897,-10.568309,-6.856564,-9.9152775,16.031668,89,-379,1495,1544.0,-0.03570228,0.16107732,9.026422E-4,0.164989,0.164986534336821,0.42685130563943985,2.4353224304127448,2.6217013751422855,80.68707874157978,80.6870787415798,-687.4387976222804,-425.3527355339409,-112.03256537230989,70.51074382107075,11.651764125592372,7104286.491743133,-175.64042750976608,-172.48237569079947,43.29,NONE,0.0,0.0,0.0,NONE,3.536261493010563E-8,3.5338545057205837E-10,3.0517578E-5,2,48.53,53.22,41.92,41.06,16.288,16.288,5.824,8.360345,0,3428,4.084,12.0,7.446,98,20.7,OK,78,0,0,0,0,0,65,100,0.0,0,0.0,-2.3679079E27,2.68E-43,0.0,1.4640026E-27,64,1.401687E-5,-6.369421E-8,6.5851795E-18,False,False,0,None,-1.2028354E-26,1.4938804E-17,
323898638,20.198,10.405758559324068,63.419624567831995,11,62.816456,61.54664,-0.0077779545,-0.035618395,-1.0781605,1.0787768,3.6669261,-3.0668073,3.9025702,6.171038,263,-405,1468,1545.0,-0.095018715,-0.11460028,0.15708627,0.21642059,0.1488683308337511,0.06283790172234632,1.6351090296012751,-2.1002251982132125,83.39356715763648,83.39356715763648,-686.5501602211314,-425.7281931279535,-121.57402042995997,64.87796278724,11.454116029882348,36.077926192789725,-120.8833575990069,-117.72530578004029,43.61,11.549850841064455,,10.4057592,63.4196244,20190906,71329,2019-09-06T07:13:29Z,46.198,0.9,1.69,10.32,7,4,11,-0.1,-0.19,0.19,0,0,0,0,4,4,10.40553779598847,63.41959535834586,120,11331281,114,73,435,2550,3533,4087,4102,-14,16379,31,3512,7,0,false,false,false,false,false,false,false,false,false,false,5972,6560,5137,5211,49,60,60,49,1552,1645,1492,1473,1540,1623,1479,1460,0.0,0.0,0.0,0.0,1611.6,1600.0,1602.4,1608.5,4.05,5.37,3.66,2.66,0,0,0,0,166.75655563710643,10.405758423334143,63.419623906501414,0,63.12879,60.997208,-0.007938051,-0.04539045,-1.2576388,1.2584827,-15.45709,-9.019889,-3.8839667,18.31298,258,-395,1462,1536.0,-0.05931801,-0.06984521,0.3207123,0.33354664,0.09163503381009461,0.13052244306976213,1.5139855940513542,-2.9974067890231892,80.97607077017543,80.9760707701754,-691.5822455175049,-430.9020528451256,-119.02057447264895,67.25077593396566,11.426981522986372,7104286.742057856,-104.96933004911881,-101.8112782301522,43.6,NONE,0.0,0.0,0.0,NONE,-7.964725465698157E-9,-2.701792460726077E-9,0.0018501282,2,50.52,58.33,42.64,41.93,16.371,16.371,5.769,8.3039255,0,3426,4.05,12.0,7.154,98,20.7,OK,79,0,0,0,0,0,65,100,0.0,0,0.0,-3.0205767E27,2.68E-43,0.0,1.4640026E-27,64,1.1936761E-5,-5.7587624E-8,3.0135453E-18,False,False,0,None,-5.8285974E-27,1.35468635E-17,
327758485,21.202,10.405755492453324,63.41962396676518,11,62.892555,61.62446,-0.002977622,-0.019409932,-0.98694044,0.98713577,25.981945,38.733936,-3.433101,46.767143,-117,-408,1483,1542.0,-0.15174238,-0.4312564,0.013367646,0.45736915,0.4571737572618099,-0.2911120656282832,3.1660030583278624,15.136558054055437,82.63287881472016,82.63287881472013,-685.8916159429112,-421.7907732041913,-105.0368021657903,61.30434246307041,11.288855932044752,36.25566844967914,-102.56217712480372,-99.40412530583711,43.9,11.625950236816408,,10.4057571,63.4196241,20190906,71330,2019-09-06T07:13:30Z,46.173,0.9,1.69,10.18,7,4,11,-0.11,-0.14,0.07,5793,-9253,0,0,4,4,10.40553779598847,63.41959535834586,120,11349181,114,70,436,2449,3530,4065,4079,-14,16291,31,3533,4,0,false,false,false,false,false,false,false,false,false,false,5416,5861,4949,4721,49,62,61,49,1535,1576,1498,1462,1541,1561,1477,1460,0.0,0.0,0.0,0.0,1614.1,1607.3,1609.1,1614.1,4.12,4.63,4.59,2.67,0,0,0,0,157.27641637148574,10.405755338561987,63.41962350761439,0,62.840057,60.95149,-0.00201449,-0.01897278,-0.98737293,0.98755723,37.046043,27.443096,4.5362782,46.326134,-117,-408,1483,1542.0,-0.09889154,-0.32502362,0.034465462,0.34147877,0.3397350246976058,-0.18047613575126714,3.1785125636863967,14.519197712776341,80.23836728683906,80.2383672868391,-694.5639100490489,-430.77137875614966,-97.81364394865776,62.738263146384384,11.267219864098305,7104286.926345283,-103.06590452365947,-99.90785270469286,43.9,NONE,0.0,0.0,0.0,NONE,5.916106146878501E-9,-1.1704554827467893E-9,1.1444092E-5,2,48.9,56.86,46.71,40.71,16.438,16.438,5.811,8.192896,0,3424,4.059,12.0,7.735,98,20.7,OK,80,0,0,0,0,0,65,100,0.0,0,0.0,-2.87067E27,2.68E-43,0.0,1.4640026E-27,64,1.1608237E-5,-5.694552E-8,1.8355872E-18,False,False,0,None,-3.8300183E-27,1.3410703E-17,
331615146,22.204,10.40572882078889,63.41962004661927,11,63.142063,61.694485,-6.286076E-4,-0.046961542,-1.0131737,1.0142616,6.383077,22.439714,1.2272174,23.36216,571,-434,1382,1557.0,-0.33597854,-0.99723935,0.0056569763,1.0523306,1.0523154817790308,0.3412321179923947,0.19572978811867728,-13.291378199474075,83.02426586714542,83.0242658671454,-685.990251936434,-425.00298036174695,-134.66773393498445,61.48824884382141,9.892864356715075,37.65363771961735,-107.74742271643764,-104.58937089747103,44.17,11.875458140869142,,10.4057312,63.4196206,20190906,71331,2019-09-06T07:13:31Z,46.219,0.9,1.69,10.06,7,4,11,-0.58,-1.66,0.04,0,0,0,0,4,4,10.40553779598847,63.41959535834586,120,11364381,114,67,437,2352,3515,4051,4062,-14,16228,31,3530,6,0,false,false,false,false,false,false,false,false,false,false,5561,5885,4834,4670,48,61,61,49,1541,1582,1465,1446,1535,1578,1457,1435,0.0,0.0,0.0,0.0,1615.9,1610.4,1609.8,1615.9,4.24,4.0,3.79,2.7,0,0,0,0,165.8943576082684,10.405728677926358,63.41961952463068,0,63.244167,60.95777,-3.346626E-5,-0.047624048,-1.0096973,1.0108198,7.295558,12.736423,-3.3232849,15.049446,571,-434,1382,1557.0,-0.33006245,-1.0015922,-0.0040349034,1.0545826,1.0545748049962533,0.34064469840264944,0.20312699412689597,-13.820586669360132,80.6708936589118,80.67089365891178,-694.5772623264229,-434.0590178953483,-124.55521557656854,62.8888224108812,9.870075671190197,7104288.332681022,-108.79746436006026,-105.63941254109365,44.21,NONE,0.0,0.0,0.0,NONE,-1.2557843148691675E-7,-1.979494019386557E-8,2.2888184E-5,2,50.88,54.26,44.26,42.85,16.307,16.307,5.8,8.076064,0,3422,4.099,12.0,7.876,98,20.8,OK,81,0,0,0,0,0,65,100,0.0,0,0.0,-1.0544478E27,2.68E-43,0.0,1.4640026E-27,64,1.1682976E-5,-5.709104E-8,1.5466731E-20,False,False,0,None,-4.7576633E-29,1.3441408E-17,
335464695,23.204,10.405718361515738,63.41961883367398,11,62.733948,61.790966,-0.012275384,-0.039550457,-0.9786312,0.979507,77.58834,2.0930328,-10.449447,78.31681,281,-267,1489,1538.0,-0.214566,-0.17612252,4.684031E-4,0.2775931,0.27759270844183076,0.25973871591411485,11.735223442794553,-2.6800639036804323,83.18820557017841,83.18820557017841,-688.5881491225392,-413.39198467156086,-127.39806274864078,69.13624906448871,9.35549104694588,38.20702311212132,-135.67997096164567,-132.52191914267905,44.48,11.467342753906252,,10.4057191,63.4196192,20190906,71332,2019-09-06T07:13:32Z,46.268,0.9,1.69,9.99,7,4,11,-0.09,-0.24,0.03,9993,0,2465,0,4,4,10.40553779598847,63.41959535834586,120,11364877,48,67,438,2350,3515,4050,4061,-14,16226,31,212,5,0,false,false,false,false,false,false,false,false,false,false,5448,5732,5045,4675,47,61,61,48,1562,1576,1484,1463,1562,1548,1463,1463,0.0,0.0,0.0,0.0,1612.2,1606.7,1607.3,1612.2,4.45,4.64,4.44,2.65,0,0,0,0,155.87023517055096,10.40571764266347,63.41961840376997,0,62.823456,60.955772,-0.011753016,-0.03395693,-0.9808604,0.9815184,88.453705,8.119047,10.8516865,89.485954,281,-267,1489,1538.0,-0.15323374,-0.13256712,0.026504967,0.20434561,0.2026194002035449,0.3601322086821636,12.060614695413843,-3.276508145322849,81.0232616025379,81.0232616025379,-694.33433836185,-419.302547833375,-110.17283567182123,70.68991366210128,9.307876833428034,7104288.907340374,-94.21978774148124,-91.06173592251463,44.46,NONE,0.0,0.0,0.0,NONE,-2.3224063158621667E-8,-4.440877293935275E-9,2.670288E-5,2,47.0,56.86,49.04,39.28,16.285,16.285,5.801,7.975784,0,3417,4.064,12.0,7.555,98,20.8,OK,82,0,0,0,0,0,65,100,0.0,0,0.0,-1.6030356E27,2.68E-43,0.0,1.4640026E-27,64,1.1672266E-5,-5.707103E-8,2.1297451E-21,False,False,0,None,-7.936565E-30,1.3437173E-17,
339337954,24.211,10.405716108887948,63.41961608481817,11,62.5095,61.854465,-0.030578792,-0.010574228,-0.9983228,0.99884695,2.0210013,9.384148,14.86653,17.696339,36,-472,1459,1533.0,-0.17170304,-0.06769617,-0.030309275,0.18703839,0.18456626564715983,0.13884474339671204,-0.7494510518123686,-1.3442451835695597,110.16346409983544,110.16346409983544,-659.7003969758752,-421.07240199233246,-124.53801249444572,89.7949202447558,9.166332447253843,38.54438804505386,-133.10135276441773,-129.9433009454511,44.8,11.242893596191408,,10.4057166,63.4196161,20190906,71333,2019-09-06T07:13:33Z,46.248,0.9,1.69,9.91,7,4,11,-0.33,-0.07,0.02,0,0,6139,0,4,4,10.40553779598847,63.41959535834586,120,11364877,48,67,439,2350,3515,4050,4061,-14,16226,31,212,5,0,false,false,false,false,false,false,false,false,false,false,5326,5435,5024,4765,49,61,62,48,1537,1524,1501,1431,1537,1496,1506,1413,0.0,0.0,0.0,0.0,1619.0,1613.5,1613.5,1619.0,4.7,3.46,4.44,2.0,0,0,0,0,159.2632930113166,10.405715160474612,63.419615440378024,0,62.528713,60.942127,-0.030524172,-0.0072263433,-0.9953746,0.99586874,3.5927598,-10.591561,14.512086,18.321838,36,-472,1459,1533.0,-0.20079911,-0.02826899,0.002915953,0.20280018,0.2027792280116616,0.14679614018000248,-1.006896476435885,-1.8288372887429003,107.8266340465985,107.82663404659849,-668.4574486642616,-429.88020246955597,-107.5147002826048,91.39115308903851,9.102825133050912,7104289.282519147,-155.34882636646384,-152.19077454749723,44.82,NONE,0.0,0.0,0.0,NONE,-2.4123921435214413E-9,-1.1258539552892981E-8,1.9073486E-5,2,49.5,50.41,45.62,40.2,16.316,16.316,5.813,7.8874655,0,3415,4.047,12.0,7.722,98,20.8,OK,83,0,0,0,0,0,65,100,0.0,0,0.0,-1.0617946E25,2.68E-43,0.0,1.4640026E-27,64,1.1505326E-5,-5.6744522E-8,9.847394E-22,False,False,0,None,-3.9774305E-30,1.3367928E-17,
343254447,25.229,10.405713738760888,63.4196155514814,11,62.66987,61.867264,-0.025940001,-4.475345E-4,-0.9961229,0.9964607,3.5360718,-7.5102787,4.908361,9.643656,-108,-405,1474,1532.0,-0.10815564,-0.005032487,-0.022690244,0.110624656,0.1082726556427819,0.021405749304747368,-0.8412702755117573,-1.5010372795282119,132.78879969756164,132.78879969756167,-634.9840668349591,-418.84389630124446,-124.66329355145928,110.94596732393408,9.03732802465267,38.68323447824409,-143.7010857103435,-140.5430338913769,45.08,11.403263469238283,,10.4057136,63.419615,20190906,71334,2019-09-06T07:13:34Z,46.142,0.9,1.69,9.85,7,4,11,-0.12,-0.08,0.01,0,0,0,0,4,4,10.40553779598847,63.41959535834586,120,11364877,48,67,440,2350,3515,4050,4061,-14,16226,31,212,5,0,false,false,false,false,false,false,false,false,false,false,5224,5354,4750,4955,48,61,62,48,1517,1518,1457,1495,1504,1519,1453,1475,0.0,0.0,0.0,0.0,1619.6,1614.7,1614.7,1619.6,3.91,3.65,3.54,3.46,0,0,0,0,-175.08973877841743,10.405712445986833,63.41961461964771,0,62.495766,60.92191,-0.024258526,-7.9999445E-4,-0.99529475,0.9955906,-0.22521575,10.826132,-2.5439713,11.123293,-108,-405,1474,1532.0,-0.05600394,0.0134568745,-9.972486E-4,0.057606623,0.05759799160670525,0.10253963252749837,-1.1511601350695602,-1.7169337311865878,130.43845595162054,130.43845595162054,-647.7104534101101,-429.41849078877425,-106.65857958854227,112.09399505742628,8.949677792419797,7104289.466242236,-142.22032363419297,-139.06227181522635,45.06,NONE,0.0,0.0,0.0,NONE,-8.807145731457956E-10,-4.201003547249703E-9,1.5258789E-5,2,46.63,49.97,43.09,44.18,16.298,16.298,5.812,7.8036118,1574,3413,4.057,12.0,7.196,98,20.9,OK,84,0,0,0,0,0,65,100,0.0,0,0.0,-3.328309E24,2.68E-43,0.0,1.4640026E-27,64,1.1273893E-5,-5.6292503E-8,5.8664246E-22,False,False,0,None,-2.4492051E-30,1.3272213E-17,
347138193,26.238,10.405711290288215,63.41961519006677,11,62.735497,61.89638,-0.026215466,0.008709475,-0.99503607,0.99541944,-4.2809863,-7.7131634,-6.0375814,10.689814,-108,-418,1465,1527.0,0.03176614,0.049552582,-0.02414087,0.06361861,0.0588603946181273,0.06822901766780046,-1.8722924270898909,-1.7541489540445137,133.84710995880081,133.84710995880084,-633.9684920801197,-419.33231878623917,-127.69452638068371,112.49545786534134,8.909344870009408,38.83498009534271,-84.07762063596874,-80.91956881700213,45.41,11.468891520996095,,10.4057115,63.4196149,20190906,71335,2019-09-06T07:13:35Z,46.059,0.9,1.69,9.86,7,4,11,0.01,-0.02,-0.02,0,0,0,0,4,4,10.40553779598847,63.41959535834586,120,11364877,48,67,441,2350,3515,4050,4061,-14,16226,31,212,5,0,false,false,false,false,false,false,false,false,false,false,5279,5330,4822,4903,48,62,62,48,1517,1518,1461,1485,1506,1511,1461,1473,0.0,0.0,0.0,0.0,1621.4,1614.1,1614.1,1619.6,4.13,3.48,3.46,3.12,0,0,0,0,-178.05631904115683,10.405710402855076,63.41961461844444,0,62.614067,60.92884,-0.027001297,0.014780902,-0.9976613,0.99813604,-1.9777261,5.7041035,2.7771742,6.645366,-108,-418,1465,1527.0,0.022656415,0.04280351,-0.015003402,0.05070065,0.04842988452342079,0.05228171414578748,-2.08179895061163,-1.9439352327672799,131.5532254385395,131.55322543853947,-644.5360574793109,-430.0385374848588,-102.85497055683261,113.4502000428228,8.850977619986322,7104289.582548157,-46.05794850406794,-42.89989668510133,45.39,NONE,0.0,0.0,0.0,NONE,3.905777604670749E-9,4.5297591144730675E-10,-5.340576E-5,2,48.13,49.59,43.04,43.17,16.321,16.321,5.817,7.71078,1592,3411,4.053,12.0,7.156,98,20.9,OK,85,0,0,0,0,0,65,100,0.0,0,0.0,-3.8983873E24,2.68E-43,0.0,3.041665E-35,64,1.1345604E-5,-5.6432565E-8,3.904568E-22,False,False,0,None,-1.6712739E-30,1.3301859E-17,
351017632,27.247,10.405711930608504,63.41961622826699,12,62.21808,61.935867,-0.037344962,0.006096041,-0.9934506,0.99417096,1.7534533,-5.4886017,-1.7514058,6.0221896,-60,-421,1468,1528.0,0.12550505,0.14323159,-0.001472678,0.19044414,0.19043845132077472,-0.07166023705647709,-0.85989001925102,-2.7447781837959226,129.78478239085123,129.7847823908512,-639.411124258922,-419.6230233798413,-129.9064021964126,108.11768722092081,8.969388438250721,38.97635233559048,39.218965549552976,42.37701736851958,45.74,10.951473613281252,,10.405712,63.4196156,20190906,71336,2019-09-06T07:13:36Z,45.989,0.85,1.61,9.83,7,5,12,0.15,0.08,-0.03,0,0,0,0,4,4,10.40553779598847,63.41959535834586,120,11364878,16,67,442,2350,3515,4051,4063,-14,16226,31,1,17518,0,false,false,false,false,false,false,false,false,false,false,5154,5121,4877,4880,49,63,64,49,1503,1497,1468,1483,1491,1495,1473,1465,0.0,0.0,0.0,0.0,1621.4,1614.7,1614.1,1620.2,3.96,3.3,3.68,3.22,0,0,0,0,-176.0244463273965,10.405710794870293,63.41961537680368,0,62.408314,60.9631,-0.035557333,0.006956174,-0.99534446,0.9960037,4.418983,6.36778,1.1536711,7.8362613,-60,-421,1468,1528.0,0.12418481,0.103036664,-0.008540556,0.1615901,0.16136425043340608,-0.07552035494462053,-0.8197622652895699,-2.8853254464044618,127.60686035288968,127.60686035288967,-647.1651814873769,-428.47833745467346,-101.8003294160901,108.53757426785012,8.890640631622649,7104289.704337199,11.12044352917819,14.278495348144796,45.75,NONE,0.0,0.0,0.0,NONE,7.562657747816808E-9,4.452121379939739E-9,-7.6293945E-5,2,46.59,47.0,43.95,43.19,16.322,16.322,5.818,7.71078,1592,3411,4.06,12.0,7.156,98,20.9,OK,85,0,0,0,0,0,65,100,0.0,0,0.0,-1.7607048E25,2.68E-43,0.0,3.041665E-35,64,1.1741184E-5,-5.7204726E-8,4.3627653E-22,False,False,0,None,-1.9389781E-30,1.3465548E-17,
354867005,28.247,10.405707880760726,63.41961320753625,12,62.50812,61.940742,-0.05381038,-0.031668536,-1.0677588,1.0695828,2.2821274,-7.325792,2.6316147,8.111765,-114,309,1483,1519.0,-1.3905905,-1.1579258,0.01895021,1.8096666,1.8095674139041815,-1.4180444668957062,24.21505083512673,-1.932992369702423,130.5168779148111,130.51687791481106,-638.0800694350058,-394.85990282694456,-127.69353061279817,116.64947488135198,8.692114457361964,39.47217693249841,-143.60960657640197,-140.45155475743536,45.97,11.241516490478517,,10.40571,63.4196142,20190906,71337,2019-09-06T07:13:37Z,45.903,0.85,1.61,9.83,7,5,12,-0.7,-0.54,-0.02,10000,0,0,0,4,4,10.40553779598847,63.41959535834586,120,11364880,18,67,443,2367,3541,4103,4116,3563,16444,30,1,16494,0,false,false,false,false,false,false,false,false,false,false,5252,5573,5114,5147,50,63,62,50,1513,1543,1500,1506,1510,1547,1497,1487,0.0,0.0,0.0,0.0,1611.6,1604.9,1604.9,1611.6,3.82,3.87,4.25,3.64,0,0,0,0,152.9494029929139,10.405707049157957,63.419612414462804,0,62.63001,60.97523,-0.0521338,-0.03252161,-1.0638716,1.0656446,-0.6072737,10.180741,-4.745285,11.2487335,-114,309,1483,1519.0,-1.3675927,-1.1025434,-0.004992169,1.7566835,1.756676336378861,-1.3783769966128487,23.920794182784203,-1.991256790160723,128.42853299494277,128.42853299494277,-649.4276196204605,-405.1515741739571,-100.76037573105758,117.41530962882398,8.63203367986963,7104290.193321927,-145.24244458599702,-142.0843927670304,45.97,NONE,0.0,0.0,0.0,NONE,-1.5902641051813158E-7,-9.153473179120537E-8,-3.4332275E-5,2,49.44,54.7,47.72,44.91,16.322,16.322,5.779,7.6053095,1613,3409,4.059,12.0,7.048,98,20.9,OK,86,0,0,0,0,0,65,100,0.0,0,0.0,-1.3992778E23,2.68E-43,0.0,3.041665E-35,64,1.1881581E-5,-5.7479394E-8,2.0668291E-22,False,False,0,None,-9.836928E-31,1.3523782E-17,
358768345,29.261,10.4056602469353,63.419588862161,12,62.706608,62.023262,-0.0565201,-0.11281117,-1.0290848,1.0367914,6.8844066,0.34227765,5.0010343,8.516017,-75,312,1480,1514.0,-4.0276403,-3.402811,-0.02945719,5.2727485,5.272666320926817,-1.7241929882386149,24.23728735585684,-3.827914275669296,130.60102536516325,130.60102536516325,-637.6413956749012,-391.9272569639258,-131.79719664566468,118.23473415935715,6.135162323560154,43.07052242189728,-141.55553709244393,-138.39748527347732,46.29,11.440002818603517,,10.4056667,63.4195918,20190906,71338,2019-09-06T07:13:38Z,45.809,0.85,1.61,9.75,7,5,12,-3.54,-3.04,-0.03,4298,0,0,0,4,4,10.40553779598847,63.41959535834586,120,11364880,18,67,443,2367,3541,4103,4116,3563,16444,30,1,16494,0,false,false,false,false,false,false,false,false,false,false,5244,5944,5172,4884,50,62,62,50,1509,1582,1511,1474,1507,1577,1502,1465,0.0,0.0,0.0,0.0,1610.4,1604.9,1604.9,1609.8,3.68,4.23,4.55,2.98,0,0,0,0,138.88582007542087,10.405659373404662,63.41958781246185,0,62.83749,60.977108,-0.056816254,-0.111062504,-1.0263635,1.0339173,-2.7183049,-16.205975,-0.041021902,16.43242,-75,312,1480,1514.0,-4.103157,-3.403068,-0.0010039059,5.3307385,5.330738310502458,-1.7596944446303047,24.08051854160649,-3.9541726260886354,128.72303941631745,128.72303941631742,-649.2757144326584,-406.63405707213633,-100.90732017716918,118.991756470616,6.106944517291973,7104293.815711957,-141.44087557482922,-138.2828237558626,46.3,NONE,0.0,0.0,0.0,NONE,-2.7337555758253866E-7,-1.491843491666812E-7,2.2888184E-5,2,46.41,58.1,50.2,43.56,16.262,16.262,5.779,7.5033784,1634,3407,4.063,12.0,7.462,97,20.9,OK,87,0,0,0,0,0,65,100,0.0,0,0.0,-4.04723E-4,2.68E-43,0.0,3.041665E-35,64,1.1910452E-5,-5.7535782E-8,3.8878427E-26,False,False,0,None,-3.674713E-34,1.3535852E-17,
362682639,30.278,10.405602826734007,63.41955784379424,12,62.99472,62.00826,-0.042020477,-0.036543574,-1.1517836,1.153129,9.764194,-16.654339,1.199969,19.342865,-52,-1027,1217,1593.0,-1.0928558,-0.93070966,-0.0024075806,1.4354651,1.4354630841564517,2.966976027844839,-23.608579245781357,-3.9483969632326597,128.9559760503773,128.95597605037733,-633.9118413896091,-436.14721065435674,-131.07830428830653,109.08797222209193,5.27918221941655,47.549541774854774,-145.02376225164966,-141.86571043268304,46.56,11.728115458984377,,10.4056081,63.4195599,20190906,71339,2019-09-06T07:13:39Z,45.748,0.85,1.61,9.6,7,5,12,-2.33,-1.88,-0.01,0,0,0,0,4,4,10.40553779598847,63.41959535834586,120,11367784,48,100,444,3525,3525,4381,4396,174,17562,27,212,17563,0,false,false,false,false,false,false,false,false,false,false,5458,6121,5287,5589,50,64,64,49,1536,1607,1521,1541,1532,1584,1526,1528,0.0,0.0,0.0,0.0,1601.8,1595.0,1595.0,1600.0,4.56,4.93,4.1,3.5,0,0,0,0,152.81888891452277,10.405603870708388,63.41955804089017,0,63.459187,60.871822,-0.046592318,-0.048589688,-1.1824435,1.1843582,4.2326455,-29.564194,-0.1648129,29.866102,-111,-1043,1204,1596.0,-1.479724,-1.3196875,0.0818379,1.9844031,1.9827148822295346,2.2549757361632983,-22.756884042447663,-1.8208473664153886,127.7191139642603,127.71911396426032,-647.1410612883595,-452.04452466822704,-100.78301252966925,107.77591252053189,5.293980390767153,7104298.128728361,-145.31733387619718,-142.15928205723057,46.55,NONE,0.0,0.0,0.0,NONE,-1.648751961726926E-7,-8.815361053964084E-8,7.019043E-4,2,51.66,56.52,48.95,49.11,16.209,16.209,5.738,7.4392805,1647,3405,4.044,12.0,8.105,97,21.0,OK,88,0,0,0,0,0,65,100,0.0,0,0.0,5.497025E-11,2.68E-43,0.0,3.041665E-35,64,1.074071E-5,-5.525113E-8,1.43442675E-27,False,False,0,None,-1.9271495E-35,1.3051349E-17,
