Tick#,offsetTime,IMU_ATTI(0):Longitude,IMU_ATTI(0):Latitude,IMU_ATTI(0):numSats,IMU_ATTI(0):barometer:Raw,IMU_ATTI(0):barometer:Smooth,IMU_ATTI(0):accel:X,IMU_ATTI(0):accel:Y,IMU_ATTI(0):accel:Z,IMU_ATTI(0):accel:Composite,IMU_ATTI(0):gyro:X,IMU_ATTI(0):gyro:Y,IMU_ATTI(0):gyro:Z,IMU_ATTI(0):gyro:Composite,IMU_ATTI(0):mag:X,IMU_ATTI(0):mag:Y,IMU_ATTI(0):mag:Z,IMU_ATTI(0):mag:Mod,IMU_ATTI(0):velN,IMU_ATTI(0):velE,IMU_ATTI(0):velD,IMU_ATTI(0):velComposite,IMU_ATTI(0):velH,IMU_ATTI(0):GPS-H,IMU_ATTI(0):roll,IMU_ATTI(0):pitch,IMU_ATTI(0):yaw,IMU_ATTI(0):yaw360,IMU_ATTI(0):totalGyro:Z,IMU_ATTI(0):totalGyro:X,IMU_ATTI(0):totalGyro:Y,IMU_ATTI(0):magYaw,IMU_ATTI(0):distanceHP,IMU_ATTI(0):distanceTravelled,IMU_ATTI(0):directionOfTravel[mag],IMU_ATTI(0):directionOfTravel[true],IMU_ATTI(0):temperature,General:relativeHeight,General:absoluteHeight,GPS(0):Long,GPS(0):Lat,GPS(0):Date,GPS(0):Time,GPS:dateTimeStamp,GPS(0):heightMSL,GPS(0):hDOP,GPS(0):pDOP,GPS(0):sAcc,GPS(0):numGPS,GPS(0):numGLNAS,GPS(0):numSV,GPS(0):velN,GPS(0):velE,GPS(0):velD,RC:Aileron,RC:Elevator,RC:Rudder,RC:Throttle,Controller:navHealth,Controller:ctrl_level,HP:Longitude,HP:Latitude,HP:rthHeight,BatBlackBox:tick,BatBlackBox:id,BatBlackBox:rsoc,BatBlackBox:index,BatBlackBox:rm,BatBlackBox:fcc,BatBlackBox:cell_min,BatBlackBox:cell_max,BatBlackBox:current,BatBlackBox:voltage,BatBlackBox:temp,BatBlackBox:flag,BatBlackBox:reserve,BatBlackBox:user_data,OA:avoidObst,OA:emergBrake,OA:radiusLimit,OA:airportLimit,OA:groundForceLanding,OA:horizNearBoundary,OA:vertLowLimit,OA:vertAirportLimit,OA:roofLimit,OA:hitGroundLimit,Motor:Speed:RFront,Motor:Speed:LFront,Motor:Speed:LBack,Motor:Speed:RBack,Motor:EscTemp:RFront,Motor:EscTemp:LFront,Motor:EscTemp:LBack,Motor:EscTemp:RBack,Motor:PPMrecv:RFront,Motor:PPMrecv:LFront,Motor:PPMrecv:LBack,Motor:PPMrecv:RBack,Motor:PPMsend:RFront,Motor:PPMsend:LFront,Motor:PPMsend:LBack,Motor:PPMsend:RBack,Motor:V_out:RFront,Motor:V_out:LFront,Motor:V_out:LBack,Motor:V_out:RBack,Motor:Volts:RFront,Motor:Volts:LFront,Motor:Volts:LBack,Motor:Volts:RBack,Motor:Current:RFront,Motor:Current:LFront,Motor:Current:LBack,Motor:Current:RBack,Motor:Status:RFront,Motor:Status:LFront,Motor:Status:LBack,Motor:Status:RBack,Motor:thrustAngle,IMU_ATTI(1):Longitude,IMU_ATTI(1):Latitude,IMU_ATTI(1):numSats,IMU_ATTI(1):barometer:Raw,IMU_ATTI(1):barometer:Smooth,IMU_ATTI(1):accel:X,IMU_ATTI(1):accel:Y,IMU_ATTI(1):accel:Z,IMU_ATTI(1):accel:Composite,IMU_ATTI(1):gyro:X,IMU_ATTI(1):gyro:Y,IMU_ATTI(1):gyro:Z,IMU_ATTI(1):gyro:Composite,IMU_ATTI(1):mag:X,IMU_ATTI(1):mag:Y,IMU_ATTI(1):mag:Z,IMU_ATTI(1):mag:Mod,IMU_ATTI(1):velN,IMU_ATTI(1):velE,IMU_ATTI(1):velD,IMU_ATTI(1):velComposite,IMU_ATTI(1):velH,IMU_ATTI(1):GPS-H,IMU_ATTI(1):roll,IMU_ATTI(1):pitch,IMU_ATTI(1):yaw,IMU_ATTI(1):yaw360,IMU_ATTI(1):totalGyro:Z,IMU_ATTI(1):totalGyro:X,IMU_ATTI(1):totalGyro:Y,IMU_ATTI(1):magYaw,IMU_ATTI(1):distanceHP,IMU_ATTI(1):distanceTravelled,IMU_ATTI(1):directionOfTravel[mag],IMU_ATTI(1):directionOfTravel[true],IMU_ATTI(1):temperature,IMUEX(0):err,IMUEX(0):rtk_Longitude,IMUEX(0):rtk_Latitude,IMUEX(0):rtk_Alti,IMUEX(1):err,IMUEX(1):rtk_Longitude,IMUEX(1):rtk_Latitude,IMUEX(1):rtk_Alti,MotorCtrl:Status,MotorCtrl:PWM:RFront,MotorCtrl:PWM:LFront,MotorCtrl:PWM:LBack,MotorCtrl:PWM:RBack,BattInfo:Voltage,BattInfo:BatVoltage,BattInfo:AdVoltage,BattInfo:AvgCurrent,BattInfo:R_time,BattInfo:R_CAP_MAH,BattInfo:LowCellVoltage,BattInfo:LowCellVolThreshold,BattInfo:BatCurrent,BattInfo:Remaining%,BattInfo:Temp,BattInfo:status,battery_info:BatDynCnt,battery_info:Vol1Protect,battery_info:Vol2Protect,battery_info:Cap1Protect,battery_info:Cap2Protect,battery_info:Batpresent,battery_info:sopPercentage,battery_info:sopValue,battery_info:sopScale,battery_info:sopFlg,BattInfo:WindHeading:WindDir,battery_info:home_dir,BattInfo:Wind:rangeMin,BattInfo:Wind:rangeMax,battery_info:cap_speed,battery_info:against_wind,battery_info:emergency_land_cap,battery_info:intel_bat_land_cap,battery_info:intel_bat_gh_cap,BattInfo:Smart:SmartGh,BattInfo:Smart:SmartLand,BattInfo:GoHome:CntDown,BattInfo:GoHome:GhCmd,BattInfo:GoHome:CapLevel,BattInfo:GoHome:LandCapLv,Attribute|Value,ConvertDatV3,3.6.6-Tablet
118199007,.000,10.400099541659971,63.420080928777736,8,-100.38702,-100.28548,0.0446712,0.037832793,-0.9769674,0.97871965,0.25670043,0.07892465,0.21075451,0.341382,235,-308,1395,1447.0,-0.018255632,-0.0134507725,0.020207033,0.03037294,0.022675788866661165,-0.022675788866661165,-2.219816001488412,2.629994845662041,45.95940460392776,45.95940460392774,3.240114276147654,4.496571737853224,0.3447284192555805,40.293595781274526,0.0988291916747521,5.299238311143462,30.356693292342605,33.51213331834238,34.85,0.15889770361327749,,10.4001,63.4200812,20190429,101707,2019-04-29T10:17:07Z,41.01,1.37,3.19,26.57,8,0,8,-0.01,-0.01,0.01,-9980,-9970,9916,-9961,4,4,10.400098837237755,63.420080097750336,50,6369,20,100,47,3705,3706,4348,4363,-2290,17346,25,2,17403,0,false,false,false,false,false,false,false,false,false,false,0,0,0,0,45,57,57,45,944,945,944,944,940,940,940,940,0.0,0.0,0.0,0.0,1701.1,1695.6,1696.2,1701.1,0.0,0.0,0.0,0.0,0,0,0,0,-45.0,10.40009960713465,63.420080475020875,0,-100.418724,-100.53099,0.04451914,0.037609816,-0.9804614,0.982192,0.12636295,0.15324567,0.24879737,0.31835824,235,-314,1399,1452.0,1.4826952E-4,-6.415964E-4,0.0012252283,0.001390976,6.585057061136897E-4,-6.585057061136897E-4,-2.2668022759266404,2.816461078507925,39.84262131162398,39.84262131162399,2.5580676086817977,3.762664833410541,0.2180868933023252,40.365325952593174,0.05680791819912035,7104252.79092047,5.065376632450238,8.220816658450012,34.84,NONE,0.0,0.0,0.0,NONE,-2.0754793495274958E-10,3.724696749579576E-11,0.0,,,,,,17.111,17.111,6.116,1.2181721,0,3422,4.275,12.0,1.26,93,29.1,OK,28,0,0,0,0,0,65,100,0.0,0,0.0,1.8567135E-23,2.69E-43,0.0,-1.05007105E-23,62,5.49322E-5,-5.4932443E-5,1.0769458E-32,False,False,0,None,1.9899403E29,1.0842106E-19,Firmware Date| Oct 17 2018
122053003,1.002,10.400099949368261,63.42008143361482,8,-100.3738,-100.29993,0.045739863,0.037021566,-0.97643125,0.9782028,-0.41587496,0.0767242,0.37702942,0.56655955,232,-320,1395,1449.0,-0.0026828023,-0.019796198,0.01383115,0.024297893,0.019977159115309676,0.03961331527979975,-2.2240008900338752,2.6216530223790584,45.97780232914093,45.9778023291409,3.020497151945892,4.767150876885147,0.31634388394873314,41.89593059704279,0.1585125536651019,5.364592321829733,11.821168318814685,14.976608344814458,35.18,0.17211181494140249,,10.4001005,63.4200817,20190429,101708,2019-04-29T10:17:08Z,40.992,1.37,3.19,25.1,8,0,8,-0.02,0.0,0.02,0,0,0,0,4,4,10.400098837237755,63.420080097750336,50,6369,20,100,47,3705,3706,4348,4363,-2290,17346,25,2,17403,0,false,false,false,false,false,false,false,false,false,false,515,493,499,513,50,62,60,49,1381,1390,1387,1384,1372,1372,1372,1372,0.1,0.1,0.1,0.1,1681.5,1675.4,1676.6,1680.3,7.83,7.35,7.96,7.53,0,0,0,0,-83.65980825409008,10.400100030028629,63.42008097535265,0,-100.3738,-100.5319,0.04419761,0.0362017,-0.9795223,0.981187,0.2987453,0.26566347,-0.59364074,0.71570605,232,-317,1395,1449.0,2.7928656E-4,0.00413201,0.0017010458,0.0044771717,0.004141437861846992,0.055241521182565326,-2.2684762839657755,2.7969002341682763,39.82866788108936,39.82866788108936,2.8222010061323917,3.6816672007814044,0.16330164114697124,41.048001232357244,0.11421355108196102,7104252.871883918,19.063306405578125,22.218746431577898,35.15,NONE,0.0,0.0,0.0,NONE,2.2063654803953647E-10,1.2178051639547937E-10,1.5258789E-5,1,22.5,22.5,22.5,22.5,17.007,17.007,6.044,1.245852,0,3421,4.275,12.0,2.331,93,29.1,OK,29,0,0,0,0,0,65,100,0.0,0,0.0,2.1112466E-16,2.69E-43,0.0,-1.05007105E-23,62,5.49322E-5,-5.4932443E-5,1.1605282E-32,False,False,0,None,2.362918E29,1.0842106E-19,ACType|MavicEnterprise
126010080,2.030,10.400100185202998,63.42008172867136,8,-100.3738,-100.29435,0.04508743,0.03760124,-0.9778226,0.9795835,-1.4003016,0.41017613,0.99968314,1.768744,235,-320,1402,1457.0,-0.019061927,-0.013044614,0.0072898786,0.024221092,0.02309803068880695,0.010782724748449522,-2.2787091102017305,2.6063369316666454,45.77601583617981,45.776015836179795,3.4879579040006563,4.4104302366173185,0.1684785551586901,41.43927318526232,0.19335396495552679,5.430414625534889,172.8672571537106,176.02269717971038,35.41,0.17211181494140249,,10.4001009,63.4200819,20190429,101709,2019-04-29T10:17:09Z,40.942,1.37,3.19,24.12,8,0,8,-0.01,0.01,0.03,0,0,0,0,4,4,10.400098837237755,63.420080097750336,50,6647,23,98,49,3610,3706,4325,4337,-590,17362,27,774,16793,0,false,false,false,false,false,false,false,false,false,false,2081,2084,2153,2102,49,62,62,48,1205,1210,1212,1211,1200,1203,1206,1201,0.0,0.0,0.0,0.0,1696.2,1691.4,1692.6,1695.6,0.62,0.29,0.84,0.32,0,0,0,0,30.963756532073546,10.400100382525462,63.42008109867539,0,-100.3738,-100.53207,0.042778205,0.041807543,-0.979881,0.98170495,1.0066717,-0.76835537,-2.2094219,2.5466259,237,-317,1405,1459.0,-0.011495531,0.005877784,0.0012074092,0.012967397,0.012911063665913637,0.008736207795067744,-2.3139703893685657,2.7820646524635397,39.60668224472759,39.60668224472761,2.759256010356487,3.28540271391363,-1.7568697036881817,40.403197135494125,0.13527124927111658,7104252.974755072,47.821054940174925,50.9764949661747,35.43,NONE,0.0,0.0,0.0,NONE,5.996078716377849E-10,-3.6999323694184575E-10,0.0,2,10.0,10.12,10.67,10.65,16.987,16.987,6.105,1.382771,0,3419,4.275,12.0,4.995,93,29.1,OK,30,0,0,0,0,0,65,100,0.0,0,0.0,2.1660191E-14,2.69E-43,0.0,-1.05007105E-23,62,5.49322E-5,-5.4932443E-5,1.2095228E-32,False,False,0,None,2.5814918E29,1.0842106E-19,dateTime|2015-10-18 0:0:6 GMT
129873656,3.034,10.400100352922989,63.42008177102129,8,-100.3738,-100.29497,0.04621231,0.035174638,-0.9775575,0.97928107,0.18713182,0.89214694,1.1851966,1.4952042,235,-320,1395,1450.0,-0.021903595,-0.008761789,0.008185749,0.024970843,0.023591024274118442,-0.014048674200768314,-2.28418429283505,2.6182172297406385,45.77265231146691,45.77265231146691,3.870932471293079,3.959348999131349,0.6589996696369852,41.45740490121088,0.20076067779629783,5.4835457005020976,,,35.71,0.17211181494140249,,10.4001013,63.4200819,20190429,101710,2019-04-29T10:17:10Z,40.863,1.37,3.19,23.29,8,0,8,-0.02,-0.01,0.03,0,0,0,0,4,4,10.400098837237755,63.420080097750336,50,7344,48,91,50,3353,3706,4249,4258,-1121,17012,30,212,17021,0,false,false,false,false,false,false,false,false,false,false,2065,2086,2142,2102,50,62,62,50,1205,1208,1211,1208,1200,1201,1205,1205,0.0,0.0,0.0,0.0,1696.2,1690.7,1690.7,1696.2,0.64,0.3,0.85,0.33,0,0,0,0,33.26142879327767,10.400100688720118,63.420081123352674,0,-100.3738,-100.5327,0.04327272,0.04079179,-0.97918314,0.9809873,-1.930415,-0.98362494,0.39575872,2.202418,232,-320,1395,1449.0,-0.016167602,0.008755286,0.0027674634,0.01859315,0.018386037500331506,-0.0029701813286071056,-2.3329238802190897,2.793076202950331,39.56481979152374,39.564819791523746,2.179461171949801,3.124842125710359,-2.00598723738797,41.20808311380482,0.14659900196177844,7104253.028701905,95.70945798644418,98.86489801244396,35.74,NONE,0.0,0.0,0.0,NONE,6.52822414267083E-10,-6.489606414402381E-10,1.5258789E-5,2,10.0,10.04,10.62,10.59,17.025,17.025,6.102,1.6422954,0,3419,4.24,12.0,1.76,93,29.1,OK,31,0,0,0,0,0,65,100,0.0,0,0.0,9.470464E-18,2.69E-43,0.0,-1.05007105E-23,62,5.49322E-5,-5.4932443E-5,1.2133972E-32,False,False,0,None,2.5988037E29,1.0842106E-19,geoDeclination|316 degrees
133788286,4.052,10.400101558194045,63.420081829100866,13,-100.3738,-100.29561,0.047069713,0.034479033,-0.9771151,0.9788556,1.8260679,2.0617669,0.62509507,2.824208,235,-317,1408,1462.0,-0.015832674,-0.03827749,0.0023848745,0.041491292,0.04142269435516117,0.017859537739687723,-2.3170987934153495,2.669172726749557,45.74805653012428,45.7480565301243,3.6460680449837315,4.49946584961854,1.3362598549975901,40.813336543715586,0.23535089891442668,5.5588411035942435,45.50782909044447,48.66326911644424,36.06,0.17211181494140249,,10.4001023,63.420082,20190429,101710,2019-04-29T10:17:10Z,40.827,0.97,2.2,22.38,8,5,13,-0.01,0.0,0.02,0,0,0,0,4,4,10.400098837237755,63.420080097750336,50,7344,17,91,51,3353,3706,4249,4259,-1047,17024,30,0,17021,0,false,false,false,false,false,false,false,false,false,false,2080,2085,2121,2109,50,62,62,50,1204,1211,1211,1210,1200,1202,1205,1203,0.0,0.0,0.0,0.0,1696.8,1690.1,1691.4,1696.2,0.66,0.3,0.88,0.36,0,0,0,0,14.656751115760414,10.40010177642866,63.420081220266844,0,-100.3738,-100.62764,0.043161523,0.039704368,-0.9796085,0.9813624,-0.94923794,-2.2533016,-1.8025484,3.0376968,235,-317,1408,1462.0,-0.019014854,-0.021583673,0.080420434,0.085409984,0.02876490173072911,0.025471688484019685,-2.317013268658583,2.867373728479629,39.64771984973641,39.647719849736404,2.128479573237141,2.392298291581953,-2.6803098559296163,40.35938142806781,0.1922613245050437,7104253.092905106,101.62496083068461,104.7804008566844,36.06,NONE,0.0,0.0,0.0,NONE,-7.115715773954867E-10,-4.716610634091204E-10,2.1362305E-4,2,10.0,10.27,10.7,10.53,17.069,17.069,6.102,1.885115,0,3418,4.223,12.0,1.857,93,29.1,OK,32,0,0,0,0,0,65,100,0.0,0,0.0,1.3365276E-26,2.69E-43,0.0,-1.05007105E-23,62,5.49322E-5,-5.4932443E-5,1.3414276E-32,False,False,0,None,2.9272446E29,1.0842106E-19,geoInclination|7479 degrees
137788142,5.091,10.40010337605014,63.42008076408747,13,-100.3738,-100.29602,0.043663118,0.040784203,-0.979484,0.98130465,-0.6706234,-1.6094508,-2.1846986,2.79517,235,-317,1408,1462.0,0.0044297623,-0.026008174,-0.0011890909,0.026409503,0.026382719869171452,0.11696079056687012,-2.3736768249371027,2.6478076000592092,45.72833471894166,45.72833471894165,3.490402690069451,4.907643876500849,1.8393818282120122,40.70837196365617,0.23766719321496438,5.718714518359999,144.66688793188038,147.82232795788016,36.35,0.17211181494140249,,10.400104,63.4200812,20190429,101711,2019-04-29T10:17:11Z,40.607,0.97,2.2,21.16,8,5,13,-0.03,0.0,0.02,0,0,0,0,4,4,10.400098837237755,63.420080097750336,50,7401,16,91,52,3358,3711,4261,4271,-628,17036,29,0,16392,0,false,false,false,false,false,false,false,false,false,false,2080,2085,2121,2109,50,62,62,50,1204,1211,1211,1210,1200,1202,1205,1203,0.0,0.0,0.0,0.0,1696.8,1690.1,1691.4,1696.2,0.66,0.3,0.88,0.36,0,0,0,0,14.656751115760414,10.400103684218239,63.42008023101216,0,-100.3738,-100.619255,0.045707986,0.040102795,-0.9774571,0.97934663,-0.76921993,-1.7576061,-1.5964081,2.495876,235,-320,1408,1462.0,-0.010988192,-0.017836895,0.008188316,0.022493191,0.020949824911554317,0.11881515513558705,-2.3120086544314824,2.9656616204707005,39.75277924621285,39.75277924621287,1.9490440450742632,2.4188576603952856,-3.357013534975382,40.47445525251412,0.241609994337051,7104253.246036713,101.92858652292283,105.08402654892261,36.34,NONE,0.0,0.0,0.0,NONE,-4.669566953073252E-9,-1.8658957487542187E-9,4.272461E-4,2,10.0,10.13,10.32,10.28,17.069,17.069,6.101,2.0365205,0,3418,4.264,12.0,1.851,93,29.1,OK,33,0,0,0,0,0,65,100,0.0,0,0.0,-3.15128545E10,2.68E-43,0.0,-1.05007105E-23,62,5.49322E-5,-5.4932443E-5,1.5248423E-32,False,False,0,None,3.5036605E29,1.0842106E-19,geoIntensity|5185114 nanoTesla
141637045,6.091,10.40010475099785,63.42008038061618,13,-100.3738,-100.29648,0.044520136,0.032524586,-0.980828,0.98237646,2.1641963,0.4092723,-0.034795206,2.20283,235,-320,1395,1450.0,-0.0043835836,-0.02529276,-0.0010760963,0.025692362,0.02566981644120079,0.054914716350024644,-2.3259712369530368,2.665188810403355,45.71686137502982,45.716861375029794,3.0914822629956693,5.495377172533935,1.6466095238453695,41.237556249680104,0.2959077857250854,5.811589310896114,122.90675509583254,126.06219512183232,36.62,0.17211181494140249,,10.4001054,63.4200808,20190429,101712,2019-04-29T10:17:12Z,40.475,0.97,2.2,20.14,8,5,13,-0.01,0.01,0.02,0,0,0,0,4,4,10.400098837237755,63.420080097750336,50,7401,20,91,53,3358,3711,4261,4271,-628,17036,29,2,16392,0,false,false,false,false,false,false,false,false,false,false,2077,2095,2156,2098,50,63,64,50,1204,1207,1209,1207,1200,1202,1208,1205,0.0,0.0,0.0,0.0,1695.6,1690.1,1690.7,1696.8,0.64,0.28,0.84,0.39,0,0,0,0,42.825255885389936,10.400105036382676,63.42007978041333,0,-100.3738,-100.61963,0.045494746,0.042452924,-0.9779535,0.9799312,-1.6049298,-0.12692635,-0.31698874,1.6408509,235,-317,1402,1456.0,-0.010146553,-0.007392242,-0.00457138,0.013360213,0.012553794876138499,0.07130317902779414,-2.3128816415902316,2.9840707736954326,39.763705025368004,39.76370502536798,1.873103193036613,2.391414700099022,-3.803543108725812,40.16209513794527,0.31044225909767864,7104253.33324035,140.86201306512808,144.01745309112786,36.62,NONE,0.0,0.0,0.0,NONE,-5.361467986944186E-10,-4.88862271979822E-10,-1.5258789E-5,2,10.0,10.32,10.97,10.58,17.068,17.068,6.099,2.1188014,0,3417,4.263,12.0,1.849,93,29.1,OK,34,0,0,0,0,0,65,100,0.0,0,0.0,-9.583533E-4,2.68E-43,0.0,-1.05007105E-23,62,5.49322E-5,-5.4932443E-5,1.7485436E-32,False,False,0,None,4.5018463E29,1.0842106E-19,
145538577,7.105,10.400106200121472,63.420080336459336,13,-100.3738,-100.29473,0.044284828,0.041652557,-0.97886246,0.9807486,0.14843702,-0.3227757,-3.7846496,3.8012881,235,-320,1402,1457.0,-0.0105839595,-0.010432305,-0.0064608157,0.016204793,0.014861129853013508,0.056408008017388614,-2.2962164452375315,2.638939822430006,45.6853852427128,45.68538524271281,4.213619514593957,6.821979016356704,1.7925927329625908,41.31670177407872,0.36729100180614854,5.894101769929112,96.07555588798918,99.23099591398896,37.0,0.17211181494140249,,10.4001067,63.4200808,20190429,101713,2019-04-29T10:17:13Z,40.431,0.97,2.2,19.24,8,5,13,0.0,-0.01,0.02,0,0,0,0,4,4,10.400098837237755,63.420080097750336,50,7571,48,89,54,3294,3711,4230,4240,-1092,16947,30,212,16943,0,false,false,false,false,false,false,false,false,false,false,2075,2069,2142,2099,51,63,62,52,1204,1210,1214,1210,1200,1202,1203,1202,0.0,0.0,0.0,0.0,1696.2,1690.1,1691.4,1695.0,0.65,0.32,0.86,0.36,0,0,0,0,20.8790168805574,10.400106417204679,63.420079859750984,0,-100.3738,-100.62341,0.045467805,0.041629367,-0.9778976,0.9798388,-0.8573025,-0.5646829,-2.7774687,2.961109,237,-320,1402,1457.0,-0.011831431,-0.0031278892,-0.007381947,0.014291941,0.012237910315294944,0.05607148560573515,-2.3076566711857924,2.983408590498373,39.7402997638781,39.74029976387811,0.8566005495182701,2.185926746145877,-4.150687720389594,40.31815520936709,0.37805872865613865,7104253.427856093,71.28492465597101,74.44036468197079,36.96,NONE,0.0,0.0,0.0,NONE,-8.945128965114512E-10,-5.176424991874776E-10,-3.0517578E-5,2,10.0,10.43,11.17,10.55,17.067,17.067,6.099,2.1499782,0,3417,4.263,12.0,1.851,93,29.1,OK,35,0,0,0,0,0,65,100,0.0,0,0.0,-2.3781128,2.68E-43,0.0,-1.05007105E-23,62,5.49322E-5,-5.4932443E-5,1.968408E-32,False,False,0,None,5.482817E29,1.0842106E-19,
149412714,8.112,10.400107350872727,63.42008040775577,13,-100.3738,-100.2952,0.046595953,0.039560143,-0.9778338,0.9797424,-0.8454636,0.4326849,0.51807904,1.0818645,235,-320,1395,1450.0,-0.01623356,-0.015467461,-0.0028842231,0.022607291,0.022422551701881045,0.03498340490095211,-2.297632973778581,2.655809372963382,45.67227613451228,45.67227613451229,4.173650015321272,7.543998068274525,1.4773220525793096,41.33475999242571,0.42498505987252305,5.974575955769466,91.60094191048853,94.75638193648831,37.27,0.17211181494140249,,10.4001078,63.4200807,20190429,101714,2019-04-29T10:17:14Z,40.39,0.97,2.2,18.5,8,5,13,0.0,-0.02,0.02,0,0,0,0,4,4,10.400098837237755,63.420080097750336,50,7571,17,89,55,3294,3711,4230,4240,-1092,16947,30,0,16943,0,false,false,false,false,false,false,false,false,false,false,2089,2095,2132,2109,51,63,63,51,1205,1211,1214,1210,1200,1202,1207,1203,0.0,0.0,0.0,0.0,1696.8,1689.5,1690.7,1695.0,0.65,0.32,0.86,0.37,0,0,0,0,26.96571443287013,10.400107506329908,63.420079947025435,0,-100.3738,-100.62879,0.045778714,0.036573328,-0.97921234,0.9809639,-1.6523235,0.58163494,2.4298413,2.99543,235,-320,1395,1450.0,-0.016402334,-0.00480567,-0.0032265494,0.017393725,0.017091841240359843,0.037582623191544845,-2.3191317205255846,2.9982204879652565,39.750475323390994,39.750475323391015,0.6272335295262846,1.8235691500079478,-4.323924911760363,40.50092923653256,0.43164482926465186,7104253.506991104,73.85845412460505,77.01389415060483,37.25,NONE,0.0,0.0,0.0,NONE,-5.209266190576542E-10,-7.361045010873703E-10,-1.5258789E-5,2,10.0,10.2,10.55,10.46,17.066,17.066,6.098,2.1460161,0,3416,4.263,12.0,1.856,93,29.1,OK,36,0,0,0,0,0,65,100,0.0,0,0.0,-604.8906,2.68E-43,0.0,-1.05007105E-23,62,5.49322E-5,-5.4932443E-5,2.1426821E-32,False,False,0,None,6.2603015E29,1.0842106E-19,
153274191,9.116,10.40010795716371,63.42008046358738,13,-100.3738,-100.29778,0.0453794,0.035634767,-0.97910386,0.9808025,0.50764024,1.3290715,-0.73680323,1.6021887,235,-323,1392,1448.0,-0.0012392739,-0.03000948,-0.0027147825,0.030157499,0.03003505810467187,6.524938062456714E-4,-2.2897175128931617,2.657096655294341,45.653402575391446,45.65340257539145,4.191059836758741,7.841455987120682,1.4462614998876953,41.69935003137082,0.45556979474464676,6.038857897736248,160.84427777817154,163.99971780417133,37.54,0.17211181494140249,,10.4001087,63.4200807,20190429,101715,2019-04-29T10:17:15Z,40.348,0.97,2.2,17.8,8,5,13,0.0,0.0,0.02,0,0,0,0,4,4,10.400098837237755,63.420080097750336,50,7738,48,89,56,3294,3711,4252,4257,-3,17003,30,212,4,0,false,false,false,false,false,false,false,false,false,false,2074,2077,2157,2111,52,65,63,51,1204,1209,1211,1209,1200,1204,1208,1204,0.0,0.0,0.0,0.0,1695.6,1690.7,1690.7,1695.0,0.64,0.32,0.86,0.38,0,0,0,0,22.72410215174102,10.400108242846075,63.420079923211226,0,-100.3738,-100.67066,0.045520976,0.043477397,-0.9780676,0.98009115,-1.7667897,0.29668495,-0.012791957,1.7915723,235,-323,1389,1445.0,-0.053521942,-0.019326294,0.038612522,0.06876795,0.05690433918558737,-0.02029547040019631,-2.163068128877222,3.088163512877603,39.83732300016517,39.837323000165156,0.6295799174426928,1.9685936725296556,-3.86949384968153,41.08259077941466,0.46836600851169946,7104253.588319535,91.49535748984722,94.650797515847,37.58,NONE,0.0,0.0,0.0,NONE,-1.1273405522188672E-9,-1.5005876486276062E-9,7.6293945E-5,2,10.0,10.02,10.39,10.35,17.065,17.065,6.099,2.1200964,0,3416,4.262,12.0,1.857,93,29.1,OK,37,0,0,0,0,0,65,100,0.0,0,0.0,-407.8672,2.68E-43,0.0,-1.05007105E-23,62,5.49322E-5,-5.4932443E-5,2.2507524E-32,False,False,0,None,7.1467826E29,1.0842106E-19,
157121941,10.116,10.40010847574471,63.420080704616595,13,-100.3738,-100.30335,0.04498036,0.034661606,-0.9800262,0.98167,0.48823053,1.3719634,1.4510024,2.0557384,237,-323,1392,1448.0,-0.006571537,-0.020204607,0.0030510402,0.021464393,0.02124644125760124,0.01595541041692942,-2.2970259368855874,2.6693463008655334,45.63032840001994,45.63032840001995,4.355112143109931,8.217028638508017,1.4415786601110432,41.4632043414602,0.4842758006763226,6.102879709725549,-20.743813564868113,-17.58837353886834,37.84,0.17211181494140249,,10.400109,63.4200809,20190429,101716,2019-04-29T10:17:16Z,40.343,0.97,2.2,17.14,8,5,13,0.0,0.0,0.0,0,0,0,0,4,4,10.400098837237755,63.420080097750336,50,7738,48,89,57,3294,3711,4252,4257,-3,17003,30,212,4,0,false,false,false,false,false,false,false,false,false,false,2079,2082,2137,2090,51,64,65,52,1204,1210,1210,1210,1200,1205,1214,1206,0.0,0.0,0.0,0.0,1695.0,1690.1,1690.1,1696.2,0.64,0.3,0.84,0.37,0,0,0,0,37.14668669802177,10.400108506274519,63.420080161301485,0,-100.3738,-100.701645,0.04557024,0.040979322,-0.9777821,0.9797008,-1.2160528,0.34903637,-2.763178,3.0390399,237,-323,1389,1445.0,-0.061605617,-0.02850221,0.017635934,0.07013312,0.0678795116336317,-0.03833879394200196,-2.1282488968074347,3.2088190230928215,39.900022575587485,39.90002257558751,0.6123076821297303,2.473250605140183,-3.64908951738011,40.726715231854996,0.4811221640321521,7104253.645269216,53.14935246528372,56.30479249128349,37.89,NONE,0.0,0.0,0.0,NONE,-2.8325245203720252E-9,-2.746704569720528E-9,9.1552734E-5,2,13.18,13.57,13.1,13.05,17.063,17.063,6.096,2.0825381,0,3415,4.262,12.0,1.868,93,29.1,OK,38,0,0,0,0,0,65,100,0.0,0,0.0,-6304768.0,2.68E-43,0.0,1.05007105E-23,63,5.49322E-5,-5.4932443E-5,2.3016842E-32,False,False,0,None,7.601339E29,1.0842106E-19,
160975501,11.117,10.400108147302419,63.4200808775794,13,-100.3738,-100.303116,0.0406629,0.03811418,-0.978422,0.98000807,2.541204,2.5923471,9.181653,9.873233,237,-323,1392,1448.0,-0.014633434,-0.017196327,0.002734255,0.022744829,0.022579882379714047,0.002619167362791063,-2.3092900728341106,2.3801109335175745,46.40512231748353,46.40512231748352,5.4287562049370095,9.032462667920004,0.9474491838389529,42.10084604700672,0.47125653551099383,6.133879680853003,-78.08376177809029,-74.92832175209051,38.22,0.17211181494140249,,10.4001089,63.420081,20190429,101717,2019-04-29T10:17:17Z,40.292,0.97,2.2,16.56,8,5,13,-0.02,-0.01,0.02,0,0,0,7371,4,4,10.400098837237755,63.420080097750336,50,7738,48,89,58,3294,3711,4252,4257,-3,17003,30,212,4,0,false,false,false,false,false,false,false,false,false,false,3179,3286,3335,3160,51,64,63,51,1313,1328,1338,1315,1316,1337,1332,1310,0.0,0.0,0.0,0.0,1685.2,1680.9,1680.9,1685.8,2.02,1.74,2.53,1.72,0,0,0,0,83.92754359279229,10.40010814684682,63.42008025469129,0,-100.3738,-100.699974,0.03960572,0.038453873,-0.9797426,0.9812965,1.0121931,4.4376664,-8.129161,9.316688,237,-323,1392,1448.0,-0.025242422,-0.007968646,-0.0014837536,0.026511898,0.026470345676544427,-0.005822484947021433,-2.1691825880498925,2.925059929061567,40.6324100126101,40.63241001261008,3.944683766207621,2.9261042489545375,-7.518326741884667,41.21963985883831,0.4635160360207245,7104253.696935957,-70.61563917840411,-67.46019915240433,38.2,NONE,0.0,0.0,0.0,NONE,-9.561415729732647E-10,-1.0620573149558493E-9,0.0,2,28.27,30.81,28.2,26.32,17.034,17.034,6.08,2.058768,0,3415,4.261,12.0,2.753,93,29.1,OK,39,0,0,0,0,0,65,100,0.0,0,0.0,-3.75791616E8,2.68E-43,0.0,1.05007105E-23,63,5.49322E-5,-5.4932443E-5,2.2525956E-32,False,False,0,None,7.1634174E29,1.0842106E-19,
164832380,12.120,10.400108639573958,63.42008137486046,13,-99.937035,-100.17867,-0.0075877057,0.003118909,-0.945206,0.9452416,-9.013361,-2.8012252,-1.0206267,9.493641,263,-297,1399,1454.0,-0.06704115,0.058068022,-0.17927076,0.20001104,0.08869279266026506,-0.028360070011769586,-0.2038419239700959,1.0993763357546988,47.32165573656901,47.32165573656903,9.609408796905704,14.620032614471103,-1.049297864840312,45.21735188405654,0.12344248001029863,6.225489947782679,61.68280512680726,64.83824515280703,38.46,0.6088793930664025,,10.4001091,63.4200815,20190429,101718,2019-04-29T10:17:18Z,40.404,0.97,2.2,16.06,8,5,13,0.1,0.04,-0.17,0,0,0,0,4,4,10.400108176904151,63.42008028418884,50,7738,48,89,59,3294,3711,4252,4257,-3,17003,30,212,4,0,false,false,false,false,false,false,true,false,false,false,5479,5469,4692,4624,49,61,62,49,1518,1529,1460,1426,1517,1522,1437,1423,0.0,0.0,0.0,0.0,1668.7,1663.1,1663.1,1668.7,4.11,4.02,4.08,2.4,0,0,0,0,177.96460956923738,10.400108970474161,63.4200807424105,0,-100.121994,-100.481895,-0.006851786,0.006314436,-0.968304,0.9683488,0.15050663,-0.5739657,2.8444412,2.9056728,269,-305,1392,1450.0,-0.022419266,0.05389682,-0.23368445,0.24086493,0.058373713602211406,0.009437575706071781,-0.7821754024956745,1.0061534524666647,41.53467107443637,41.534671074436346,5.780518836400898,4.079853773343088,-12.299433475327131,44.258102664484916,0.06445935706368802,7104253.807538337,59.20873086311167,62.36417088911144,38.43,NONE,0.0,0.0,0.0,NONE,5.5288900375748645E-9,-8.579184653577991E-10,-0.0011749268,2,49.73,49.52,40.06,38.15,16.934,16.934,5.999,2.1336758,0,3414,4.261,12.0,5.35,93,29.2,OK,40,0,0,0,0,0,65,100,0.0,0,0.0,7.134797E-19,2.69E-43,0.0,1.05007105E-23,63,5.626958E-5,-5.5601133E-5,1.0894155E-32,False,False,0,None,2.0456476E29,1.104857E-19,
168708638,13.127,10.400111044877148,63.42008001827351,13,-99.96905,-100.033005,-0.010026409,0.015246595,-0.95611405,0.9562882,9.126799,4.049141,4.3667884,10.897837,312,-366,1377,1458.0,0.09568997,-0.04497054,-0.009958953,0.1061984,0.1057304077083431,0.08540214544969449,-2.4782717016650184,-0.5247428426866867,47.2515255136769,47.25152551367688,9.409532094195578,14.103879071026663,-0.1635615401498663,45.65046538961361,0.14572360226069336,6.446619021106385,168.66029108865072,171.8157311146505,38.77,0.5768664536132775,,10.4001106,63.4200813,20190429,101719,2019-04-29T10:17:19Z,40.335,0.97,2.2,15.68,8,5,13,0.12,-0.01,-0.07,0,0,0,-9817,4,4,10.400108176904151,63.42008028418884,50,8198,16,89,60,3294,3711,4253,4258,0,17005,28,1,17546,0,false,false,false,false,false,false,true,false,false,false,5585,5475,4618,4633,49,65,63,49,1527,1532,1438,1434,1519,1518,1430,1428,0.0,0.0,0.0,0.0,1666.8,1660.7,1660.7,1666.8,4.52,3.94,3.3,2.65,0,0,0,0,-176.04720491409702,10.400110325285832,63.42008014492656,0,-99.87932,-100.2418,-0.009559859,0.015596871,-0.94845223,0.94862866,9.839293,-0.8313821,0.7509283,9.902866,312,-363,1371,1452.0,0.07571501,-0.04066766,-0.09283972,0.12651417,0.08594545685171975,0.008001787047075479,-1.7579575232380211,0.20293302783131373,41.43227202634252,41.4322720263425,6.845670724270916,4.293826106314231,-11.396453352972546,45.348576839379916,0.10800577646261017,7104254.089242822,-50.554527194172664,-47.39908716817289,38.79,NONE,0.0,0.0,0.0,NONE,4.27391653915915E-9,-1.9085974491052712E-9,-7.7819824E-4,2,50.19,49.91,39.12,39.06,16.847,16.847,5.985,2.4213786,0,3412,4.233,12.0,7.015,93,29.2,OK,41,0,0,0,0,0,65,100,0.0,0,0.0,-6.564369E-7,2.68E-43,0.0,1.05007105E-23,63,7.4483454E-5,-6.165777E-5,1.22846235E-32,False,False,0,None,2.6659716E29,1.2819398E-19,
172558301,14.128,10.400109313655546,63.42008187061926,13,-99.641914,-100.04754,-0.0083587,0.0025529126,-1.0387626,1.0387993,-106.14544,2.8521717,4.405119,106.275085,283,92,1453,1483.0,-0.38214794,0.32473516,0.039339885,0.50302845,0.5014877536967107,-0.27834519905088967,7.948504618021904,-0.05044406353983698,47.70348300116842,47.70348300116842,9.16683121184379,23.410397936931048,1.770302579194499,21.294772519584132,0.18524789562238012,6.739032847512166,129.78386929548327,132.93930932148305,39.06,0.903999632324215,,10.4001095,63.4200822,20190429,101720,2019-04-29T10:17:20Z,40.412,0.97,2.2,15.3,8,5,13,-0.19,0.05,-0.02,0,0,0,0,4,4,10.400108176904151,63.42008028418884,50,8198,18,89,61,3294,3712,4292,4296,3573,17153,28,1,17175,0,false,false,false,false,false,false,true,false,false,false,5485,5969,4874,4893,50,63,63,49,1519,1597,1471,1452,1545,1515,1374,1494,0.0,0.0,0.0,0.0,1665.0,1656.4,1658.8,1663.7,2.47,7.36,7.11,2.12,0,0,0,0,164.5898109010336,10.400110108627679,63.420081368041394,0,-99.89077,-100.23404,-0.008809101,0.0036339452,-0.97413087,0.9741775,-88.007904,-0.30124038,-6.60921,88.25624,283,-74,1426,1455.0,-0.3990503,0.42776656,-0.032243997,0.58588827,0.5850003186249476,-0.44863920243066147,0.6837022308937979,0.06174793987170228,41.6813338499754,41.68133384997543,6.570922120765239,3.612611869135794,-8.744470140119821,17.73721743245799,0.1541493117204054,7104254.33353206,125.54557329970334,128.70101332570312,39.09,NONE,0.0,0.0,0.0,NONE,4.289623112287116E-8,-1.7851905113708363E-8,-1.8310547E-4,2,46.54,53.49,41.17,36.77,16.807,16.807,5.968,2.943589,0,3410,4.205,12.0,7.12,93,29.2,OK,42,0,0,0,0,0,65,100,0.0,0,0.0,7.896915E-9,2.69E-43,0.0,1.05007105E-23,63,7.667206E-5,-6.275114E-5,1.4043588E-32,False,False,0,None,3.067625E29,1.2987812E-19,
176410548,15.129,10.400110101219884,63.42008000541004,13,-99.87402,-100.04953,-0.006142839,0.009655214,-0.9872839,0.9873502,7.2449355,3.511592,0.4047903,8.061279,292,-355,1386,1460.0,-0.009574457,-0.033112124,-0.015642563,0.037851986,0.03446857945647722,0.17635315176739297,-1.7325867808315756,-0.16475251206901934,53.44265002160943,53.44265002160944,10.502250622415314,14.811813832272986,6.1947475499884215,47.37735981020837,0.10063507849097154,7.040311357264223,-148.9724457120952,-145.81700568609543,39.4,0.6718905624999962,,10.4001116,63.4200797,20190429,101721,2019-04-29T10:17:21Z,40.395,0.97,2.2,14.98,8,5,13,-0.11,0.01,-0.02,0,0,0,-10000,4,4,10.400108176904151,63.42008028418884,50,8207,19,89,62,3301,3712,4265,4270,3,17122,28,1,17108,0,false,false,false,false,false,false,true,false,false,false,5490,5665,4570,4770,51,63,63,50,1522,1542,1427,1453,1518,1530,1428,1446,0.0,0.0,0.0,0.0,1663.7,1658.2,1658.2,1662.5,4.53,4.16,3.09,2.8,0,0,0,0,-179.21085183985414,10.40011012415059,63.420079017334196,0,-100.00085,-100.26236,-0.0038459683,0.018683251,-0.9815673,0.98175263,20.12253,-0.21200699,16.54057,26.049023,292,-357,1389,1463.0,-0.034122966,0.035841588,-0.016375076,0.052126188,0.04948733470447234,0.21159199212372484,-1.5262970672229288,-0.01609470027418287,42.169163392569004,42.169163392568976,7.342396872606851,1.0012467789174149,-5.43504424349857,47.64690930654639,0.1709678249357496,7104254.662920518,-124.45770138809425,-121.30226136209447,39.39,NONE,0.0,0.0,0.0,NONE,7.923768204270986E-9,-3.5157387730836146E-9,-1.0681152E-4,2,49.43,52.9,38.5,38.96,16.792,16.792,5.975,3.6209836,0,3408,4.195,12.0,7.572,93,29.2,OK,43,0,0,0,0,0,65,100,0.0,0,0.0,2.2219449E-12,2.68E-43,0.0,1.05007105E-23,63,7.3350966E-5,-6.108966E-5,1.4198942E-32,False,False,0,None,3.1023454E29,1.2732048E-19,
180324602,16.146,10.400109744735385,63.420079496838895,13,-99.94307,-100.11196,-0.0048103435,0.009572142,-0.9796851,0.9797437,-14.762957,2.9346108,-13.001325,19.889475,298,-329,1389,1458.0,0.02085845,-0.08462323,0.34751594,0.35827854,0.08715598854221998,-0.028894009840853087,-1.03623727512534,-0.21494665806318922,57.535643732810996,57.53564373281097,10.025376436796376,14.937461912837264,5.229279198433133,46.06214805018615,0.11725921904741143,7.168557797024111,-63.13994401501721,-59.98450398901743,39.7,0.6028445419921837,,10.4001111,63.4200795,20190429,101722,2019-04-29T10:17:22Z,40.332,0.97,2.2,14.69,8,5,13,-0.02,0.01,0.09,0,0,0,-10000,4,4,10.400108176904151,63.42008028418884,50,8228,16,89,63,3301,3712,4257,4262,0,17023,28,1,17546,0,false,false,false,false,false,false,false,false,false,false,5515,5573,4509,4809,50,63,64,49,1518,1539,1437,1451,1512,1533,1427,1439,0.0,0.0,0.0,0.0,1663.1,1656.4,1656.4,1663.1,4.35,4.08,3.32,2.94,0,0,0,0,-172.21461160271429,10.400109721986498,63.420078990601596,0,-99.927216,-100.36294,-0.0037873578,0.009858874,-0.9796888,0.97974575,1.7780153,9.057691,0.03761684,9.230629,295,-326,1389,1456.0,-0.009766441,0.0022864158,0.36177734,0.36191636,0.010030506542446254,0.009855301696371577,-0.7080406722169149,-0.21480219269713954,42.25257755599842,42.252577555998414,8.839960066606153,3.4743493183657543,-7.287607462092906,46.8213787372561,0.16309379501337373,7104254.807626533,-99.61082149550646,-96.45538146950668,39.69,NONE,0.0,0.0,0.0,NONE,2.1839276554199166E-11,-3.8445027047331747E-10,0.0018005371,2,50.04,50.91,37.22,41.01,16.777,16.777,5.983,4.3516827,0,3406,4.189,12.0,6.971,93,29.3,OK,44,0,0,0,0,0,65,100,0.0,0,0.0,3.490936E-33,2.68E-43,0.0,1.05007105E-23,63,6.738864E-5,-5.9572292E-5,1.3718212E-32,False,False,0,None,2.9950412E29,1.2272797E-19,
184251748,17.167,10.400109744237579,63.4200789660435,13,-100.831116,-100.34824,-0.00705403,0.0039908625,-1.0238599,1.0238919,-9.738334,-3.8837793,-11.739562,15.739638,298,-320,1395,1461.0,0.05099567,-0.10492838,0.18282321,0.2168752,0.1166641469950157,-0.05883639487597045,-0.9813744721595066,-0.40724230933538463,59.69236783949361,59.69236783949361,9.626398681998996,13.818412175120582,3.4444272578930852,45.78670855344645,0.16602426822169203,7.314629558100702,-159.49373035627474,-156.33829033027496,40.0,-0.28520172265625376,,10.4001108,63.420079,20190429,101723,2019-04-29T10:17:23Z,40.026,0.97,2.2,14.49,8,5,13,-0.04,0.01,0.18,0,0,0,-10000,4,4,10.400108176904151,63.42008028418884,50,8228,18,89,64,3303,3713,4297,4300,3572,17172,28,1,17195,0,false,false,false,false,false,false,false,false,false,false,5544,5591,4347,4629,49,64,64,51,1508,1532,1420,1438,1501,1510,1423,1436,0.0,0.0,0.0,0.0,1664.4,1658.8,1659.4,1664.4,4.18,4.0,2.74,2.44,0,0,0,0,-173.78799955338968,10.40011034716553,63.420078212391225,0,-100.889244,-100.66044,0.0020583516,0.009763588,-1.0104781,1.0105274,12.001997,-5.2492685,8.914857,15.845423,295,-320,1395,1461.0,0.0026625595,-0.005313734,0.2424738,0.24254662,0.005943483195533488,0.08415001794006939,-0.7132303536053282,-0.41172745879253075,42.2068818900841,42.206881890084105,8.891333041349961,3.980786990579143,-9.178568030689725,46.72261780829799,0.2544233801652962,7104254.996227857,-173.50551768132345,-170.35007765532367,39.99,NONE,0.0,0.0,0.0,NONE,4.397772250923933E-11,-3.2796072404203494E-10,0.0013427734,2,50.11,51.9,36.12,37.66,16.769,16.769,5.971,5.0469627,0,3404,4.186,12.0,7.178,93,29.3,OK,45,0,0,0,0,0,65,100,0.0,0,0.0,-6.504322E22,2.66E-43,0.0,1.05007105E-23,63,5.49322E-5,-5.4932443E-5,1.5555744E-32,False,False,0,None,3.6408977E29,1.0842106E-19,
188101052,18.167,10.40010927641472,63.42007881226974,13,-103.55813,-100.451485,0.024328126,0.054555845,-1.0813679,1.0830164,11.844809,31.102373,3.9246476,33.512085,295,-308,1408,1471.0,0.08268828,-0.12713408,0.03599102,0.15587103,0.15165891530154982,-0.12278948026425363,-1.668213746194297,0.7754650452273871,60.61385362412284,60.61385362412284,12.963094864191529,14.933575081532902,3.810776535887768,40.349641253421495,0.17257014092095638,7.383670391526721,-98.25363183956343,-95.09819181356364,40.3,-3.0122143569335975,,10.4001107,63.4200786,20190429,101724,2019-04-29T10:17:24Z,39.84,0.97,2.2,14.26,8,5,13,-0.06,-0.04,0.17,0,0,0,-10000,4,4,10.400108176904151,63.42008028418884,50,9374,114,99,65,3713,3713,4386,4389,326,17562,27,3677,17596,0,false,false,false,false,false,false,false,false,false,false,4574,5018,4651,3775,50,63,63,50,1537,1466,1317,1340,1312,1200,1470,1523,0.0,0.0,0.0,0.0,1668.0,1663.7,1663.1,1667.4,6.66,2.92,6.3,1.26,0,0,0,0,131.45523354440513,10.400109843408059,63.42007800978765,0,-103.50527,-100.87189,-0.013479736,-0.05938821,-1.1357785,1.13741,-27.941053,15.469824,-11.039555,33.79186,301,-303,1408,1471.0,0.012374709,-0.009444351,0.1671815,0.16790469,0.015566926562182172,0.018119574493850092,-1.5918633653332277,0.30337680646269927,41.90122888330883,41.90122888330882,5.83862347890631,1.3235925555799168,-9.764812291733298,40.5313029889394,0.2661469688774787,7104255.083251475,-175.382318288398,-172.22687826239823,40.28,NONE,0.0,0.0,0.0,NONE,-8.1822498778946E-10,5.12421919561261E-10,9.0789795E-4,2,33.28,10.0,28.19,48.24,16.765,16.765,5.998,5.0469627,0,3404,4.182,12.0,7.178,93,29.3,OK,45,0,0,0,0,0,65,100,0.0,0,0.0,-5.871124E-17,2.66E-43,0.0,1.05007105E-23,63,5.49322E-5,-5.4932443E-5,1.5996602E-32,False,False,0,None,3.8375174E29,1.0842106E-19,
191969410,19.173,10.400110390625183,63.42007777059157,13,-101.293396,-100.41986,0.060683157,0.02936532,-0.9914418,0.99373114,-0.07440795,0.17749152,-2.6936913,2.7005577,206,-326,1399,1451.0,0.095187195,-0.08275999,-0.025163777,0.12861972,0.1261341233361096,0.0015919350976917324,-1.8042827566204047,3.393439202375602,61.034351747881,61.034351747880976,11.77806791568635,16.733684456390083,6.949107677377553,44.2748329957016,0.3004177656143495,7.517724866387597,137.21157848416306,140.36701851016284,40.58,-0.7474819960937538,,10.4001113,63.4200782,20190429,101725,2019-04-29T10:17:25Z,39.739,0.97,2.2,14.0,8,5,13,-0.04,0.0,0.08,0,0,0,-10000,4,4,10.400108176904151,63.42008028418884,50,9763,48,99,66,3701,3701,4391,4393,161,17547,27,212,17549,0,false,false,false,false,false,false,false,false,false,false,2074,2362,3943,3097,52,66,66,52,1215,1240,1376,1238,1200,1221,1348,1296,0.0,0.0,0.0,0.0,1687.6,1677.3,1677.9,1685.8,0.68,0.42,2.38,0.92,0,0,0,0,23.532348560901028,10.400110948806656,63.4200772029926,0,-101.48354,-101.0767,0.052601006,0.027100231,-0.9672149,0.96902317,-4.148134,0.5223975,-3.3318572,5.346138,209,-326,1405,1457.0,0.04522826,0.038174994,0.15981403,0.17042139,0.05918552067779393,0.04548038083165721,-1.5588231049381824,3.2220776539195026,41.669770202678464,41.66977020267848,5.476923675403725,-2.2422838745505294,-12.114783220766176,44.95524135003879,0.36932879844892885,7104255.19315827,123.04649596033506,126.20193598633485,40.56,NONE,0.0,0.0,0.0,NONE,3.597198261400027E-9,2.0769954782695877E-9,6.637573E-4,2,11.96,10.0,25.04,15.63,16.814,16.814,6.049,5.64108,0,3402,4.181,12.0,6.24,93,29.3,OK,46,0,0,0,0,0,65,100,0.0,0,0.0,-0.0720768,2.66E-43,0.0,1.05007105E-23,63,5.49322E-5,-5.4932443E-5,1.9240214E-32,False,False,0,None,5.2847467E29,1.0842106E-19,
