Tick#,offsetTime,IMU_ATTI(0):Longitude,IMU_ATTI(0):Latitude,IMU_ATTI(0):numSats,IMU_ATTI(0):barometer:Raw,IMU_ATTI(0):barometer:Smooth,IMU_ATTI(0):accel:X,IMU_ATTI(0):accel:Y,IMU_ATTI(0):accel:Z,IMU_ATTI(0):accel:Composite,IMU_ATTI(0):gyro:X,IMU_ATTI(0):gyro:Y,IMU_ATTI(0):gyro:Z,IMU_ATTI(0):gyro:Composite,IMU_ATTI(0):mag:X,IMU_ATTI(0):mag:Y,IMU_ATTI(0):mag:Z,IMU_ATTI(0):mag:Mod,IMU_ATTI(0):velN,IMU_ATTI(0):velE,IMU_ATTI(0):velD,IMU_ATTI(0):velComposite,IMU_ATTI(0):velH,IMU_ATTI(0):GPS-H,IMU_ATTI(0):roll,IMU_ATTI(0):pitch,IMU_ATTI(0):yaw,IMU_ATTI(0):yaw360,IMU_ATTI(0):totalGyro:Z,IMU_ATTI(0):totalGyro:X,IMU_ATTI(0):totalGyro:Y,IMU_ATTI(0):magYaw,IMU_ATTI(0):distanceHP,IMU_ATTI(0):distanceTravelled,IMU_ATTI(0):directionOfTravel[mag],IMU_ATTI(0):directionOfTravel[true],IMU_ATTI(0):temperature,General:relativeHeight,General:absoluteHeight,GPS(0):Long,GPS(0):Lat,GPS(0):Date,GPS(0):Time,GPS:dateTimeStamp,GPS(0):heightMSL,GPS(0):hDOP,GPS(0):pDOP,GPS(0):sAcc,GPS(0):numGPS,GPS(0):numGLNAS,GPS(0):numSV,GPS(0):velN,GPS(0):velE,GPS(0):velD,RC:Aileron,RC:Elevator,RC:Rudder,RC:Throttle,Controller:navHealth,Controller:ctrl_level,HP:Longitude,HP:Latitude,HP:rthHeight,BatBlackBox:tick,BatBlackBox:id,BatBlackBox:rsoc,BatBlackBox:index,BatBlackBox:rm,BatBlackBox:fcc,BatBlackBox:cell_min,BatBlackBox:cell_max,BatBlackBox:current,BatBlackBox:voltage,BatBlackBox:temp,BatBlackBox:flag,BatBlackBox:reserve,BatBlackBox:user_data,OA:avoidObst,OA:emergBrake,OA:radiusLimit,OA:airportLimit,OA:groundForceLanding,OA:horizNearBoundary,OA:vertLowLimit,OA:vertAirportLimit,OA:roofLimit,OA:hitGroundLimit,Motor:Speed:RFront,Motor:Speed:LFront,Motor:Speed:LBack,Motor:Speed:RBack,Motor:EscTemp:RFront,Motor:EscTemp:LFront,Motor:EscTemp:LBack,Motor:EscTemp:RBack,Motor:PPMrecv:RFront,Motor:PPMrecv:LFront,Motor:PPMrecv:LBack,Motor:PPMrecv:RBack,Motor:PPMsend:RFront,Motor:PPMsend:LFront,Motor:PPMsend:LBack,Motor:PPMsend:RBack,Motor:V_out:RFront,Motor:V_out:LFront,Motor:V_out:LBack,Motor:V_out:RBack,Motor:Volts:RFront,Motor:Volts:LFront,Motor:Volts:LBack,Motor:Volts:RBack,Motor:Current:RFront,Motor:Current:LFront,Motor:Current:LBack,Motor:Current:RBack,Motor:Status:RFront,Motor:Status:LFront,Motor:Status:LBack,Motor:Status:RBack,Motor:thrustAngle,IMU_ATTI(1):Longitude,IMU_ATTI(1):Latitude,IMU_ATTI(1):numSats,IMU_ATTI(1):barometer:Raw,IMU_ATTI(1):barometer:Smooth,IMU_ATTI(1):accel:X,IMU_ATTI(1):accel:Y,IMU_ATTI(1):accel:Z,IMU_ATTI(1):accel:Composite,IMU_ATTI(1):gyro:X,IMU_ATTI(1):gyro:Y,IMU_ATTI(1):gyro:Z,IMU_ATTI(1):gyro:Composite,IMU_ATTI(1):mag:X,IMU_ATTI(1):mag:Y,IMU_ATTI(1):mag:Z,IMU_ATTI(1):mag:Mod,IMU_ATTI(1):velN,IMU_ATTI(1):velE,IMU_ATTI(1):velD,IMU_ATTI(1):velComposite,IMU_ATTI(1):velH,IMU_ATTI(1):GPS-H,IMU_ATTI(1):roll,IMU_ATTI(1):pitch,IMU_ATTI(1):yaw,IMU_ATTI(1):yaw360,IMU_ATTI(1):totalGyro:Z,IMU_ATTI(1):totalGyro:X,IMU_ATTI(1):totalGyro:Y,IMU_ATTI(1):magYaw,IMU_ATTI(1):distanceHP,IMU_ATTI(1):distanceTravelled,IMU_ATTI(1):directionOfTravel[mag],IMU_ATTI(1):directionOfTravel[true],IMU_ATTI(1):temperature,IMUEX(0):err,IMUEX(0):rtk_Longitude,IMUEX(0):rtk_Latitude,IMUEX(0):rtk_Alti,IMUEX(1):err,IMUEX(1):rtk_Longitude,IMUEX(1):rtk_Latitude,IMUEX(1):rtk_Alti,MotorCtrl:Status,MotorCtrl:PWM:RFront,MotorCtrl:PWM:LFront,MotorCtrl:PWM:LBack,MotorCtrl:PWM:RBack,BattInfo:Voltage,BattInfo:BatVoltage,BattInfo:AdVoltage,BattInfo:AvgCurrent,BattInfo:R_time,BattInfo:R_CAP_MAH,BattInfo:LowCellVoltage,BattInfo:LowCellVolThreshold,BattInfo:BatCurrent,BattInfo:Remaining%,BattInfo:Temp,BattInfo:status,battery_info:BatDynCnt,battery_info:Vol1Protect,battery_info:Vol2Protect,battery_info:Cap1Protect,battery_info:Cap2Protect,battery_info:Batpresent,battery_info:sopPercentage,battery_info:sopValue,battery_info:sopScale,battery_info:sopFlg,BattInfo:WindHeading:WindDir,battery_info:home_dir,BattInfo:Wind:rangeMin,BattInfo:Wind:rangeMax,battery_info:cap_speed,battery_info:against_wind,battery_info:emergency_land_cap,battery_info:intel_bat_land_cap,battery_info:intel_bat_gh_cap,BattInfo:Smart:SmartGh,BattInfo:Smart:SmartLand,BattInfo:GoHome:CntDown,BattInfo:GoHome:GhCmd,BattInfo:GoHome:CapLevel,BattInfo:GoHome:LandCapLv,Attribute|Value,ConvertDatV3,3.6.6-Tablet
274345578,.000,13.99253997300573,66.38568035663334,17,25.873594,25.75553,0.06277111,0.028477017,-0.9750652,0.9774985,0.2903719,-0.15600678,0.0995165,0.3443218,-16,217,1520,1535.0,-0.01286087,0.0034698537,-0.010877373,0.017197648,0.01332073058593708,-0.01332073058593708,-1.6667251247390635,3.584610310155934,-66.76279452968355,293.23720547031644,4.250606780002303,12.254786194909236,-0.5626699383508353,-73.24137999031427,2.2414139930766193,3.650503977686717,-87.84165834667172,-82.56656370723599,46.54,,,13.9925388,66.3856805,20190521,143044,2019-05-21T14:30:44Z,64.674,0.63,1.25,8.31,8,9,17,0.0,0.01,0.01,-9995,-9992,9978,-9994,5,5,13.99257540590762,66.38569466978304,50,2158639,48,100,276,3435,3424,4377,4385,0,17494,26,212,5,0,false,false,false,false,false,false,false,false,false,false,0,0,0,0,48,60,61,47,944,946,945,946,940,940,940,940,0.0,0.0,0.0,0.0,1714.6,1707.9,1709.1,1715.3,0.0,0.0,0.0,0.0,0,0,0,0,-45.0,13.99253977025744,66.38567992190526,0,25.931726,25.881657,0.062261652,0.02852188,-0.97460634,0.9770095,0.3969452,-0.04968919,0.18371475,0.4402109,-16,220,1520,1535.0,0.0012589786,-0.0011332134,-4.2413358E-4,0.0017461642,0.0016938712351696158,-0.0016938712351696158,-1.6623130459169464,4.145219049778527,-68.10352659824719,291.8964734017528,4.0088189029921075,11.873215149766208,-0.7137854908984078,-70.51555184151731,2.2822643827946867,4.140723178166445,-107.45351163099643,-102.1784169915607,46.57,NONE,0.0,0.0,0.0,NONE,-8.646500102102436E-11,2.6035549307311938E-11,-1.9073486E-6,,,,,,17.251,17.251,6.164,1.252111,0,3342,4.311,12.0,1.254,97,27.7,OK,67,0,0,0,0,0,65,100,0.0,0,0.0,1426.5312,8.8E-44,0.0,-5.9807744E7,62,8.731238E-12,-8.731296E-12,4.7149502E-36,False,False,0,None,3.1446648E32,1.0842106E-19,Firmware Date| Oct 17 2018
278199638,1.002,13.992539062314966,66.38568027599116,17,25.900019,25.739676,0.065356754,0.017879408,-0.9729668,0.9753233,0.07661369,-0.59913665,0.108165145,0.61362374,-13,213,1523,1537.0,-0.00880299,-0.007328775,-7.1036525E-4,0.011476419,0.011454412892441304,0.030020531890832557,-1.669856530202247,3.624771235868122,-66.7736267181955,293.2263732818045,4.097852625833957,12.87857728199096,-0.7194831099168355,-72.14491954596282,2.276454956497432,3.7057173654712128,75.0512676675912,80.32636230702694,46.89,0.19556269201660115,,13.9925388,66.3856805,20190521,143045,2019-05-21T14:30:45Z,64.68,0.63,1.25,8.29,8,9,17,0.0,0.0,0.02,0,0,0,0,5,5,13.99257540590762,66.38569466978304,50,2158639,48,100,277,3435,3424,4377,4385,0,17494,26,212,5,0,false,false,false,false,false,false,false,false,false,false,583,574,561,585,51,65,66,51,1311,1320,1316,1315,1302,1302,1302,1302,0.1,0.1,0.1,0.1,1692.0,1686.4,1686.4,1691.4,7.82,7.34,7.94,7.5,0,0,0,0,-108.43494882292202,13.992539519321051,66.38567983370258,0,25.900019,25.88091,0.0650028,0.027763318,-0.97171384,0.97428125,-0.8842608,-0.24388397,0.0496078,0.9186171,-10,213,1514,1528.0,-0.001282178,0.0010729057,0.0011160267,0.0020101299,0.001671857310287097,0.013173781395339557,-1.6668106478218596,4.150121172376466,-68.10224261439028,291.89775738560974,3.939260624892707,12.095294920369119,-0.9006310042737226,-68.90938599949779,2.297085557566818,4.2046023915176765,,,46.91,NONE,0.0,0.0,0.0,NONE,-7.326551264312262E-11,-8.610471511838617E-11,-1.1444092E-5,1,22.5,22.5,22.5,22.5,17.244,17.244,6.078,1.2533196,0,3341,4.311,12.0,1.278,97,27.7,OK,68,0,0,0,0,0,65,100,0.0,0,0.0,2249.375,8.8E-44,0.0,-5.9807744E7,62,8.731238E-12,-8.731296E-12,5.106904E-36,False,False,0,None,3.825532E32,1.0842106E-19,ACType|MavicEnterprise
282221598,2.047,13.992539323006888,66.3856803276959,17,25.900019,25.732183,0.059452258,0.028454505,-0.9784593,0.9806767,0.8975349,-1.5211619,-0.026328271,1.7664075,-7,217,1523,1538.0,-0.020767625,0.00430151,0.008148249,0.022719843,0.021208424151432398,-0.008812643185591683,-1.7009625266594366,3.6659451365885074,-66.79117552959168,293.20882447040833,2.447989209222593,12.988757175247779,-1.2210291677057834,-71.0612601430797,2.26415909357565,3.7640040044595793,-89.83016005361004,-84.55506541417431,47.17,0.19556269201660115,,13.9925385,66.3856804,20190521,143046,2019-05-21T14:30:46Z,64.696,0.63,1.25,8.27,8,9,17,-0.01,0.01,0.01,0,0,0,0,5,5,13.99257540590762,66.38569466978304,50,2158642,114,100,278,3435,3424,4377,4385,0,17495,26,3423,4,0,false,false,false,false,false,false,false,false,false,false,2088,2086,2204,2141,53,66,66,53,1205,1210,1210,1210,1200,1202,1209,1207,0.0,0.0,0.0,0.0,1710.3,1704.2,1704.2,1710.3,0.6,0.26,0.84,0.34,0,0,0,0,19.632595537530392,13.99253938867068,66.38567986511312,0,25.900019,25.760069,0.06460691,0.02908815,-0.97191656,0.97449577,-0.42171094,2.2592728,0.21110821,2.3079689,-7,217,1520,1535.0,-0.017519439,0.025794623,0.10126981,0.105961636,0.031181618260089753,-0.024688562805200032,-1.7040243480037434,4.161178505009233,-68.1353433876837,291.8646566123163,2.1159195499962835,13.057819422894243,-0.4103556498872932,-68.5850058561205,2.2986362917115226,4.237598579007648,,,47.17,NONE,0.0,0.0,0.0,NONE,1.4399137992547928E-9,-3.927419182817847E-10,2.5367737E-4,2,10.0,10.33,11.04,10.71,17.081,17.081,6.143,1.3343422,0,3341,4.278,12.0,5.199,97,27.7,OK,69,0,0,0,0,0,65,100,0.0,0,0.0,6429.0,8.8E-44,0.0,-5.9807744E7,62,8.731238E-12,-8.731296E-12,5.1553014E-36,False,False,0,None,3.921992E32,1.0842106E-19,geoDeclination|528 degrees
286172765,3.074,13.992539103593346,66.38568005826006,17,25.900019,25.816751,-0.010178194,0.006893115,-1.0439897,1.044062,-10.720816,8.762088,-13.52238,19.353678,160,260,1505,1535.0,-0.016775312,-0.058611806,-0.45157045,0.45566723,0.06096519465970897,-0.030276771855167403,0.05020012324923736,-1.7275134166757893,-66.68639115758354,293.31360884241644,1.3913413175750182,13.823091801443354,-7.844508236267462,-66.11507386099713,2.292244053060676,3.801615342056129,-132.91728929221554,-127.6421946527798,47.42,0.19556269201660115,,13.9925383,66.3856803,20190521,143047,2019-05-21T14:30:47Z,64.749,0.63,1.25,8.26,8,9,17,-0.06,0.01,-0.05,0,0,0,3901,5,5,13.99257540590762,66.38569466978304,50,2173244,16,100,279,3434,3432,4363,4368,-633,17451,21,0,16726,0,false,false,false,false,false,false,true,false,false,false,5520,5707,4496,4681,50,64,64,51,1515,1538,1434,1444,1510,1521,1426,1441,0.0,0.0,0.0,0.0,1679.7,1674.1,1673.5,1679.1,4.48,4.17,3.06,2.78,0,0,0,0,179.94410169625877,13.99253899621284,66.38567959988548,0,25.900019,25.898298,-0.0105480775,0.0026159203,-1.0426764,1.0427331,-12.976855,11.544529,-15.820868,23.494144,166,257,1505,1535.0,-0.028031273,-0.046446588,-0.4351756,0.438544,0.0542497721311018,-0.020864013008717375,0.018625699961157594,-1.3033611645643333,-68.03814511560712,291.9618548843929,3.695875550681901,14.491347384151265,-6.357188176764355,-62.81876187494853,2.331971858763481,4.322471014932353,-130.42305991895338,-125.14796527951765,47.43,NONE,0.0,0.0,0.0,NONE,1.7284646039218397E-9,-1.15657406976456E-9,-3.5858154E-4,2,49.0,50.98,38.2,39.32,17.173,17.173,6.025,1.5546377,0,3339,4.259,12.0,2.043,97,27.7,OK,70,0,0,0,0,0,65,100,0.0,0,0.0,-64835.0,8.8E-44,0.0,-5.9807744E7,62,9.2617025E-12,-8.996417E-12,8.1596214E-38,False,False,0,None,1.8346175E29,1.1207389E-19,geoInclination|7646 degrees
290048963,4.081,13.992539367493224,66.38568004501593,17,26.645927,26.506962,-0.018891022,-0.0021305233,-0.7298805,0.73012805,3.6958308,2.5625975,56.608288,56.786655,175,269,1505,1538.0,-0.06441623,-0.010768913,-1.0202615,1.0223497,0.06531018403615095,-0.053550694436963954,0.18869618231531907,-0.8971717863714148,-56.79589274174392,303.2041072582561,10.42320055749159,13.846757193703482,-8.307105786691327,-60.17038841138005,0.04408263019701333,3.891613403993545,-177.47087217618875,-172.195777536753,47.73,0.9414714291992183,,13.9925382,66.38568,20190521,143048,2019-05-21T14:30:48Z,65.477,0.63,1.25,8.3,8,9,17,-0.05,-0.12,-0.68,0,0,9998,2238,5,5,13.992539255594785,66.38567965111348,50,2173245,20,100,280,3434,3432,4335,4350,-1435,17265,21,2,16726,0,false,false,false,false,false,false,true,false,false,false,4956,4915,4369,4030,50,63,64,50,1448,1453,1395,1373,1442,1444,1386,1364,0.0,0.0,0.0,0.0,1690.1,1684.6,1685.8,1691.4,2.86,2.56,2.24,1.84,0,0,0,0,168.55539500940034,13.992538981023353,66.38567915214965,0,26.762184,26.67179,-0.018424308,-0.005390561,-0.72609544,0.7263492,0.8493207,1.3615216,57.68054,57.702858,192,269,1508,1543.0,-0.034489628,0.0052146274,-0.7188805,0.7197262,0.03488161015280627,0.014542876994447437,0.5284073410849435,-0.21925151119869507,-53.06458997870214,306.93541002129786,17.822468763069573,14.930041584147133,-7.337750098428933,-53.86917809502433,0.05681419940223789,4.461699585533346,168.79891213567274,174.07400677510847,47.74,NONE,0.0,0.0,0.0,NONE,-1.2322305331435287E-10,-8.125901537295562E-10,-0.0025501251,2,40.4,40.42,33.1,30.48,16.983,16.983,6.058,1.8779087,0,3339,4.299,12.0,5.995,97,27.7,OK,71,0,0,0,0,0,65,100,0.0,0,0.0,4.0844946E20,8.7E-44,0.0,-5.9807744E7,62,1.9951152E-11,-1.2991444E-11,1.0236576E-37,False,False,0,None,2.8691678E29,1.6710125E-19,geoIntensity|5257916 nanoTesla
293926190,5.089,13.992536867302725,66.38568054767913,17,28.795263,28.42421,-0.021019725,-0.007180644,-0.7066384,0.70698744,4.379045,-9.322759,-1.0735288,10.355787,693,176,1387,1560.0,0.5956838,-0.48392823,-2.6704438,2.778542,0.7674801208207953,-0.643825438402477,-0.9583330259674218,-15.0831554309527,-25.860611687247058,334.13938831275294,38.714085927848934,11.114405905819961,-19.25493210295024,-32.803422058976686,0.14579261338759097,4.160684798954716,-37.03461874105159,-31.75952410161585,48.09,3.090807290405273,,13.9925381,66.3856803,20190521,143049,2019-05-21T14:30:49Z,67.004,0.63,1.25,8.36,8,9,17,0.03,-0.35,-1.48,0,10000,1378,1041,5,5,13.992539255594785,66.38567965111348,50,2173246,114,100,281,3433,3432,4287,4312,-2879,17336,21,3424,17433,0,false,false,false,false,false,false,true,false,false,false,5357,5532,4878,4955,50,66,64,50,1479,1507,1446,1435,1471,1508,1431,1418,0.0,0.0,0.0,0.0,1680.9,1676.6,1676.0,1682.1,3.08,2.58,2.67,2.17,0,0,0,0,174.6979643253833,13.992537380328068,66.38568021100424,0,28.829613,28.325994,-0.020521887,-0.008142392,-0.71272814,0.71307003,3.2123399,-15.970572,-2.60272,16.497044,687,176,1390,1560.0,0.66203713,-0.34755692,-2.5370474,2.6449382,0.7477225056053843,-0.6111262004663469,-0.4100263430087771,-14.526161128658297,-27.144793988362668,332.85520601163734,40.53796363216144,11.101447186145242,-19.569269746369656,-30.416624763497694,0.10417754743418155,4.671520667046276,-44.02283611588936,-38.747741476453626,48.07,NONE,0.0,0.0,0.0,NONE,-5.939433780896137E-9,9.089817828416617E-9,-0.018829346,2,43.82,48.56,39.19,37.29,17.003,17.003,6.005,2.3761938,0,3337,4.232,12.0,7.966,97,27.7,OK,72,0,0,0,0,0,65,100,0.0,0,0.0,1.5136982E-32,9.0E-44,0.0,-5.9807744E7,62,1.05744746E-10,-2.9347424E-11,1.6865664E-37,False,False,0,None,7.05974E29,3.6245237E-19,dateTime|2019-5-21 14:30:11 GMT
297774615,6.089,13.992510129355855,66.38569154790831,17,30.516407,29.610712,-0.086270645,-0.006014987,-1.4522115,1.4547842,6.6795025,19.764488,0.6099647,20.87158,707,183,1375,1556.0,2.3807092,-1.9880816,-1.3474959,3.381714,3.1016519759409498,-1.3947686619626178,-0.6418572490406187,-13.483794455250983,-33.820416725944305,326.1795832740557,39.72980341976981,12.703128042853116,-17.71919712048678,-28.36845054956417,1.8528568498122926,5.961018775141919,-47.77062201201972,-42.495527372583986,48.42,4.811951012939453,,13.9925195,66.3856889,20190521,143050,2019-05-21T14:30:50Z,68.679,0.63,1.25,8.46,8,9,17,1.69,-1.3,-1.37,0,7920,0,9995,5,5,13.992539255594785,66.38567965111348,50,2174032,48,58,282,1987,3477,3909,3912,-1242,15658,36,212,15653,0,false,false,false,false,false,false,true,false,false,false,6742,6844,6378,6442,50,66,66,50,1666,1680,1619,1620,1660,1669,1614,1614,0.0,0.0,0.0,0.0,1635.5,1630.6,1630.0,1636.1,6.8,6.1,5.94,5.21,0,0,0,0,177.1599788512153,13.992515126640379,66.38569181956677,0,30.595676,29.282326,-0.08265854,-0.00588662,-1.4506462,1.4530112,6.879351,22.830189,2.3209524,23.956833,716,186,1366,1553.0,2.6831028,-1.3616102,-1.1050333,3.2053273,3.0088242451691776,-1.3816377381792309,-0.07839779937828996,-12.92238345907841,-26.10254873227469,333.89745126772533,41.141542794478674,11.981228398882067,-17.26940284036932,-25.581154216839778,1.7279765749738472,6.337988114895747,-43.90952926562192,-38.634434626186184,48.41,NONE,0.0,0.0,0.0,NONE,-6.801444648836373E-8,5.346427396845495E-8,-0.0014743805,2,65.58,67.26,59.78,61.47,16.824,16.824,5.891,3.1460235,0,3334,4.243,12.0,9.997,97,27.8,OK,73,0,0,0,0,0,65,100,0.0,0,0.0,5.848477E-21,9.0E-44,0.0,-5.9807744E7,62,3.0010483E-10,-5.0771175E-11,3.4441306E-36,False,False,0,None,1.877955E32,5.8629574E-19,mcID(SN)|298DG13001W644
301623693,7.089,13.992461787352926,66.38571477256123,17,31.535866,31.413857,-0.067577936,-0.02927345,-0.70178777,0.7056414,-11.172167,-1.4662869,-56.537834,57.649754,564,297,1431,1566.0,2.6676562,-2.6416318,-0.5590378,3.7956727,3.7542786666528585,-0.39309573233331596,1.9751331430994443,-13.0941561193771,-64.44345209882775,295.5565479011723,18.372359771811997,11.712225866593872,-15.141650415079711,-47.979498234160125,5.211359444341575,9.360212245826357,-48.23415005625864,-42.959055416822906,48.74,5.831409783691406,,13.9924705,66.3857108,20190521,143051,2019-05-21T14:30:51Z,70.582,0.63,1.25,8.53,8,9,17,2.6,-2.35,-1.76,0,5896,-9976,0,5,5,13.992539255594785,66.38567965111348,50,2174032,17,58,283,1987,3477,3909,3912,-1242,15658,36,0,15653,0,false,false,false,false,false,false,true,false,false,false,4562,4782,4416,4657,51,65,64,51,1469,1487,1429,1438,1463,1505,1429,1436,0.0,0.0,0.0,0.0,1669.9,1665.6,1665.6,1670.5,4.64,4.0,3.71,3.5,0,0,0,0,-175.56896068708647,13.99246180345678,66.38571404508093,0,31.37997,31.049467,-0.065298975,-0.03052621,-0.68027496,0.6840832,-4.821808,-4.2896895,-50.36328,50.77511,567,294,1431,1567.0,2.7481508,-2.493391,-0.42145377,3.7345624,3.7107050451454464,-0.2842660408453379,2.159878384329118,-12.618287337314637,-59.99957681539434,300.00042318460567,19.84752003604426,11.218087773722646,-13.620800275599093,-45.163058455594104,5.150537941593643,9.795154988464876,-53.91589988218701,-48.64080524275128,48.71,NONE,0.0,0.0,0.0,NONE,-1.1534819030277506E-7,6.452206633086449E-8,-0.0036735535,2,43.0,48.62,39.31,39.84,16.687,16.687,6.05,4.1263127,0,3332,4.213,12.0,8.851,97,27.8,OK,74,0,0,0,0,0,65,100,0.0,0,0.0,3.1444172E-23,9.0E-44,0.0,-5.9807744E7,62,1.8258959E-9,-1.2575989E-10,2.7132413E-33,False,False,0,None,4.1148953E37,1.3761706E-18,mcVer|v3.4.1.6
305549826,8.110,13.992423550424052,66.38573205904304,17,32.39258,31.173147,-0.019913755,-0.018561587,-1.0526278,1.0529798,15.94571,-18.94301,-36.689476,44.26309,-194,-159,1544,1564.0,0.7833131,-0.52436554,-0.080334656,0.9460403,0.9426232540173631,1.574237485627507,-10.77924592459274,3.861323882782137,-112.76009938968585,247.23990061031415,-30.11224215642048,9.036578452300805,8.350539522736103,-123.9983365305263,7.77952316113171,11.93240919807272,-45.42478465611713,-40.1496900166814,48.93,6.688122125,,13.9924239,66.3857303,20190521,143052,2019-05-21T14:30:52Z,71.066,0.63,1.25,8.6,8,9,17,1.47,-1.37,-0.82,0,0,-5620,0,5,5,13.992539255594785,66.38567965111348,50,2231002,48,58,284,1986,3466,3969,3975,0,15876,23,212,1,0,false,false,false,false,false,false,true,false,false,false,5818,5950,5166,4834,52,66,65,52,1548,1553,1494,1419,1540,1544,1488,1415,0.0,0.0,0.0,0.0,1668.7,1664.4,1664.4,1669.9,4.98,3.8,3.54,1.44,0,0,0,0,165.29472794387,13.99242113368639,66.38573082494828,0,32.18119,31.207495,-0.018816188,-0.018427499,-1.053621,1.0539502,24.063047,-13.810046,-34.15621,44.004482,-205,-177,1538,1561.0,0.5332192,-0.5203932,0.03262756,0.7457857,0.7450716697218837,1.8035433703832622,-10.894805744474134,4.2128005419860335,-111.39300102856068,248.60699897143934,-25.87478406169008,9.61066494734595,8.157887482452677,-127.91576372007484,7.749942949636402,12.399701353716138,-48.96137172327434,-43.686277083838604,48.91,NONE,0.0,0.0,0.0,NONE,-1.3170898824825804E-7,5.5363980522155696E-8,6.8855286E-4,2,52.31,53.5,46.32,36.09,16.812,16.812,5.978,5.0952697,0,3327,4.118,12.0,5.748,97,27.9,OK,75,0,0,0,0,0,65,100,0.0,0,0.0,1.0871286E-23,9.0E-44,0.0,-5.9807744E7,62,2.2506583E-9,-1.401839E-10,3.154689E-31,False,False,0,None,-1.211712E-37,1.4755116E-18,
309574109,9.156,13.992413800887826,66.38573356459163,17,32.61898,31.193575,-0.009666935,-0.014531654,-0.9731506,0.97330713,-8.356192,10.5689,-9.893674,16.715631,-179,115,1532,1546.0,0.04331076,-0.15917611,0.0141752325,0.16557111,0.1649631969180644,0.2800308688349177,-0.5850865295838387,0.4695970777060746,-129.7303406692411,230.2696593307589,-49.15043209012321,18.742077517341087,6.367427405718011,-141.87314130969935,8.195422632980035,12.421897421536844,-73.23081732388577,-67.95572268445004,49.27,6.914524407714843,,13.9924141,66.3857333,20190521,143053,2019-05-21T14:30:53Z,71.567,0.63,1.25,8.56,8,9,17,0.05,-0.23,-0.48,0,0,0,0,5,5,13.992539255594785,66.38567965111348,50,2231002,48,58,285,1986,3466,3969,3975,0,15876,23,212,1,0,false,false,false,false,false,false,true,false,false,false,5587,5611,4655,4706,51,66,65,51,1524,1531,1435,1454,1509,1524,1439,1436,0.0,0.0,0.0,0.0,1669.3,1664.4,1665.6,1669.9,4.4,4.03,3.29,2.79,0,0,0,0,-179.15793431460602,13.992413757920723,66.38573292104365,0,32.51593,31.445675,-0.008859262,-0.013157735,-0.9702071,0.97033674,-5.6709366,10.8087,-7.6232142,14.391002,-176,115,1532,1546.0,-0.012523276,-0.12399959,0.043672565,0.13206069,0.12463037783207238,0.2605066360807254,-0.720788833572365,0.8707845689968576,-128.93810973863125,231.06189026136875,-43.10964471862445,22.24925324121574,7.91797188208706,-138.67999433888178,8.144537097358123,12.862143273389382,34.683426142675145,39.95852078211088,49.28,NONE,0.0,0.0,0.0,NONE,-7.15379724660503E-9,-3.855131946086388E-10,1.2207031E-4,2,48.53,51.1,40.78,39.25,16.824,16.824,5.999,5.877879,0,3325,4.118,12.0,8.059,97,27.9,OK,76,0,0,0,0,0,65,100,0.0,0,0.0,4.4051003E-24,9.0E-44,0.0,-2.99788717E15,63,2.9177158E-9,-1.6103123E-10,6.5589063E-31,False,False,0,None,-2.391052E-37,1.6190573E-18,
313435477,10.159,13.99241450286359,66.38573335252262,16,32.680523,31.257692,-0.0016315794,0.019146793,-0.9640809,0.96427244,0.8862687,0.31404698,-14.833691,14.863461,-228,81,1529,1548.0,-0.005026009,0.20541823,0.1329756,0.2447538,0.2054797100726613,-0.16645558765526253,-1.234376286858813,1.2722355752056724,-135.36849078827294,224.63150921172706,-56.44963815568189,16.496097447550305,5.151029760831732,-149.58343343162818,8.156856414445489,12.57919940194598,97.66210522541799,102.93719986485372,49.64,6.9760669187011715,,13.9924133,66.3857332,20190521,143054,2019-05-21T14:30:54Z,71.949,0.65,1.28,8.52,8,8,16,-0.04,0.07,-0.3,0,0,-2932,0,5,5,13.992539255594785,66.38567965111348,50,2231002,48,58,286,1986,3466,3969,3975,0,15876,23,212,1,0,false,false,false,false,false,false,true,false,false,false,5662,5713,4866,4426,52,65,66,52,1552,1524,1479,1397,1541,1530,1462,1391,0.0,0.0,0.0,0.0,1667.4,1663.1,1662.5,1667.4,5.52,3.11,5.06,0.98,0,0,0,0,166.73648512436992,13.9924140579503,66.38573275484134,0,32.627678,31.609615,-0.0024445674,0.018504933,-0.9625203,0.96270126,-3.989613,-1.0206382,-19.556948,19.985819,-228,87,1529,1548.0,-0.04336124,0.08925271,0.12538894,0.15990193,0.09922823729174292,-0.07650244334928938,-1.2037482734526985,1.3085131215092782,-134.52225175946253,225.47774824053747,-50.24308333288173,20.46915847678042,9.822448596254437,-148.33075558733455,8.121924659523783,13.016131013893036,78.49704192718222,83.77213656661796,49.64,NONE,0.0,0.0,0.0,NONE,1.0319004701099731E-8,-2.360197398758431E-9,8.163452E-4,2,52.46,51.64,42.8,34.26,16.827,16.827,5.995,6.490315,0,3323,4.201,12.0,7.148,96,27.9,OK,77,0,0,0,0,0,65,100,0.0,0,0.0,4.0793575E-24,9.0E-44,0.0,-2.99788717E15,63,3.380194E-9,-1.7548012E-10,6.4114523E-31,False,False,0,None,-2.326021E-37,1.7185836E-18,
317292590,11.162,13.992418831723029,66.38573332606366,16,32.596947,31.237717,-7.4924063E-4,-0.0119092,-0.9837585,0.98383087,-5.773675,-1.9557837,-4.8170896,7.7694764,-188,155,1529,1548.0,0.0024321042,0.23610833,0.16479571,0.28794217,0.23612085821720677,-0.043752308990825745,1.057166853954914,-0.12823913125255057,-130.82640901550582,229.17359098449418,-52.461056340198034,18.83713359162858,4.322905908890524,-146.48742135982576,8.024554942272427,12.796569404298182,86.69483575940743,91.96993039884316,49.96,6.892490716308593,,13.9924177,66.385733,20190521,143055,2019-05-21T14:30:55Z,72.035,0.65,1.28,8.49,8,8,16,-0.03,0.24,-0.12,0,0,0,0,5,5,13.992539255594785,66.38567965111348,50,2231002,48,58,287,1986,3466,3969,3975,0,15876,23,212,1,0,false,false,false,false,false,false,true,false,false,false,5565,5886,4597,4735,52,67,66,52,1531,1548,1424,1449,1523,1553,1431,1428,0.0,0.0,0.0,0.0,1668.0,1663.1,1661.9,1668.0,4.56,4.08,3.14,2.63,0,0,0,0,175.06409788486025,13.992418897323914,66.38573263830997,0,32.64451,31.611439,-6.7034794E-4,-0.013206692,-0.9836543,0.98374325,-5.8797383,-7.302857,-3.7005582,10.079542,-185,155,1526,1544.0,-0.006354758,0.16413504,0.19473897,0.25476256,0.1642580059562932,0.0511602262268423,1.0671540415255942,-0.14831324020627826,-130.13331513606067,229.86668486393933,-46.734377391471654,21.65116188916032,8.37274576218355,-146.18801292932216,7.9658729613727965,13.253259791287281,74.94389541746553,80.21899005690126,49.98,NONE,0.0,0.0,0.0,NONE,2.898945247294782E-8,-8.823968488631738E-10,0.0014305115,2,50.03,54.1,39.36,38.4,16.825,16.825,5.996,6.9544916,0,3321,4.198,12.0,7.161,96,27.9,OK,78,0,0,0,0,0,65,100,0.0,0,0.0,2.1149651E-23,9.0E-44,0.0,-2.99788717E15,63,3.3883225E-9,-1.7573591E-10,4.8350786E-31,False,False,0,None,-1.7560095E-37,1.7203306E-18,
321152859,12.165,13.992423685949525,66.38573346220484,17,33.278236,31.240572,-0.0040210574,-0.021690182,-0.9763629,0.97661203,9.277751,3.1214423,26.140982,27.913635,-162,176,1529,1547.0,0.009860995,0.10604831,0.11428872,0.15622225,0.10650578802010921,0.10953547208230169,1.5134318776803684,-0.7855434950529463,-127.9109020913138,232.0890979086862,-49.760835951045784,20.02155119594919,5.297860503403584,-143.47165054705576,7.893136304213283,13.014919912802322,77.04232525483242,82.31741989426816,50.21,7.573780389160156,,13.9924228,66.3857332,20190521,143056,2019-05-21T14:30:56Z,72.101,0.63,1.25,8.49,8,9,17,0.02,0.16,-0.06,0,0,5776,0,5,5,13.992539255594785,66.38567965111348,50,2231003,16,58,288,1986,3466,3969,3974,0,15877,23,1,17518,0,false,false,false,false,false,false,true,false,false,false,5566,5753,4717,4587,52,67,67,52,1524,1550,1428,1449,1513,1547,1430,1430,0.0,0.0,0.0,0.0,1668.0,1663.1,1662.5,1667.4,4.18,4.41,2.82,2.9,0,0,0,0,171.05949967262498,13.99242387692805,66.38573294218678,0,32.929573,31.592173,-0.0023538428,-0.023806114,-0.9685949,0.96889025,1.7152754,-4.6810308,13.27665,14.1818075,-156,183,1526,1544.0,0.008965715,0.06846406,0.12559915,0.1433278,0.06904861866820461,0.1545821549853996,1.4360168758097467,-0.8893454887943257,-125.92711080035171,234.07288919964827,-41.79871775407364,24.301766613848248,8.336632651059647,-141.16265971371237,7.8438168782274404,13.483554946374895,69.68016060908721,74.95525524852295,50.27,NONE,0.0,0.0,0.0,NONE,1.5793958585791273E-8,1.1565395638136838E-10,0.0010242462,2,48.99,53.14,38.81,38.97,16.811,16.811,5.989,7.2696652,0,3319,4.203,12.0,7.218,96,28.0,OK,79,0,0,0,0,0,65,100,0.0,0,0.0,1.5971694E-22,9.0E-44,0.0,-2.99788717E15,63,3.3041374E-9,-1.731069E-10,3.7865144E-31,False,False,0,None,-1.4901744E-37,1.7022518E-18,
325008785,13.167,13.992426881384427,66.38573432747204,17,32.578644,31.16659,-9.728255E-4,-0.016990475,-0.978545,0.978693,-2.2965944,6.352275,-4.1572924,7.931508,-125,198,1523,1540.0,0.015709806,0.012341948,0.37971762,0.38024282,0.019978030295793096,0.1514555541563092,0.7254576035241651,-0.6666771638579261,-120.1666075336821,239.8333924663179,-41.410362994047986,20.774224162366874,6.5508868517181185,-128.61663157846456,7.875095853509092,13.193845054255412,50.427471887021284,55.70256652645702,50.56,6.874187798828125,,13.9924262,66.3857342,20190521,143057,2019-05-21T14:30:57Z,72.145,0.63,1.25,8.46,8,9,17,0.02,0.02,0.1,0,0,0,0,5,5,13.992539255594785,66.38567965111348,50,2231004,114,58,289,1986,3466,4001,4016,887,16069,23,3432,17543,0,false,false,false,false,false,false,true,false,false,false,5516,5697,4626,4712,53,67,68,52,1527,1541,1427,1442,1518,1537,1426,1428,0.0,0.0,0.0,0.0,1667.4,1663.1,1661.9,1667.4,4.52,4.02,3.07,2.62,0,0,0,0,177.09949411484604,13.992427300245287,66.3857337779144,0,32.6421,31.782242,2.557265E-4,-0.0057963375,-0.98040515,0.9804223,10.884275,5.536357,13.156964,17.950611,-128,198,1526,1544.0,8.43023E-4,-0.017301697,0.33607715,0.33652326,0.017322223158913453,0.16086466811953384,0.7166774223590243,-0.6585294643164863,-119.30744838737603,240.69255161262396,-34.428136595815864,24.765626535749828,7.314461881003651,-129.13306728115285,7.816099116080347,13.675830254572983,50.96243220761189,56.237526847047626,50.53,NONE,0.0,0.0,0.0,NONE,-8.661548093723154E-10,2.998435807178672E-11,8.4114075E-4,2,49.79,52.63,39.11,38.4,16.812,16.812,5.993,7.464638,0,3317,4.202,12.0,7.125,96,28.0,OK,80,0,0,0,0,0,65,100,0.0,0,0.0,1.1702538E-21,9.0E-44,0.0,-2.99788717E15,63,4.154117E-9,-1.9296657E-10,3.6628336E-31,False,False,0,None,-1.4356758E-37,1.9432658E-18,
328870132,14.171,13.992427272637508,66.385734920737,17,32.468044,30.979717,-5.2367686E-5,-0.0095401155,-0.98984045,0.9898864,-7.764457,-0.90483975,-8.4814,11.534283,-151,192,1523,1542.0,0.032121856,-0.05348699,0.17651114,0.18721339,0.062391279699356976,0.005598747382580906,0.3838171159845637,0.11692800948338138,-120.03807705467017,239.96192294532983,-42.062574651409236,21.039967447262292,5.8774770585316105,-129.1283746460587,7.915141517314723,13.28689833733501,-41.150320292583956,-35.87522565314822,50.87,6.763588281005859,,13.9924263,66.3857347,20190521,143058,2019-05-21T14:30:58Z,71.983,0.63,1.25,8.45,8,9,17,0.04,-0.05,0.15,0,0,0,0,5,5,13.992539255594785,66.38567965111348,50,2231004,18,58,290,1987,3458,4021,4035,3571,16095,23,1,16158,0,false,false,false,false,false,false,true,false,false,false,5709,5676,4752,4637,51,69,68,53,1541,1546,1436,1435,1535,1535,1434,1423,0.0,0.0,0.0,0.0,1666.2,1661.9,1660.7,1666.8,4.56,4.03,3.11,2.46,0,0,0,0,177.6474882549505,13.992427255162792,66.38573447122572,0,32.48918,31.590576,6.0688355E-4,-0.007854202,-0.98837346,0.98840487,-4.663292,2.126962,-4.9102693,7.0979576,-151,192,1523,1542.0,0.0073308507,-0.049745865,0.19675842,0.20308192,0.05028312318224691,0.026563168006393398,0.20098800601432604,0.004338613096773148,-119.29964054779609,240.7003594522039,-33.047960192238406,26.429836276034653,8.373101177711172,-128.9505287884929,7.8768879455980745,13.784555030890338,12.165461670215631,17.440556309651367,50.86,NONE,0.0,0.0,0.0,NONE,-2.951342445775252E-9,6.853567749571063E-11,5.836487E-4,2,52.09,51.61,39.17,38.4,16.797,16.797,5.981,7.5640864,0,3315,4.199,12.0,7.116,96,28.0,OK,81,0,0,0,0,0,65,100,0.0,0,0.0,2.0577152E-21,9.0E-44,0.0,-2.99788717E15,63,3.3501237E-9,-1.745422E-10,3.9083295E-31,False,False,0,None,-1.5438695E-37,1.712125E-18,
332718332,15.171,13.992427532824177,66.38573523291622,17,32.334,30.995293,-0.0013782806,-0.006484911,-0.97418654,0.9742091,11.632713,-5.654327,16.177374,20.712288,-136,189,1523,1540.0,-0.010384304,-0.031965867,0.1347254,0.13885455,0.03361027215647393,0.0029812297022426826,0.19232760450273184,0.14316517699506673,-117.60202184275781,242.3979781572422,-40.014986294792465,20.79461318347415,4.659582360360494,-125.71161887484209,7.93485088910529,13.365174805268769,92.47370020805245,97.74879484748818,51.13,6.629543633789062,,13.9924265,66.3857351,20190521,143059,2019-05-21T14:30:59Z,71.893,0.63,1.25,8.49,8,9,17,0.02,-0.04,0.1,0,0,5219,0,5,5,13.992539255594785,66.38567965111348,50,2233846,114,99,291,3458,3458,4383,4391,275,17569,26,3466,17557,0,false,false,false,false,false,false,true,false,false,false,5592,5698,4592,4710,52,68,68,52,1536,1544,1428,1436,1527,1535,1427,1434,0.0,0.0,0.0,0.0,1661.9,1658.2,1657.0,1661.3,4.3,4.07,2.8,2.7,0,0,0,0,-179.6541544246268,13.99242755221958,66.38573455521995,0,32.42384,31.579214,-9.919731E-4,-0.008870253,-0.97676474,0.97680557,10.598145,-2.9971228,14.3567915,18.094774,-136,189,1520,1537.0,-0.013528235,-0.028809344,0.15486161,0.15809841,0.03182752606371925,-0.015633813048125587,-0.07139209237615636,0.02894378372396523,-116.86629235305954,243.13370764694048,-31.345758299071726,26.065769466369648,8.246257861608761,-125.3143713717988,7.875752212883126,13.855634969078034,72.72311032846548,77.99820496790122,51.13,NONE,0.0,0.0,0.0,NONE,-1.6360702994401842E-9,-3.0412707025378805E-10,3.8337708E-4,2,51.55,52.09,37.8,38.63,16.798,16.798,5.988,7.593457,0,3313,4.202,12.0,7.186,96,28.1,OK,82,0,0,0,0,0,65,100,0.0,0,0.0,2.5804416E-21,9.0E-44,0.0,-2.99788717E15,63,3.2953267E-9,-1.7282979E-10,3.9333064E-31,False,False,0,None,-1.554861E-37,1.7003195E-18,
336567679,16.171,13.992427715239286,66.38573555792432,17,32.35832,30.987669,-6.383383E-4,-9.054467E-4,-0.9429683,0.94296896,-4.0007305,-7.80036,-2.1608088,9.028873,-128,189,1526,1542.0,0.0031396758,0.003052829,0.21109343,0.21113884,0.0043791927104427164,0.03264633866952729,-0.16926775565097654,-0.12411436344322584,-117.31099547229442,242.68900452770558,-39.76374415176449,20.686176836524208,4.50234786452317,-124.15878392522016,7.9579566266789765,13.413370287973477,36.616575540707814,41.89167018014355,51.41,6.6538623288574215,,13.9924268,66.3857352,20190521,143100,2019-05-21T14:31:00Z,71.707,0.63,1.25,8.54,8,9,17,0.02,0.02,0.12,0,0,0,0,5,5,13.992539255594785,66.38567965111348,50,2234290,19,100,292,3460,3460,4389,4397,172,17608,26,1,17610,0,false,false,false,false,false,false,true,false,false,false,5543,5528,4594,4535,54,69,69,54,1527,1526,1426,1428,1517,1521,1432,1423,0.0,0.0,0.0,0.0,1663.7,1658.2,1658.2,1662.5,4.39,3.76,2.99,2.3,0,0,0,0,178.70206846011789,13.992427695732895,66.38573496585757,0,32.342464,31.720135,-3.2305717E-4,-3.6693458E-4,-0.9423981,0.9423982,-2.5336893,-9.837373,0.1498966,10.159525,-128,186,1523,1539.0,-0.015673835,0.009663361,0.15434639,0.15544085,0.018413300687467767,0.02767307871490172,-0.41683623479084514,-0.23581974214731397,-116.458964582728,243.54103541727198,-31.365927558804053,25.287263070220284,7.636935048668044,-124.26548009489534,7.907180993021486,13.930171305785208,58.19876697546011,63.473861614895846,51.43,NONE,0.0,0.0,0.0,NONE,-1.6253770395116916E-9,-9.59499484017176E-10,0.0011825562,2,49.5,49.94,38.84,37.65,16.796,16.796,5.978,7.5775127,0,3311,4.193,12.0,7.154,96,28.1,OK,83,0,0,0,0,0,65,100,0.0,0,0.0,3.659964E-21,9.0E-44,0.0,-2.99788717E15,63,3.5844891E-9,-1.8186434E-10,4.2579015E-31,False,False,0,None,-1.6288173E-37,1.7903764E-18,
340589519,17.217,13.992427660693327,66.38573517247815,16,32.350616,30.775951,0.0036222667,-3.9417995E-4,-1.0099108,1.0099174,12.341309,5.7434,11.549929,17.852041,-128,195,1520,1537.0,-0.029424988,-0.01180964,0.2060819,0.2085067,0.03170642721463877,0.009363298615862381,0.21388891938553795,-0.07727209073143104,-117.34894281393943,242.65105718606057,-38.803019972355095,21.989882697531947,4.15911323057411,-124.48596948450417,7.92604440126588,13.472843965142273,-50.59301302712599,-45.317918387690256,51.73,6.646160455078125,,13.9924273,66.3857354,20190521,143101,2019-05-21T14:31:01Z,71.536,0.65,1.28,8.5,8,8,16,-0.02,-0.04,0.21,0,0,0,0,5,5,13.992539255594785,66.38567965111348,50,2234290,48,100,293,3460,3460,4388,4395,175,17608,26,212,17603,0,false,false,false,false,false,false,true,false,false,false,5764,5781,4721,4702,54,69,70,54,1552,1557,1440,1441,1546,1547,1435,1435,0.0,0.0,0.0,0.0,1658.2,1653.3,1653.3,1658.8,4.74,4.18,3.13,2.68,0,0,0,0,179.02806304936533,13.992427706009023,66.38573476836463,0,32.527653,31.532295,0.0010689141,-0.0022631409,-1.0079533,1.0079564,12.324477,-2.936487,12.36769,17.705238,-131,192,1520,1537.0,-0.045058887,-0.013782905,0.24829033,0.2527219,0.0471197582856644,-0.02610582814540483,-0.08689549187762888,-0.1532110767512569,-116.38113260294163,243.61886739705835,-30.555451765466575,26.334283461681654,6.687760696814583,-124.80353257597687,7.889822733583298,14.004785349463228,-154.82031192990107,-149.54521729046533,51.74,NONE,0.0,0.0,0.0,NONE,-2.331132882097266E-9,-2.994152445391955E-9,0.0018978119,2,53.27,52.73,39.49,40.45,16.79,16.79,5.975,7.531617,0,3309,4.195,12.0,7.04,96,28.1,OK,84,0,0,0,0,0,65,100,0.0,0,0.0,3.3629545E-21,9.0E-44,0.0,-2.99788717E15,63,3.2454182E-9,-1.7127015E-10,4.0506233E-31,False,False,0,None,-1.5831579E-37,1.6895992E-18,
344467888,18.224,13.992428611232262,66.38573527956136,17,32.136658,30.789906,-0.010136831,-0.0116232,-0.98077315,0.9808944,9.260846,-2.170801,67.8194,68.483185,0,263,1517,1539.0,-0.08466789,-0.0037861522,0.046971083,0.09689824,0.08475250404081625,-0.041118776646417186,0.5129133659609276,-0.3154197125002303,-92.72731889709878,267.27268110290123,-13.949378596704047,23.00447955156027,7.2581938957994785,-91.92067007041103,7.9088701778975565,13.569971103039313,141.72975735877176,147.0048519982075,52.1,6.43220171484375,,13.9924276,66.3857352,20190521,143102,2019-05-21T14:31:02Z,71.457,0.63,1.25,8.53,8,9,17,-0.02,-0.03,0.1,0,0,9998,0,5,5,13.992539255594785,66.38567965111348,50,2234290,48,100,294,3460,3460,4388,4395,175,17608,26,212,17603,0,false,false,false,false,false,false,true,false,false,false,5670,5750,4782,4638,55,68,68,55,1543,1555,1456,1433,1538,1543,1445,1428,0.0,0.0,0.0,0.0,1658.2,1653.9,1652.7,1658.8,4.55,4.06,3.35,2.58,0,0,0,0,173.60950468535302,13.992428669796814,66.3857346435148,0,32.215927,31.401262,-0.010922481,-0.01144826,-0.98230153,0.98242897,12.601994,2.2205954,68.69145,69.873146,-5,257,1517,1538.0,-0.06705656,0.013695914,0.08217327,0.10694208,0.06844092681657624,-0.02367960732735734,0.269129833400252,-0.2619282066925076,-92.35403770298032,267.64596229701965,-4.929274493332836,28.46193060409988,10.318460000453253,-92.73585140864976,7.852042390167432,14.089122609349811,122.65913306122121,127.93422770065695,52.06,NONE,0.0,0.0,0.0,NONE,2.673317583587864E-10,-1.2079413527146168E-9,2.4795532E-4,2,52.63,52.76,40.16,38.7,16.783,16.783,5.975,7.4728913,0,3307,4.193,12.0,7.434,96,28.1,OK,85,0,0,0,0,0,65,100,0.0,0,0.0,4.392019E-21,9.0E-44,0.0,-2.99788717E15,63,2.812783E-9,-1.5775208E-10,3.8147413E-31,False,False,0,None,-1.5026009E-37,1.5964785E-18,
348380624,19.241,13.992429607313488,66.3857346435856,17,31.991116,30.855389,-0.02163573,-0.022774115,-0.9843418,0.9848429,1.3728241,-82.72042,3.934631,82.825325,516,241,1449,1556.0,0.048159994,-0.12215179,0.03650982,0.1362843,0.13130287910360502,-0.04920746545837133,0.5848783826645464,-13.161844897309784,-47.91017022770736,312.08982977229266,31.23941342463837,23.74998861786223,-5.85914511411372,-52.75680864970293,7.82591986727345,13.657504631137462,-132.14267466454766,-126.86758002511193,52.35,6.286659570068359,,13.9924296,66.385735,20190521,143103,2019-05-21T14:31:03Z,71.368,0.63,1.25,8.56,8,9,17,-0.04,0.06,0.03,0,9803,0,0,5,5,13.992539255594785,66.38567965111348,50,2234290,48,100,295,3460,3460,4388,4395,175,17608,26,212,17603,0,false,false,false,false,false,false,true,false,false,false,5564,5816,4810,4915,56,70,70,56,1554,1577,1424,1438,1545,1566,1434,1445,0.0,0.0,0.0,0.0,1655.8,1653.3,1650.8,1655.8,5.18,4.44,2.94,2.27,0,0,0,0,174.92420865274326,13.992429658382054,66.3857341299158,0,31.977901,31.376366,-0.019056508,-0.023235597,-0.9758032,0.97626585,0.7979504,-77.58497,2.3898356,77.62587,473,238,1461,1553.0,0.04290785,-0.09461753,0.04967844,0.115158625,0.10389206025745358,-0.03297640224300978,0.42594870470177565,-12.314258024878125,-46.97033386000858,313.02966613999143,40.19571800738906,28.31425485995741,-3.9335036376409773,-56.5314747040026,7.779944548289218,14.1839991911261,,,52.32,NONE,0.0,0.0,0.0,NONE,-3.956509933430608E-9,5.054506400031067E-10,1.2207031E-4,2,53.07,55.84,38.85,40.17,16.761,16.761,5.957,7.423366,0,3305,4.192,12.0,7.393,96,28.2,OK,86,0,0,0,0,0,65,100,0.0,0,0.0,4.842212E-21,9.0E-44,0.0,-1.4206529E23,63,2.7232545E-9,-1.5495254E-10,3.4971434E-31,False,False,0,None,-1.3626379E-37,1.5772085E-18,
352256618,20.249,13.992405079148824,66.38574451442818,17,32.51303,30.91994,-0.06160094,-0.031459898,-1.0183009,1.0206474,5.0168734,8.8685665,-3.6978512,10.839493,762,288,1334,1563.0,2.1413393,-2.345912,0.031683847,3.1764195,3.176261386963521,-1.6389102141348293,1.6061916084823218,-19.406086519821855,-53.838403438312525,306.1615965616875,28.02074815286898,25.33264837467409,-13.81081786060898,-42.542158618417865,9.36688045212664,15.208685903508234,-45.91997261737509,-40.64487797793935,52.61,6.808575005859375,,13.9924094,66.3857436,20190521,143104,2019-05-21T14:31:04Z,71.37,0.63,1.25,8.62,8,9,17,1.81,-1.82,0.01,0,7064,-9937,0,5,5,13.992539255594785,66.38567965111348,50,2234290,48,100,296,3460,3460,4388,4395,175,17608,26,212,17603,0,false,false,false,false,false,false,true,false,false,false,5321,5704,5330,5192,55,69,69,55,1480,1562,1459,1525,1450,1579,1419,1541,0.0,0.0,0.0,0.0,1654.6,1652.1,1651.5,1656.4,3.18,4.08,3.14,4.11,0,0,0,0,133.99295134001727,13.99240105299778,66.38574608175618,0,32.064487,31.382965,-0.07212849,-0.045959953,-0.9977831,1.001442,-0.49993998,5.203814,-40.45383,40.79022,742,291,1348,1565.0,2.3297076,-2.5531676,0.023918211,3.4564106,3.4563278603363434,-1.6286689227372515,2.153433085172067,-18.42064011839855,-55.971261222868584,304.0287387771314,34.762283567948785,29.659718195716906,-12.081473627434564,-41.142204674031824,9.61553550659362,16.028230188758165,-46.528445797224656,-41.25335115778892,52.64,NONE,0.0,0.0,0.0,NONE,-1.0202451417876282E-7,3.9073904544968146E-8,1.8501282E-4,2,40.85,57.88,36.81,53.61,16.741,16.741,5.948,7.4010725,0,3303,4.186,12.0,7.945,96,28.2,OK,87,0,0,0,0,0,65,100,0.0,0,0.0,1.0820298E-21,9.0E-44,0.0,-1.4206529E23,63,2.7424107E-9,-1.5555295E-10,8.326616E-30,False,False,0,None,-2.484288E-36,1.5813643E-18,
356134171,21.256,13.992343204199093,66.38576812346595,17,33.292534,30.963137,-0.050126098,-0.04113014,-1.0785319,1.0804791,35.616535,-87.31924,-6.584659,94.533295,-188,-91,1559,1572.0,1.4701824,-1.8275181,0.115610704,2.3483238,2.345476252298807,1.4314598880386087,-9.230450932474646,2.957047674530334,-92.43251928038613,267.56748071961385,-5.196068724667513,9.30902611239122,14.282538352894113,-123.88257168538067,13.154367663291714,19.017920397643145,-54.825081263931914,-49.54998662449618,52.89,7.588077874511718,,13.9923488,66.385766,20190521,143105,2019-05-21T14:31:05Z,71.385,0.63,1.25,8.66,8,9,17,2.34,-2.68,-0.02,0,6251,0,0,5,5,13.992539255594785,66.38567965111348,50,2237126,16,100,297,3484,3462,4369,4374,-530,17478,26,0,16826,0,false,false,false,false,false,false,true,false,false,false,5075,5598,5757,5307,55,70,70,56,1497,1570,1543,1530,1492,1514,1526,1544,0.0,0.0,0.0,0.0,1649.6,1645.3,1645.3,1649.0,4.46,5.11,3.94,3.58,0,0,0,0,68.10727449115683,13.992342683695748,66.38576778429142,0,33.311028,31.32998,-0.044598736,-0.0374034,-1.0555496,1.0571532,25.879105,-98.812294,-10.310533,102.66404,-239,-116,1550,1572.0,1.409206,-1.924282,0.15325917,2.3900232,2.385104318572593,1.1348421491935512,-9.873226594981332,3.2451779805092635,-91.15673647910538,268.84326352089465,0.6974411711761896,9.908480851994513,14.659855751813348,-134.91518280792866,13.141621697748965,19.5767053238478,-53.675007535022594,-48.39991289558686,52.88,NONE,0.0,0.0,0.0,NONE,-3.633363916456576E-7,1.1415474236177096E-7,0.0010910034,2,47.05,49.53,50.29,53.77,16.747,16.747,5.946,7.410446,0,3301,4.186,12.0,7.5,96,28.2,OK,88,0,0,0,0,0,65,100,0.0,0,0.0,4.8756804E-23,9.0E-44,0.0,-1.4206529E23,63,2.5995064E-9,-1.5108718E-10,4.6316254E-27,False,False,0,None,-8.284414E-34,1.5506064E-18,
359982658,22.257,13.992279772160682,66.38577731826653,17,32.322655,31.02914,-0.08407646,-0.037833627,-1.0038548,1.0080796,-1.80024,16.03813,-5.628473,17.092169,524,278,1446,1562.0,0.624312,-3.951208,0.02336891,4.000294,4.000226252832775,-0.9961460527964583,0.06687200488643495,-18.94360505711293,-95.12315215177011,264.8768478482299,-9.629414053242966,18.714757864653475,-7.495678613426788,-84.60624603207711,15.859630139745969,22.075919327019655,-87.13076222262535,-81.85566758318961,53.22,6.618198724121093,,13.9922943,66.3857762,20190521,143106,2019-05-21T14:31:06Z,71.335,0.63,1.25,8.65,8,9,17,0.79,-3.23,0.0,0,8929,0,0,5,5,13.992539255594785,66.38567965111348,50,2237127,20,100,298,3484,3462,4351,4360,-1279,17478,26,2,17304,0,false,false,false,false,false,false,true,false,false,false,5039,5360,5258,5190,55,70,70,55,1471,1509,1498,1494,1467,1503,1490,1478,0.0,0.0,0.0,0.0,1662.5,1657.6,1657.0,1661.3,3.46,3.33,3.95,3.54,0,0,0,0,82.8206061481145,13.992281530140486,66.38577657801711,0,32.288303,31.3762,-0.08372997,-0.03607675,-1.0041677,1.008298,1.5841978,11.632223,-0.47319913,11.749137,524,281,1446,1563.0,0.57234216,-3.9048822,0.03655982,3.946773,3.9466036959298374,-1.0530989117188536,-0.4117281214281907,-18.70982331910323,-93.8398923395057,266.1601076604943,-6.522256283624166,16.84686259199454,-9.505326794017158,-83.51380182088299,15.746201910125352,22.515073755330537,-85.42651627378332,-80.15142163434759,53.22,NONE,0.0,0.0,0.0,NONE,-1.7013020336284099E-7,1.6320058839890248E-8,3.4332275E-5,2,44.91,49.3,44.81,44.59,16.771,16.771,5.966,7.4391155,0,3299,4.175,12.0,7.825,96,28.3,OK,89,0,0,0,0,0,65,100,0.0,0,0.0,2.3558542E-26,9.0E-44,0.0,-1.4206529E23,63,2.7235956E-9,-1.549632E-10,4.512696E-25,False,False,0,None,-6.0605103E-32,1.5772879E-18,
363831659,23.257,13.992183398128976,66.38578138483643,17,31.995625,30.980597,-0.047759518,-0.058752112,-1.0835289,1.086171,19.010065,2.8074493,2.7476552,19.411697,-689,-91,1402,1564.0,0.30964965,-3.1238208,0.20308487,3.1456928,3.1391303458128226,1.17585965899418,-9.559020162627839,25.57060735545109,-109.0705286901626,250.9294713098374,-27.704195751926367,13.884833025343426,31.617270870652224,-97.27236391040323,19.47333900050154,26.39393536734527,-89.58236707201127,-84.30727243257553,53.57,6.291168542236328,,13.9921961,66.3857807,20190521,143107,2019-05-21T14:31:07Z,71.447,0.63,1.25,8.61,8,9,17,0.38,-4.54,-0.07,0,0,-5515,0,5,5,13.992539255594785,66.38567965111348,50,2237128,114,100,299,3483,3462,4316,4331,-2716,17262,26,3460,17398,0,false,false,false,false,false,false,true,false,false,false,4883,5404,5849,6176,55,70,70,55,1510,1557,1531,1628,1471,1552,1547,1619,0.0,0.0,0.0,0.0,1642.9,1638.0,1638.6,1643.5,5.04,5.22,4.23,6.17,0,0,0,0,6.369136315063258,13.992182591605888,66.38578078526001,0,31.998268,31.299898,-0.04974198,-0.057670597,-1.0692666,1.0719754,18.934702,7.9567075,0.65214133,20.548904,-683,-85,1408,1567.0,0.22893512,-3.3159578,0.17072046,3.3282325,3.323851227755678,1.1063397870879874,-9.991969562560246,25.21608770830111,-107.39595431023301,252.604045689767,-22.842124837720547,9.215220115292608,30.019862343203577,-97.40642667007927,19.46399611841126,26.948943423830517,-91.54671363166956,-86.27161899223383,53.57,NONE,0.0,0.0,0.0,NONE,-2.195332429919959E-7,6.271014763515617E-9,1.6784668E-4,2,43.95,55.51,53.9,62.13,16.744,16.744,5.94,7.4657674,1589,3297,4.193,12.0,7.018,96,28.3,OK,90,0,0,0,0,0,65,100,0.0,0,0.0,1.0536642E-31,9.0E-44,0.0,-1.4206529E23,63,2.5157192E-9,-1.4846883E-10,3.5955384E-22,False,False,0,None,-2.7995318E-29,1.5325805E-18,
367886682,24.311,13.992154425618434,66.38578165309978,17,32.29351,31.017208,-0.0109030185,0.01595188,-0.97958094,0.9797715,9.595288,-12.330394,-4.380416,16.226404,-199,136,1535,1553.0,-0.04869549,-0.22941174,-0.06395561,0.24308705,0.23452291589475166,0.9903198975976553,-1.370615366206385,1.8388547517222318,-117.97995151515887,242.02004848484114,-35.21217493664157,24.115542972766693,8.916010229999497,-130.93450934164204,20.55389438270467,27.706137211232676,-114.12522165272227,-108.85012701328654,53.82,6.589054437011718,,13.9921549,66.3857811,20190521,143108,2019-05-21T14:31:08Z,71.413,0.63,1.25,8.61,8,9,17,-0.08,-0.44,-0.03,0,2111,-1508,0,5,5,13.992539255594785,66.38567965111348,50,2237451,48,98,300,3366,3462,4321,4325,-1104,17276,28,212,17271,0,false,false,false,false,false,false,true,false,false,false,5715,5615,4740,4659,55,70,71,56,1559,1524,1461,1420,1544,1525,1440,1432,0.0,0.0,0.0,0.0,1660.0,1655.8,1654.6,1658.8,5.38,3.34,4.0,1.76,0,0,0,0,-179.43625858041784,13.992154217466725,66.38578071972312,0,32.14026,31.223755,-0.009692218,0.009449956,-0.97739416,0.9774879,6.3745193,-15.179631,-7.387647,18.045305,-205,133,1535,1554.0,-0.04905832,-0.17715892,-0.039409626,0.18800299,0.18382601553974798,1.015419675504292,-1.421686345937848,1.6197989339530163,-116.85997273325216,243.14002726674784,-30.829508703254998,19.147186470512274,10.254639425586145,-133.38004602431556,20.504559789720734,28.249546466384075,176.3611405065562,-178.36376485400805,53.83,NONE,0.0,0.0,0.0,NONE,-3.092499611962906E-8,-3.1697753101019684E-10,-1.0108948E-4,2,52.74,50.83,40.24,39.77,16.751,16.751,5.954,7.4926996,1583,3295,4.181,12.0,8.492,96,28.3,OK,91,0,0,0,0,0,65,100,0.0,0,0.0,4.087241E-33,9.0E-44,0.0,-1.4206529E23,63,2.2936888E-9,-1.4153038E-10,1.0462093E-21,False,False,0,None,-7.7239035E-29,1.4847761E-18,
371789873,25.325,13.992152686478216,66.38577949020699,17,32.071236,31.126062,-2.2368459E-4,-0.0011527636,-0.9656714,0.96567214,4.2990656,-6.659731,0.13504863,7.927939,-136,183,1532,1548.0,-0.18055028,-0.115058936,0.0052780528,0.21416074,0.21409568598992082,0.03498260408013834,-0.018266589921987708,0.07298799040130727,-118.60343408398104,241.39656591601897,-37.16560911774269,25.546630869428725,9.330836436457652,-126.15018377260353,20.48722798561892,27.97701943942716,144.9287895164832,150.20388415591893,54.19,6.366779656738281,,13.9921525,66.3857799,20190521,143109,2019-05-21T14:31:09Z,71.48,0.63,1.25,8.58,8,9,17,-0.18,-0.16,-0.02,0,3541,-1961,0,5,5,13.992539255594785,66.38567965111348,50,2237452,17,98,301,3366,3462,4321,4326,-1043,17277,28,0,17271,0,false,false,false,false,false,false,true,false,false,false,5429,5533,4770,4831,56,71,72,56,1521,1533,1459,1458,1520,1523,1440,1444,0.0,0.0,0.0,0.0,1660.0,1655.8,1655.8,1660.0,4.21,3.67,3.52,3.14,0,0,0,0,178.19037528098937,13.992152648006224,66.38577913507638,0,32.258842,31.310963,-4.4204143E-4,-0.0022162725,-0.96748877,0.9674914,3.304824,-3.1688056,1.2603744,4.7488666,-136,183,1535,1551.0,-0.18961978,-0.20990394,0.019034544,0.2835095,0.2828698005375415,-0.09599931844760409,-0.08667333816440748,-0.06541553609527413,-117.52584383829969,242.4741561617003,-28.558840326215353,24.664101176472023,13.136745733342682,-126.62390121563399,20.46729863793193,28.496850764835813,96.35776324583236,101.6328578852681,54.17,NONE,0.0,0.0,0.0,NONE,-1.1719845215350778E-8,-4.240645241932908E-9,3.0517578E-5,2,50.37,50.58,40.23,40.91,16.704,16.704,5.958,7.53492,1572,3292,4.188,12.0,7.211,96,28.4,OK,92,0,0,0,0,0,65,100,0.0,0,0.0,1.8080044E-33,9.0E-44,0.0,-1.4206529E23,63,2.5411282E-9,-1.4926109E-10,1.0158621E-21,False,False,0,None,-7.556733E-29,1.5380068E-18,
375643612,26.327,13.992140647401962,66.38577595569534,17,32.521725,31.150616,-0.021924384,0.002054926,-0.97144526,0.9716948,2.8243527,49.639545,6.318204,50.119667,-239,170,1523,1550.0,-0.522512,-0.8107059,0.016781691,0.96464735,0.9645013858158327,-0.3006946257837567,0.1391494168785622,6.996977642921426,-123.27399184630436,236.72600815369566,-42.1475279198987,24.016605636218312,18.784309309621452,-107.25166637072937,20.7342502485142,28.647024275130345,-128.30899737276354,-123.03390273332782,54.55,6.817268700927734,,13.9921434,66.3857767,20190521,143110,2019-05-21T14:31:10Z,71.433,0.63,1.25,8.61,8,9,17,-0.54,-0.87,0.03,0,0,0,0,5,5,13.992539255594785,66.38567965111348,50,2237542,48,98,302,3366,3462,4342,4349,-3,17357,28,212,5,0,false,false,false,false,false,false,true,false,false,false,5527,5565,4930,5060,57,70,69,56,1524,1530,1473,1486,1516,1517,1475,1481,0.0,0.0,0.0,0.0,1657.6,1653.9,1653.3,1657.0,4.42,3.78,3.37,3.08,0,0,0,0,-175.22775275519118,13.992140926688565,66.38577531244472,0,32.278633,31.286448,-0.020630278,-7.5101294E-4,-0.9664419,0.9666624,-0.56609696,42.959568,2.2066844,43.01993,-205,173,1529,1552.0,-0.5682969,-0.9506288,0.045990378,1.1084998,1.107545284008494,-0.43535924057612874,0.12191510122994305,6.265040644337644,-122.24337846463517,237.75662153536484,-33.65817982557265,23.311925037164475,20.701020334853823,-102.25771882344046,20.68672960323114,29.176583583681968,-136.07482224518623,-130.7997276057505,54.54,NONE,0.0,0.0,0.0,NONE,-4.7435424110582835E-8,-1.1154182093622309E-8,1.2397766E-4,2,49.61,49.46,44.63,46.0,16.743,16.743,5.947,7.5642543,1565,3290,4.178,12.0,7.338,96,28.4,OK,93,0,0,0,0,0,65,100,0.0,0,0.0,1.2296553E-34,9.0E-44,0.0,-1.4206529E23,63,2.472973E-9,-1.4713301E-10,1.0480963E-21,False,False,0,None,-7.7343806E-29,1.523369E-18,
379500457,27.329,13.992133658333799,66.38577418491231,17,32.530674,31.212435,-0.022922348,0.00631545,-1.0269586,1.0272338,-5.08716,-25.652273,-5.2510386,26.673803,244,186,1526,1556.0,-0.38304645,-0.4466967,-0.02494122,0.58896905,0.5884407485815518,-0.22096259991437894,0.0491098121428443,-16.323250061632546,-124.22088430862631,235.7791156913737,-42.11418710273162,26.101117537286736,-4.069653953690659,-136.52159434422546,20.9017279065387,29.019291940994066,-129.6802075095389,-124.40511287010317,54.79,6.82621798071289,,13.9921337,66.3857741,20190521,143111,2019-05-21T14:31:11Z,71.515,0.63,1.25,8.56,8,9,17,-0.11,-0.06,0.01,0,7172,0,0,5,5,13.992539255594785,66.38567965111348,50,2237542,48,98,303,3366,3462,4342,4349,-3,17357,28,212,5,0,false,false,false,false,false,false,true,false,false,false,5702,5727,4828,4732,56,71,72,56,1554,1555,1454,1452,1544,1545,1447,1450,0.0,0.0,0.0,0.0,1656.4,1650.8,1652.1,1655.8,4.9,4.16,3.43,2.95,0,0,0,0,176.29581180799582,13.992133543469347,66.38577334244123,0,32.32457,31.269417,-0.021435982,0.006892627,-1.024795,1.0250424,0.7663972,-26.804308,1.2040668,26.842281,223,183,1532,1558.0,-0.39319316,-0.47974876,-0.0033968328,0.62029934,0.6202900322753601,-0.22608607644600032,0.031531785893271255,-16.655097742793405,-123.30834498974542,236.69165501025458,-34.91223888894569,23.802195006069102,-3.0596427710573253,-141.06536304274175,20.85920587863611,29.583308829951015,-147.6514892758147,-142.37639463637896,54.8,NONE,0.0,0.0,0.0,NONE,-1.4585643706348502E-8,-5.508555377685605E-9,-2.2888184E-5,2,52.97,53.55,41.37,40.99,16.734,16.734,5.955,7.564852,1564,3288,4.183,12.0,7.463,95,28.4,OK,94,0,0,0,0,0,65,100,0.0,0,0.0,2.513868E-35,9.0E-44,0.0,-1.4206529E23,63,2.4233486E-9,-1.4558048E-10,1.0758069E-21,False,False,0,None,-7.886914E-29,1.5126752E-18,
383360803,28.333,13.992107481792704,66.38576696385749,17,32.322693,31.247057,-0.03281883,-0.019434959,-0.98093075,0.981672,13.435454,-130.20764,-24.867233,133.24008,-345,68,1508,1548.0,-0.5759236,-0.9270231,0.005112909,1.0913688,1.0913568746311013,0.31969528995370355,-1.028291882826814,-1.3610590111637475,-132.62348002103897,227.37651997896103,-50.16247308601031,25.520098070910166,9.351609363699852,-165.9807510287358,21.543788018841013,30.43790182213491,-121.3157711048248,-116.04067646538907,55.1,6.61823687109375,,13.9921107,66.3857681,20190521,143112,2019-05-21T14:31:12Z,71.632,0.63,1.25,8.5,8,9,17,-0.92,-1.44,-0.04,0,8559,-7646,0,5,5,13.992539255594785,66.38567965111348,50,2237542,48,98,304,3366,3462,4342,4349,-3,17357,28,212,5,0,false,false,false,false,false,false,true,false,false,false,5274,5705,4751,5410,56,72,72,56,1508,1545,1450,1521,1514,1543,1432,1480,0.0,0.0,0.0,0.0,1658.8,1652.7,1653.3,1657.6,3.47,4.47,2.39,4.36,0,0,0,0,-164.42532541871822,13.992104958693327,66.38576597730294,0,32.36762,31.244354,-0.050716568,0.018742379,-1.0286657,1.0300857,-5.3046737,-104.1558,-7.454267,104.55686,-91,87,1541,1546.0,-0.7884135,-1.1190554,0.039004773,1.3694533,1.368897681782571,0.14001516279171722,-0.6483807459577626,-12.805560525235867,-133.2809445422184,226.7190554577816,-43.59062081841686,24.40557136065899,0.39892525066717255,-166.35056013587055,21.59518858520706,31.10533475306141,-128.7375990579701,-123.46250441853438,55.12,NONE,0.0,0.0,0.0,NONE,-1.8422389625877435E-7,-5.15645333086474E-8,2.9182434E-4,2,49.95,52.74,38.26,44.26,16.734,16.734,5.947,7.557856,1565,3286,4.179,12.0,7.628,95,28.4,OK,95,0,0,0,0,0,65,100,0.0,0,0.0,1.6245125E-37,9.0E-44,0.0,-1.4206529E23,63,2.4142537E-9,-1.4529626E-10,1.1589385E-21,False,False,0,None,-8.3449774E-29,1.5107165E-18,
387226396,29.337,13.992063254036916,66.38575201126325,17,31.831059,31.318552,-0.10988257,-0.00971398,-0.7730855,0.7809159,-1.6510059,196.18199,5.28918,196.26022,-50,35,1529,1530.0,-2.7740889,-2.8114855,-0.1321691,3.9518967,3.949685994475517,-1.3837697197153411,-2.56221112516026,11.29328686543911,-140.46915658948853,219.53084341051147,-58.310360178496396,21.38817064046794,17.58179056684778,-22.470994811794977,22.677533537423653,33.025262826272204,-138.41055949976015,-133.13546486032442,55.37,6.126602502197265,,13.9920609,66.3857516,20190521,143114,2019-05-21T14:31:14Z,71.846,0.63,1.25,8.42,8,9,17,-2.72,-2.93,-0.12,0,0,0,0,5,5,13.992539255594785,66.38567965111348,50,2237542,48,98,305,3366,3462,4342,4349,-3,17357,28,212,5,0,false,false,false,false,false,false,true,false,false,false,3843,4228,5703,5555,57,73,73,58,1385,1219,1519,1485,1411,1412,1393,1415,0.0,0.0,0.0,0.0,1673.5,1657.6,1663.7,1672.3,2.4,3.62,7.18,5.96,0,0,0,0,9.494388018701898,13.992057575076695,66.38574948260685,0,31.461245,31.341934,-0.047252823,-0.017428417,-0.8016429,0.8032235,-2.9472232,85.19189,9.263624,85.74473,-595,-20,1440,1558.0,-2.6841648,-2.750611,0.0073985467,3.843261,3.8432539953251865,-1.06003700011249,-2.3942524390734445,22.821429043242674,-139.69461167196894,220.30538832803106,-51.08105170818757,18.318798868401394,32.7614246141827,-76.11209278738549,22.816994324564444,33.907212201035925,-139.19778840232104,-133.9226937628853,55.41,NONE,0.0,0.0,0.0,NONE,-1.672856558450802E-7,-6.327556705656516E-8,-4.9591064E-5,2,37.44,37.14,33.57,36.64,16.738,16.738,5.926,7.557856,1565,3286,4.179,12.0,7.628,95,28.4,OK,95,0,0,0,0,0,65,100,0.0,0,0.0,-7.74693E33,8.8E-44,0.0,3.041665E-35,64,2.6033717E-9,-1.5120442E-10,1.2720296E-21,False,False,0,None,-8.968054E-29,1.5514005E-18,
391078295,30.338,13.992033198349127,66.38574080979626,17,32.56071,31.286587,-0.009651169,-0.028070118,-0.9832414,0.9836893,18.650583,-18.88238,-18.908571,32.587154,-446,-147,1482,1554.0,-0.08762861,0.020275693,-0.04353776,0.09992704,0.08994374204868454,1.7366202563034294,-2.877888016207816,5.931745007464755,-158.83145170093232,201.16854829906768,-76.71916975800644,27.05157680956578,18.17373118431778,165.9757929914833,23.544413925360537,34.87541994995711,-175.8145218345059,-170.53942719507018,55.63,6.8562549069824215,,13.9920334,66.3857401,20190521,143115,2019-05-21T14:31:15Z,71.808,0.63,1.25,8.42,8,9,17,-0.29,-0.13,-0.04,0,0,0,0,5,5,13.992539255594785,66.38567965111348,50,2253386,16,98,306,3362,3475,4334,4339,-616,17340,26,0,16039,0,false,false,false,false,false,false,true,false,false,false,5566,5534,5001,4700,57,72,72,57,1537,1535,1448,1457,1527,1530,1446,1446,0.0,0.0,0.0,0.0,1657.6,1654.6,1652.7,1656.4,4.37,4.04,2.92,2.94,0,0,0,0,169.1159919617388,13.992033060774446,66.385740106131,0,32.55014,31.202528,-0.009382402,-0.024787009,-0.9859504,0.9863066,11.866722,-21.47794,-19.781834,31.518913,-454,-150,1479,1554.0,-0.20555048,-0.12814076,-0.049011707,0.24712993,0.24222108392743888,1.2658804383705813,-2.5988549338021403,5.12068828413033,-158.62513169683473,201.37486830316527,-71.70949879337986,21.720687477082198,18.75321260643328,165.48308345436675,23.52780598654284,35.43333715196143,-143.95772161158547,-138.68262697214973,55.68,NONE,0.0,0.0,0.0,NONE,-2.8444106036750765E-8,-1.6110168724376807E-8,-3.7384033E-4,2,50.97,51.01,40.46,40.99,16.708,16.708,5.942,7.561875,1563,3284,4.179,12.0,7.936,95,28.5,OK,96,0,0,0,0,0,65,100,0.0,0,0.0,-1.4198229E28,8.8E-44,0.0,3.041665E-35,64,2.1875621E-9,-1.3821215E-10,1.4304605E-21,False,False,0,None,-9.840886E-29,1.4619326E-18,
