Tick#,offsetTime,IMU_ATTI(0):Longitude,IMU_ATTI(0):Latitude,IMU_ATTI(0):numSats,IMU_ATTI(0):barometer:Raw,IMU_ATTI(0):barometer:Smooth,IMU_ATTI(0):accel:X,IMU_ATTI(0):accel:Y,IMU_ATTI(0):accel:Z,IMU_ATTI(0):accel:Composite,IMU_ATTI(0):gyro:X,IMU_ATTI(0):gyro:Y,IMU_ATTI(0):gyro:Z,IMU_ATTI(0):gyro:Composite,IMU_ATTI(0):mag:X,IMU_ATTI(0):mag:Y,IMU_ATTI(0):mag:Z,IMU_ATTI(0):mag:Mod,IMU_ATTI(0):velN,IMU_ATTI(0):velE,IMU_ATTI(0):velD,IMU_ATTI(0):velComposite,IMU_ATTI(0):velH,IMU_ATTI(0):GPS-H,IMU_ATTI(0):roll,IMU_ATTI(0):pitch,IMU_ATTI(0):yaw,IMU_ATTI(0):yaw360,IMU_ATTI(0):totalGyro:Z,IMU_ATTI(0):totalGyro:X,IMU_ATTI(0):totalGyro:Y,IMU_ATTI(0):magYaw,IMU_ATTI(0):distanceHP,IMU_ATTI(0):distanceTravelled,IMU_ATTI(0):directionOfTravel[mag],IMU_ATTI(0):directionOfTravel[true],IMU_ATTI(0):temperature,General:relativeHeight,General:absoluteHeight,GPS(0):Long,GPS(0):Lat,GPS(0):Date,GPS(0):Time,GPS:dateTimeStamp,GPS(0):heightMSL,GPS(0):hDOP,GPS(0):pDOP,GPS(0):sAcc,GPS(0):numGPS,GPS(0):numGLNAS,GPS(0):numSV,GPS(0):velN,GPS(0):velE,GPS(0):velD,RC:Aileron,RC:Elevator,RC:Rudder,RC:Throttle,Controller:navHealth,Controller:ctrl_level,HP:Longitude,HP:Latitude,HP:rthHeight,BatBlackBox:tick,BatBlackBox:id,BatBlackBox:rsoc,BatBlackBox:index,BatBlackBox:rm,BatBlackBox:fcc,BatBlackBox:cell_min,BatBlackBox:cell_max,BatBlackBox:current,BatBlackBox:voltage,BatBlackBox:temp,BatBlackBox:flag,BatBlackBox:reserve,BatBlackBox:user_data,OA:avoidObst,OA:emergBrake,OA:radiusLimit,OA:airportLimit,OA:groundForceLanding,OA:horizNearBoundary,OA:vertLowLimit,OA:vertAirportLimit,OA:roofLimit,OA:hitGroundLimit,Motor:Speed:RFront,Motor:Speed:LFront,Motor:Speed:LBack,Motor:Speed:RBack,Motor:EscTemp:RFront,Motor:EscTemp:LFront,Motor:EscTemp:LBack,Motor:EscTemp:RBack,Motor:PPMrecv:RFront,Motor:PPMrecv:LFront,Motor:PPMrecv:LBack,Motor:PPMrecv:RBack,Motor:PPMsend:RFront,Motor:PPMsend:LFront,Motor:PPMsend:LBack,Motor:PPMsend:RBack,Motor:V_out:RFront,Motor:V_out:LFront,Motor:V_out:LBack,Motor:V_out:RBack,Motor:Volts:RFront,Motor:Volts:LFront,Motor:Volts:LBack,Motor:Volts:RBack,Motor:Current:RFront,Motor:Current:LFront,Motor:Current:LBack,Motor:Current:RBack,Motor:Status:RFront,Motor:Status:LFront,Motor:Status:LBack,Motor:Status:RBack,Motor:thrustAngle,IMU_ATTI(1):Longitude,IMU_ATTI(1):Latitude,IMU_ATTI(1):numSats,IMU_ATTI(1):barometer:Raw,IMU_ATTI(1):barometer:Smooth,IMU_ATTI(1):accel:X,IMU_ATTI(1):accel:Y,IMU_ATTI(1):accel:Z,IMU_ATTI(1):accel:Composite,IMU_ATTI(1):gyro:X,IMU_ATTI(1):gyro:Y,IMU_ATTI(1):gyro:Z,IMU_ATTI(1):gyro:Composite,IMU_ATTI(1):mag:X,IMU_ATTI(1):mag:Y,IMU_ATTI(1):mag:Z,IMU_ATTI(1):mag:Mod,IMU_ATTI(1):velN,IMU_ATTI(1):velE,IMU_ATTI(1):velD,IMU_ATTI(1):velComposite,IMU_ATTI(1):velH,IMU_ATTI(1):GPS-H,IMU_ATTI(1):roll,IMU_ATTI(1):pitch,IMU_ATTI(1):yaw,IMU_ATTI(1):yaw360,IMU_ATTI(1):totalGyro:Z,IMU_ATTI(1):totalGyro:X,IMU_ATTI(1):totalGyro:Y,IMU_ATTI(1):magYaw,IMU_ATTI(1):distanceHP,IMU_ATTI(1):distanceTravelled,IMU_ATTI(1):directionOfTravel[mag],IMU_ATTI(1):directionOfTravel[true],IMU_ATTI(1):temperature,IMUEX(0):err,IMUEX(0):rtk_Longitude,IMUEX(0):rtk_Latitude,IMUEX(0):rtk_Alti,IMUEX(1):err,IMUEX(1):rtk_Longitude,IMUEX(1):rtk_Latitude,IMUEX(1):rtk_Alti,MotorCtrl:Status,MotorCtrl:PWM:RFront,MotorCtrl:PWM:LFront,MotorCtrl:PWM:LBack,MotorCtrl:PWM:RBack,BattInfo:Voltage,BattInfo:BatVoltage,BattInfo:AdVoltage,BattInfo:AvgCurrent,BattInfo:R_time,BattInfo:R_CAP_MAH,BattInfo:LowCellVoltage,BattInfo:LowCellVolThreshold,BattInfo:BatCurrent,BattInfo:Remaining%,BattInfo:Temp,BattInfo:status,battery_info:BatDynCnt,battery_info:Vol1Protect,battery_info:Vol2Protect,battery_info:Cap1Protect,battery_info:Cap2Protect,battery_info:Batpresent,battery_info:sopPercentage,battery_info:sopValue,battery_info:sopScale,battery_info:sopFlg,BattInfo:WindHeading:WindDir,battery_info:home_dir,BattInfo:Wind:rangeMin,BattInfo:Wind:rangeMax,battery_info:cap_speed,battery_info:against_wind,battery_info:emergency_land_cap,battery_info:intel_bat_land_cap,battery_info:intel_bat_gh_cap,BattInfo:Smart:SmartGh,BattInfo:Smart:SmartLand,BattInfo:GoHome:CntDown,BattInfo:GoHome:GhCmd,BattInfo:GoHome:CapLevel,BattInfo:GoHome:LandCapLv,Attribute|Value,ConvertDatV3,3.6.6-Tablet
259117883,.000,14.097594336339268,66.33168840180635,16,2.6766698,2.7969828,0.05120299,-0.020162033,-0.9788957,0.9804413,0.3633787,0.13646933,0.113907784,0.40452802,-343,38,1502,1541.0,0.024236841,0.020520674,-0.01276526,0.03422681,0.03175724453377146,-0.03175724453377146,1.129324745295004,3.050205755150846,-173.5139213096407,186.4860786903593,3.4418504831435155,9.934949095065177,0.11079970893525512,-178.1699238832276,1.058103123130976,1.8301808001674391,153.9626896659907,159.28555740408967,44.38,,,14.0975941,66.3316879,20190519,125501,2019-05-19T12:55:01Z,43.8,0.65,1.39,8.05,10,6,16,0.01,-0.01,0.0,-9998,-9998,9998,-9998,5,5,14.097573354452116,66.33169282929443,50,1810938,48,98,178,3372,3452,4318,4321,-1011,17281,24,212,17280,0,false,false,false,false,false,false,false,false,false,false,0,0,0,0,47,59,59,46,944,944,944,945,940,940,940,940,0.0,0.0,0.0,0.0,1722.0,1717.1,1715.9,1722.0,0.0,0.0,0.0,0.0,0,0,0,0,-45.0,14.09759425301726,66.33168770086709,0,2.753297,2.6936624,0.050844777,-0.01996189,-0.9786914,0.98021454,0.37429693,-0.19837636,0.16451848,0.4544422,-343,38,1505,1544.0,0.0019213952,0.0011832203,-0.0020829684,0.0030709163,0.0022564950051102857,-0.0022564950051102857,1.0792300149109675,3.5444371372838273,-170.0322667026725,189.9677332973275,3.3478536293265932,10.217172951557126,-0.08816230850348128,-177.78382552632206,1.0933648225277963,2.0167071032258614,145.65086152966546,150.97372926776444,44.4,NONE,0.0,0.0,0.0,NONE,-1.661815923353274E-10,1.1976228898990597E-10,1.1444092E-5,,,,,,17.323,17.323,6.191,1.2138524,0,3404,4.329,12.0,1.216,99,23.7,OK,63,0,0,0,0,0,65,100,0.0,0,0.0,-3.5102396E-37,2.68E-43,0.0,-1.05007105E-23,62,6.1846084E-12,-6.1846374E-12,4.1762492E-37,False,False,0,None,6.332682E30,1.0842106E-19,Firmware Date| Oct 17 2018
263186985,1.058,14.097594555092327,66.33168781528092,16,2.7189472,2.7764544,0.048074596,-0.02251378,-0.98298246,0.9844148,-0.030071082,0.42054963,0.2071532,0.46976453,-345,35,1502,1541.0,0.050025884,0.034813855,-0.008233235,0.061501056,0.06094746584585095,0.0014100043943988325,1.141830294392578,3.049240636776102,-173.52173971759396,186.47826028240604,4.141812278856402,10.11252553506946,0.34800789046560154,-178.90396388227109,1.0983799067964373,1.8979033015328592,-174.6290713759771,-169.30620363787813,44.68,,,14.0975944,66.3316874,20190519,125502,2019-05-19T12:55:02Z,43.768,0.65,1.39,8.01,10,6,16,-0.03,0.0,0.0,0,0,0,0,5,5,14.097573354452116,66.33169282929443,50,1810938,17,98,179,3372,3452,4319,4323,-958,17285,24,0,17280,0,false,false,false,false,false,false,false,false,false,false,567,559,536,562,51,63,63,51,1320,1329,1325,1323,1312,1312,1312,1312,0.1,0.1,0.1,0.1,1690.1,1684.0,1684.0,1690.7,7.88,7.3,7.98,7.57,0,0,0,0,-129.47245984834382,14.097594565025505,66.33168717922469,0,2.7189472,2.6914701,0.048759945,-0.028399747,-0.98166436,0.9832848,0.25675607,0.4336603,-0.23543064,0.5562486,-345,35,1508,1547.0,0.011961201,-4.9024227E-4,0.001603457,0.012078152,0.011971243914858449,0.044435669265714836,1.08103064874058,3.5643308192912193,-170.02906750993992,189.97093249006008,3.2219151021529107,10.488142979300191,-0.28219770445109094,-178.5040830353006,1.136285378159886,2.080747716305572,136.95859726874443,142.2814650068434,44.75,NONE,0.0,0.0,0.0,NONE,2.039027661206979E-10,4.891555371940084E-10,1.0967255E-5,1,22.5,22.5,22.5,22.5,17.314,17.314,6.073,1.2142334,0,3403,4.329,12.0,1.223,99,23.7,OK,64,0,0,0,0,0,65,100,0.0,0,0.0,4.3846513E36,2.68E-43,0.0,-1.05007105E-23,62,6.1846084E-12,-6.1846374E-12,4.7572235E-37,False,False,0,None,7.7826195E30,1.0842106E-19,ACType|MavicEnterprise
267044501,2.060,14.097594930892503,66.33168742997927,16,2.7189472,2.7772748,0.051554486,-0.017282952,-0.97811216,0.97962236,-0.93596315,0.45841444,-2.9390595,3.1183717,-343,38,1502,1541.0,-0.022287281,-0.0030938112,-0.008069111,0.023904083,0.022500991093725362,0.023392532478320145,1.1380753681943319,2.9643103442633993,-173.53632230674046,186.46367769325954,3.8115592701137087,10.445698085958865,-0.046404700541589704,-178.23523613436134,1.1349358042856759,1.9614709270047528,-164.72397446144586,-159.40110672334689,44.99,,,14.0975946,66.3316871,20190519,125503,2019-05-19T12:55:03Z,43.721,0.65,1.39,8.0,10,6,16,0.03,0.0,0.01,0,0,0,0,5,5,14.097573354452116,66.33169282929443,50,1810943,16,98,180,3363,3443,4324,4330,-638,17302,24,0,16587,0,false,false,false,false,false,false,false,false,false,false,2101,2066,2155,2152,52,65,64,51,1206,1206,1209,1210,1200,1200,1205,1206,0.0,0.0,0.0,0.0,1715.3,1710.3,1712.2,1716.5,0.59,0.25,0.82,0.31,0,0,0,0,-12.875001559612485,14.097594735098914,66.33168681095893,0,2.7189472,2.6917992,0.052294947,-0.015583798,-0.97645974,0.97798324,-0.2611844,2.071827,-0.7164316,2.2077043,-343,35,1502,1541.0,-0.0070658014,-2.5031203E-4,-0.0013468612,0.0071973773,0.007070233945746065,0.03447086451740683,1.0896783442682343,3.5609570073569867,-170.0183712735133,189.9816287264867,2.587593801384396,11.152492648821893,-0.9617030865068348,-178.52098427981616,1.1656364345633587,2.1577281489732347,142.45564141946645,147.77850915756542,44.98,NONE,0.0,0.0,0.0,NONE,-4.431717336439468E-11,-6.148411024593642E-10,-1.4781952E-5,2,10.24,10.0,10.44,10.8,17.059,17.059,6.169,1.288888,0,3403,4.329,12.0,4.9,99,23.7,OK,65,0,0,0,0,0,65,100,0.0,0,0.0,4.59147E32,2.68E-43,0.0,-1.05007105E-23,62,6.1846084E-12,-6.1846374E-12,5.0519007E-37,False,False,0,None,8.517956E30,1.0842106E-19,dateTime|2019-5-19 12:54:37 GMT
270922299,3.068,14.097594767192499,66.33168716296004,16,2.7189472,2.775149,0.031131525,-0.018970042,-1.0199382,1.0205896,-2.733129,-32.86812,13.18333,35.518776,-337,35,1505,1542.0,0.014290259,0.012084937,-0.046174914,0.049823485,0.0187151598222899,0.011624670848296277,1.0612511163470733,1.6534884345549845,-173.02533755755232,186.97466244244768,5.784657714591047,9.289584766809392,-2.695082694582221,-178.6100675219477,1.1448101354734257,2.0182137793988733,-179.34314532549638,-174.0202775873974,45.3,,,14.0975947,66.3316868,20190519,125504,2019-05-19T12:55:04Z,43.68,0.65,1.39,7.99,10,6,16,-0.01,-0.01,0.0,0,0,0,10000,5,5,14.097573354452116,66.33169282929443,50,1810943,20,98,181,3363,3443,4324,4330,-638,17302,24,2,16587,0,false,false,false,false,false,false,false,false,false,false,3644,3366,3480,3605,47,62,61,47,1368,1362,1347,1361,1371,1350,1352,1366,0.0,0.0,0.0,0.0,1693.2,1688.9,1687.6,1692.6,3.44,3.09,3.11,2.74,0,0,0,0,-79.45762056723584,14.097594866238985,66.33168668984582,0,2.7189472,2.6562564,-0.021058502,-0.027218532,-1.1102687,1.1108019,0.554282,-50.729473,12.123942,52.161064,-285,35,1505,1532.0,0.048753805,0.0235677,-0.0882177,0.10351199,0.05415136355324933,-0.03958091908474824,0.9431102755499714,-2.3013444099459504,-168.32831492153608,191.67168507846392,3.8597284750466216,11.417496951179281,-5.494069378495616,-178.30370552235226,1.178186060662581,2.2215319872107364,114.53602973980576,119.85889747790472,45.34,NONE,0.0,0.0,0.0,NONE,2.869727139882302E-10,1.790569629197449E-9,1.1610985E-4,2,48.78,49.34,32.18,38.51,17.218,17.218,6.085,1.5078467,0,3401,4.251,12.0,2.651,99,23.7,OK,66,0,0,0,0,0,65,100,0.0,0,0.0,3.4829443E31,2.68E-43,0.0,-3.3654391E38,62,6.1846084E-12,-6.1846374E-12,5.157856E-37,False,False,0,None,8.782411E30,1.0842106E-19,geoDeclination|532 degrees
274781658,4.071,14.097596506309332,66.33168611402145,16,3.578327,3.3229907,-0.015070448,-0.02722222,-0.84667945,0.847251,5.226373,-9.736416,-0.63336736,11.068601,-199,84,1526,1541.0,-0.09436799,0.11341213,-0.11467749,0.18686508,0.14753856257888495,-0.007852238350602198,2.172596905193538,-2.083074916686734,-171.60931642259058,188.39068357740942,10.788985183202248,11.207472771488082,-6.7389937561693,-174.144971982562,1.2749912660342755,2.1704493680582506,146.703273134681,152.02614087278,45.69,,,14.0975952,66.3316859,20190519,125505,2019-05-19T12:55:05Z,44.219,0.65,1.39,8.01,10,6,16,-0.09,0.0,-0.57,0,0,0,0,5,5,14.097573354452116,66.33169282929443,50,1810943,20,98,181,3363,3443,4324,4330,-638,17302,24,2,16587,0,false,true,false,false,false,false,true,false,false,false,5015,5244,4506,4383,49,63,61,49,1474,1501,1430,1413,1473,1492,1415,1409,0.0,0.0,0.0,0.0,1679.1,1673.5,1673.5,1678.5,3.72,3.6,3.4,2.56,0,0,0,0,165.5904354054485,14.097596195825014,66.33168554277238,0,3.6232464,3.1194456,-0.016498573,-0.02595878,-0.8482804,0.8488378,-0.22819224,7.0981135,0.86755943,7.1545753,-199,84,1526,1541.0,0.055921674,0.10681342,-0.07455248,0.14175476,0.12056675185254902,0.01968927924584936,2.2175431450423133,-1.2866529254751016,-167.9435194621854,192.0564805378146,3.4046839926491015,12.560152297531534,-5.994869623866715,-173.9092719829916,1.3023227620774038,2.3710104916050323,136.52228458287703,141.845152320976,45.67,NONE,0.0,0.0,0.0,NONE,1.2014256142362467E-8,2.5802726971028283E-9,-4.8971176E-4,2,42.21,43.88,34.49,33.66,17.138,17.138,6.034,1.7905389,0,3401,4.313,12.0,2.913,99,23.8,OK,67,0,0,0,0,0,65,100,0.0,0,0.0,-1.8932338E-14,2.66E-43,0.0,-3.3654391E38,62,8.9179775E-12,-7.1407615E-12,7.618079E-38,False,False,0,None,2.5971595E29,1.3479819E-19,geoInclination|7644 degrees
278706869,5.091,14.097595612216054,66.3316831756339,16,5.0743423,4.3172483,-0.025905052,-0.019527663,-1.4681146,1.468473,-7.3887887,-1.994936,0.86159676,7.701709,-214,53,1502,1518.0,-0.2387836,-0.019001922,-2.9232903,2.9330878,0.23953847188694194,0.08312389719366903,0.9008202441830175,-1.1821609571341944,-171.62756286179217,188.37243713820783,13.701944850308495,12.202379559363122,-5.72875048736914,-173.16071636855133,1.4626706957089315,2.504385464125094,-169.2819546504629,-163.95908691236392,45.87,,,14.0975951,66.3316836,20190519,125507,2019-05-19T12:55:07Z,44.718,0.65,1.39,8.02,10,6,16,-0.31,-0.11,-0.67,0,0,0,10000,5,5,14.097573354452116,66.33169282929443,50,1812198,17,20,183,660,3469,3708,3712,-1182,14865,42,0,14858,0,false,false,false,false,false,false,true,false,false,false,6339,6616,5655,5602,50,63,62,50,1619,1654,1553,1539,1613,1651,1555,1533,0.0,0.0,0.0,0.0,1639.8,1634.9,1635.5,1641.1,5.93,5.84,5.38,4.4,0,0,0,0,169.00187821373257,14.097594617898618,66.33168274193599,0,5.0347075,3.7823331,-0.02486564,-0.024550926,-1.4618237,1.4622413,-5.0042033,-1.308759,1.4047847,5.359881,-217,56,1505,1521.0,-0.033650883,-0.063380964,-2.6469872,2.6479597,0.07176021449388706,0.24123894640460822,1.0695801200595816,-0.48278847343947723,-167.96368559752622,192.03631440247378,1.2029663859466482,8.004973780462729,-5.794792588167321,-173.07476892533157,1.469366526227652,2.712114926172205,-163.93236496001848,-158.6094972219195,45.88,NONE,0.0,0.0,0.0,NONE,-3.410993999696866E-9,-1.905889260484692E-9,-0.008330584,2,73.05,73.57,61.22,60.86,16.898,16.898,5.839,2.1384523,0,3399,4.212,12.0,6.981,99,23.8,OK,68,0,0,0,0,0,65,100,0.0,0,0.0,2.2873137E-38,2.63E-43,0.0,-3.3654391E38,62,1.4002133E-11,-9.547754E-12,1.5262848E-37,False,False,0,None,9.479526E29,1.6986403E-19,geoIntensity|5257330 nanoTesla
282555806,6.091,14.097593461240335,66.3316811050185,16,6.3701835,6.511022,-0.0070054187,-0.025412682,-0.5182974,0.5189673,3.0888557,-4.6312647,-0.86276025,5.6332936,-391,81,1482,1534.0,0.17969473,0.16740538,-0.377187,0.45009422,0.24559062662649228,0.003789368521100178,2.316013043523075,5.794394829169791,-171.71348333903373,188.28651666096627,14.404565720336656,14.501203598968381,0.48065906123902924,-174.97153038443645,1.5827648275751216,2.7789262752894572,8.473951551637798,13.796819289736767,46.16,,,14.097593,66.3316807,20190519,125507,2019-05-19T12:55:07Z,47.281,0.65,1.39,8.02,10,6,16,-0.16,-0.01,-2.0,0,0,0,-10000,5,5,14.097573354452116,66.33169282929443,50,1812359,16,20,184,664,3473,3751,3753,-327,15017,40,0,14426,0,false,false,false,false,false,false,true,false,false,false,4016,4309,3597,3460,49,64,64,49,1367,1394,1327,1314,1357,1388,1334,1306,0.0,0.0,0.0,0.0,1696.2,1690.7,1690.1,1695.0,2.07,1.9,1.9,1.02,0,0,0,0,161.26734314556347,14.097592867175917,66.33168030354831,0,6.531365,5.8075457,-0.0077450518,-0.02603257,-0.51748604,0.5181983,-2.2616804,-4.7580643,-0.77026755,5.3242545,-394,78,1479,1532.0,-0.029172663,0.04354007,-0.17857064,0.18610282,0.05240975131378605,0.22967364017759373,2.4807084257172516,6.426024149465849,-168.16544825635356,191.83455174364644,0.6960445829590012,7.237129376714728,2.3671912762406184,-176.47407300592468,1.6427278974341766,2.9989661731577235,161.52607653975755,166.84894427785653,46.16,NONE,0.0,0.0,0.0,NONE,4.528121795648483E-9,-1.7701552106193974E-9,-0.001282692,2,30.28,32.05,25.96,24.46,16.47,16.47,6.08,2.7657685,0,3397,4.219,12.0,11.804,99,23.8,OK,69,0,0,0,0,0,65,100,0.0,0,0.0,1.4820412E-36,8.7E-44,0.0,-3.3654391E38,62,1.5061374E-10,-2.905865E-11,4.5422137E-37,False,False,0,None,7.2459725E30,4.8838403E-19,mcID(SN)|298DG13001W644
286433757,7.099,14.097596644518157,66.33168153683626,16,6.4647913,6.04679,0.005149261,-0.036306154,-0.6835346,0.6845175,9.83706,9.33778,4.5222416,14.297292,-194,124,1517,1534.0,0.14342043,0.07245056,0.35371453,0.38850027,0.16068137537717536,-0.011862114075182423,3.91633090285711,-1.072395506359922,-171.74581193521357,188.25418806478643,12.020172527364961,12.840746366100737,-6.7634493318521995,-174.83695897362648,0.5778429756025723,2.977531542813664,105.60536539958657,110.92823313768554,46.51,,,14.0975977,66.3316809,20190519,125509,2019-05-19T12:55:09Z,47.579,0.65,1.39,8.0,10,6,16,0.13,0.19,-0.61,0,0,0,-8863,5,5,14.09759487727461,66.33168668484882,50,1812359,20,20,185,664,3473,3749,3752,-629,14993,40,2,14426,0,false,false,false,false,false,false,true,false,false,false,4757,4858,3993,3697,50,65,64,50,1435,1454,1366,1336,1426,1451,1372,1337,0.0,0.0,0.0,0.0,1687.0,1683.4,1682.8,1687.6,2.82,2.2,1.86,1.23,0,0,0,0,168.34705159107432,14.09759744173959,66.331680534315,0,6.594265,5.8009186,0.005310675,-0.037695326,-0.68414253,0.6852008,8.347573,0.069973715,-4.0817757,9.29235,-194,121,1517,1534.0,0.16650423,0.12682311,0.2445884,0.32191807,0.20930303361638022,-0.005102044738149375,3.993724822067177,-0.45049326051521915,-167.25374024997194,192.74625975002806,3.624408275231418,12.019890390047212,-4.942707137437773,-175.820287717661,0.6934222980192092,3.237795212076888,107.70676520458103,113.02963294268,46.52,NONE,0.0,0.0,0.0,NONE,1.5549283233616805E-8,1.170304969969544E-8,-3.142357E-4,2,40.54,42.4,31.64,29.53,16.974,16.974,5.995,3.651042,0,3394,4.072,12.0,4.521,99,23.9,OK,70,0,0,0,0,0,65,100,0.0,0,0.0,5.6623805E-25,2.66E-43,0.0,-3.3654391E38,62,1.6392576E-10,-3.0677027E-11,4.4439497E-37,False,False,0,None,7.0007057E30,5.113201E-19,mcVer|v3.4.1.6
290341136,8.115,14.097599659431749,66.33168114804607,16,6.6221595,5.146011,0.0030951665,-0.043446254,-0.9560865,0.95707816,14.266975,-2.1334798,13.271085,19.601532,-257,84,1511,1535.0,0.038604327,-0.09666427,1.1763515,1.1809475,0.10408782707336821,0.03510689865807533,2.0742619931726782,0.971459976658589,-171.83286502449147,188.16713497550853,10.625319622132544,12.037678443671167,-5.653975725770577,-172.79187029715138,0.6516216875524342,3.1744089063383827,-8.086109422044306,-2.7632416839453358,46.81,,,14.0975987,66.3316812,20190519,125510,2019-05-19T12:55:10Z,47.046,0.65,1.39,7.95,10,6,16,0.19,-0.07,0.26,0,0,0,-10000,5,5,14.09759487727461,66.33168668484882,50,1812477,48,18,186,616,3473,3733,3735,-1178,14958,39,212,14955,0,false,false,false,false,false,false,true,false,false,false,5533,5876,5069,4310,51,64,63,51,1525,1571,1463,1396,1514,1567,1463,1402,0.0,0.0,0.0,0.0,1664.4,1660.7,1659.4,1664.4,4.16,4.57,3.94,2.1,0,0,0,0,151.50436138175502,14.097599514456991,66.33168049174056,0,6.6538672,5.0632915,0.0031091527,-0.040580206,-0.9557695,0.9566356,-16.59612,-1.9688243,-9.510351,19.228996,-254,90,1514,1537.0,0.09279945,-0.030899912,1.0362889,1.0408944,0.09780870458442066,-0.006580177279621957,2.1379531969919077,1.5929883012763646,-167.2854089769061,192.7145910230939,5.2062806483088755,13.27688760005556,-4.176251650618519,-171.02145411245294,0.7190794925266198,3.424416019834073,173.88013707141985,179.20300480951883,46.82,NONE,0.0,0.0,0.0,NONE,-7.890681859854128E-9,8.058263046264911E-9,0.010321617,2,50.15,52.57,42.52,40.4,16.975,16.975,5.997,4.491401,0,3392,4.26,12.0,7.331,99,23.9,OK,71,0,0,0,0,0,65,100,0.0,0,0.0,-1.3672663E-24,2.66E-43,0.0,-3.3654391E38,62,8.889245E-11,-2.3480889E-11,3.872618E-37,False,False,0,None,5.574908E30,3.8409803E-19,
294229032,9.125,14.097598318602605,66.3316815693571,16,5.9699683,4.8646717,-0.005128488,-0.046427563,-1.0058076,1.0068916,-0.64037716,-9.337981,7.259659,11.845278,-237,93,1505,1526.0,0.017893672,-0.089761905,-0.091795,0.1296291,0.09152804232453639,-0.01630730521132087,2.2907812739728413,-0.035250024848073346,-171.26827616546353,188.73172383453647,12.47242550833136,14.148439435389928,-9.377611255927853,-172.1580985391525,0.5891943534356638,3.302065088579112,-165.1550609725619,-159.83219323446292,47.17,,,14.0975981,66.3316811,20190519,125511,2019-05-19T12:55:11Z,46.586,0.65,1.39,7.93,10,6,16,-0.07,-0.05,0.26,0,0,0,0,5,5,14.09759487727461,66.33168668484882,50,1812477,17,18,187,616,3473,3733,3735,-1178,14958,39,0,14955,0,false,false,false,false,false,false,true,false,false,false,5723,5969,4965,4670,50,64,64,49,1545,1561,1472,1431,1537,1551,1483,1410,0.0,0.0,0.0,0.0,1663.1,1657.6,1657.0,1663.1,4.6,4.28,3.61,2.32,0,0,0,0,165.26466379975776,14.09759834863031,66.33168099123904,0,6.014888,4.2777843,-0.0039639724,-0.04193219,-1.0054326,1.0063145,-3.5568378,3.8383098,6.0257516,7.9808145,-237,96,1508,1529.0,0.056532033,-0.06634024,0.04123567,0.0964224,0.08716018524908,-0.01183474294100316,2.4423313777028484,0.3506331826781361,-166.866127360758,193.133872639242,5.400206751717977,11.313997329115391,-2.184965003148648,-172.08811012879048,0.6517878427171341,3.5411679248510044,-109.40957608243208,-104.08670834433312,47.17,NONE,0.0,0.0,0.0,NONE,-6.4838712845809976E-9,2.291495831524914E-9,6.489754E-4,2,53.43,52.48,45.54,36.35,16.839,16.839,5.969,5.193491,0,3391,4.236,12.0,6.905,99,23.9,OK,72,0,0,0,0,0,65,100,0.0,0,0.0,5.549267E36,2.66E-43,0.0,-3.3654391E38,62,3.2237324E-11,-1.3852311E-11,2.9235406E-37,False,False,0,None,3.0929158E30,2.4163768E-19,
298132079,10.140,14.09759795890114,66.33168122411638,16,6.291069,5.08931,-0.004628662,-0.031760253,-0.95997405,0.96051043,-8.414573,-9.024356,-5.429969,13.480675,-228,112,1511,1532.0,0.037015174,-0.037137877,-0.10671873,0.1189043,0.05243419716652712,-0.011412661256746566,2.0891313238681715,0.04755650848441401,-167.10925119128038,192.89074880871962,16.37944961495946,15.391821231918152,-8.255487767644947,-165.9262939448021,0.6225922626804485,3.3542665578631454,57.51233244999224,62.835200188091214,47.46,,,14.097598,66.3316811,20190519,125512,2019-05-19T12:55:12Z,46.857,0.65,1.39,7.91,10,6,16,-0.01,0.03,-0.13,0,0,0,0,5,5,14.09759487727461,66.33168668484882,50,1816762,16,18,188,592,3452,3755,3758,-525,15035,27,0,14437,0,false,false,false,false,false,false,true,false,false,false,5576,5856,4720,4619,50,65,65,50,1522,1555,1452,1436,1511,1553,1450,1419,0.0,0.0,0.0,0.0,1665.6,1658.8,1658.2,1664.4,4.17,4.23,3.27,2.5,0,0,0,0,169.6831090118585,14.097597969617093,66.3316808266071,0,6.3359885,4.4220734,-0.0036751213,-0.032581504,-0.9576632,0.95822436,8.11976,4.7617807,6.260198,11.304651,-228,112,1511,1532.0,0.031818036,-0.0433517,-0.012835579,0.055285703,0.053775059831136854,-0.029201572276734953,2.2934815901161842,0.25758582418346815,-162.67547703733973,197.32452296266027,9.747653247112433,11.090324956080005,-4.071651248773082,-166.90727634828488,0.6658715397514865,3.604447024066861,,,47.46,NONE,0.0,0.0,0.0,NONE,-4.725273224569941E-9,1.3848080858813723E-9,-8.392334E-5,2,50.04,52.87,40.59,38.96,16.755,16.755,5.977,5.8126593,0,3389,4.191,12.0,8.042,99,24.0,OK,73,0,0,0,0,0,65,100,0.0,0,0.0,1.9576146E23,2.66E-43,0.0,-3.3654391E38,62,3.951861E-11,-1.4973028E-11,3.015778E-37,False,False,0,None,3.3230953E30,2.6674427E-19,
302026302,11.152,14.097599372669311,66.33168153690221,16,6.2672477,5.2936387,-0.0015829506,-0.046726003,-0.94484323,0.94599926,7.0913763,0.600065,1.7999023,7.3408,-211,124,1511,1530.0,0.07700496,-0.0024872762,0.14098088,0.16065976,0.07704511798115461,-0.005848360229968097,2.9452066137963198,-0.14335807940781597,-167.22769837720813,192.77230162279187,15.807053934882529,14.994989492438984,-6.590125580999751,-167.86112292809747,0.6065789789980385,3.4677474842468676,138.3760079620604,143.6988757001594,47.69,,,14.0975996,66.3316811,20190519,125513,2019-05-19T12:55:13Z,46.967,0.65,1.39,7.88,10,6,16,0.06,0.08,-0.06,0,0,0,0,5,5,14.09759487727461,66.33168668484882,50,1816763,20,18,189,592,3452,3744,3747,-1157,15035,27,2,14912,0,false,false,false,false,false,false,true,false,false,false,5558,5709,4752,4527,50,64,64,50,1509,1531,1437,1419,1502,1534,1450,1409,0.0,0.0,0.0,0.0,1667.4,1663.1,1661.9,1667.4,3.86,4.02,3.33,2.27,0,0,0,0,169.28988510339474,14.097599840466888,66.33168088495353,0,6.1534677,4.850398,0.003151174,-0.046892583,-0.9140954,0.9153028,2.754372,2.440838,4.1988287,5.5834055,-217,130,1511,1532.0,0.031189652,0.005820377,0.14513169,0.14855935,0.031728082632184754,0.0510343190686148,3.1361240461960995,0.05152143935585334,-162.84301674424628,197.15698325575372,10.241249452025826,13.338999379923903,-5.225948862510481,-167.66841481649888,0.6819120377539564,3.718148369295217,100.4885293901092,105.81139712820817,47.71,NONE,0.0,0.0,0.0,NONE,4.4748545768398575E-10,1.8870314253208554E-9,5.3596497E-4,2,49.45,51.33,39.92,37.64,16.782,16.782,5.984,6.3461366,0,3384,4.179,12.0,7.052,98,24.0,OK,74,0,0,0,0,0,65,100,0.0,0,0.0,-1.2451845E-14,2.66E-43,0.0,-3.3654391E38,62,5.6660454E-11,-1.9258489E-11,3.4356957E-37,False,False,0,None,4.3710115E30,3.258579E-19,
305885603,12.155,14.097600905842697,66.33168215431454,16,5.6984797,5.0136485,0.0011680254,-0.041569978,-0.9945064,0.9953755,11.159119,3.1009896,10.270739,15.479992,-211,127,1511,1530.0,0.057203133,-0.060893487,0.33008993,0.340499,0.08354768218982324,0.013099222976181435,2.8680884065166077,-0.18384844172108084,-167.35756556511004,192.64243443488996,16.23070869279795,15.677888396788077,-7.259137110930133,-166.647735362674,0.5711427041628706,3.597467009981395,11.378193125879596,16.701060863978565,48.05,,,14.0976009,66.3316816,20190519,125514,2019-05-19T12:55:14Z,46.779,0.65,1.39,7.87,10,6,16,0.07,0.03,0.19,0,0,0,0,5,5,14.09759487727461,66.33168668484882,50,1816764,114,18,190,591,3452,3717,3726,-2338,14849,27,3454,14947,0,false,false,false,false,false,false,true,false,false,false,5703,5829,4951,4600,51,64,65,51,1534,1554,1469,1433,1526,1555,1462,1420,0.0,0.0,0.0,0.0,1661.3,1655.8,1655.2,1660.7,4.24,4.15,3.54,2.72,0,0,0,0,166.46161233952597,14.09760117871576,66.3316815961871,0,5.68791,4.8007665,1.6376795E-4,-0.03974287,-0.9994114,1.0002013,-11.935727,3.3571823,-8.849354,15.232968,-214,127,1508,1528.0,0.047387898,-0.037587624,0.35021004,0.35539487,0.06048505842241083,0.038328294076713794,2.9144924620339134,-0.18336430565821168,-162.8818998065481,197.1181001934519,9.469353050608024,13.332716064490896,-5.590381012824974,-167.09011924422234,0.6318930270670714,3.8305038469928854,17.614429611018146,22.937297349117117,48.04,NONE,0.0,0.0,0.0,NONE,-3.4398360622157143E-9,2.172402697856895E-9,0.0017905235,2,52.08,53.71,41.55,38.83,16.781,16.781,5.97,6.762058,0,3383,4.187,12.0,6.912,98,24.1,OK,75,0,0,0,0,0,65,100,0.0,0,0.0,-2.8164194E26,2.66E-43,0.0,-3.3654391E38,62,5.4676264E-11,-1.8762441E-11,3.169545E-37,False,False,0,None,3.7067793E30,3.1901546E-19,
309810505,13.175,14.097601246852587,66.33168237833225,16,5.6766872,4.828311,-0.0023276662,-0.041485373,-0.99574226,0.9966088,-13.100361,-5.4373794,-11.162631,18.049623,-217,118,1514,1534.0,0.032434694,-0.06584505,0.20695344,0.21958439,0.07340013639098938,-0.044781853656127704,2.5437558076494695,-0.1757516170470504,-167.52969171483744,192.47030828516256,15.86509099672844,15.099413377619866,-7.376068065923348,-167.11886342217187,0.5569122765995608,3.6452486020703905,10.307632826604392,15.630500564703361,48.41,,,14.0976006,66.3316819,20190519,125515,2019-05-19T12:55:15Z,46.581,0.65,1.39,7.86,10,6,16,0.02,-0.02,0.19,0,0,0,0,5,5,14.09759487727461,66.33168668484882,50,1816853,48,17,191,556,3452,3728,3733,-1180,14931,27,212,14925,0,false,false,false,false,false,false,true,false,false,false,5694,5793,4961,4640,51,65,66,52,1536,1550,1469,1437,1528,1547,1459,1424,0.0,0.0,0.0,0.0,1663.7,1655.8,1655.2,1661.3,4.22,4.14,3.63,2.38,0,0,0,0,167.44546161804672,14.097600903480842,66.33168179572387,0,5.7612414,4.668685,-0.0019432156,-0.03438087,-0.99598867,0.9965838,15.37308,1.8180491,13.896773,20.802816,-217,118,1514,1534.0,0.017707,-0.04647389,0.22457328,0.23001418,0.0497328904568832,-0.02486977466680381,2.6503192128776094,-0.16590468653819282,-162.90462768189067,197.09537231810933,9.557752548036586,13.526533948200877,-5.6698375551544915,-167.8002811866072,0.6065570489768235,3.922231566922343,-97.39912892069123,-92.07626118259226,48.4,NONE,0.0,0.0,0.0,NONE,-5.982033822794696E-9,5.319568969822002E-10,0.0012726784,2,51.55,52.72,42.62,39.45,16.753,16.753,5.964,7.0513573,0,3380,4.187,12.0,7.295,98,24.1,OK,76,0,0,0,0,0,65,100,0.0,0,0.0,-1.8177333E26,2.66E-43,0.0,3.041665E-35,64,4.8789417E-11,-1.729073E-11,2.9576346E-37,False,False,0,None,3.1778695E30,2.9871314E-19,
313659776,14.175,14.097600032703083,66.33168237254313,16,5.307788,4.727719,-0.0017556146,-0.021181416,-0.98777574,0.9880044,11.8662195,2.6191936,20.438,23.777702,-245,102,1505,1528.0,0.038151428,-0.071500935,0.15913413,0.17858216,0.08104267376030443,-0.02686346825515304,2.117724144405674,0.5693586492908757,-167.26349429589743,192.73650570410257,16.402614352441315,14.50804154961234,-7.035263834075525,-168.61458547140936,0.5318702621589162,3.7113619408905048,-72.22020122192681,-66.89733348382785,48.66,,,14.0976001,66.3316819,20190519,125516,2019-05-19T12:55:16Z,46.454,0.65,1.39,7.84,10,6,16,0.02,-0.04,0.14,0,0,6491,0,5,5,14.09759487727461,66.33168668484882,50,1816853,17,17,192,556,3452,3728,3733,-1180,14931,27,0,14925,0,false,false,false,false,false,false,true,false,false,false,5728,5681,5011,4592,51,66,66,50,1544,1548,1470,1413,1542,1537,1478,1400,0.0,0.0,0.0,0.0,1660.7,1654.6,1655.2,1660.0,4.7,4.02,3.92,1.76,0,0,0,0,168.36099519309693,14.097600265776217,66.33168187570456,0,5.4187655,4.5642533,-0.0024463087,-0.02417067,-0.989862,0.9901601,-12.989511,-7.805583,-6.4948807,16.48751,-245,102,1505,1528.0,0.011087534,-0.044842064,0.17257145,0.17864673,0.046192467679335124,-0.01638170348677714,2.1831537086573367,0.49449841467029215,-162.6513335261858,197.3486664738142,10.208933313716397,13.295513199249271,-4.692853393518294,-169.11843388058446,0.5863586064535544,3.988032695513327,47.436232611469094,52.759100349568065,48.65,NONE,0.0,0.0,0.0,NONE,-6.07506556525811E-9,-2.872620842278883E-10,8.955002E-4,2,53.34,51.41,44.58,35.42,16.748,16.748,5.96,7.2478766,0,3378,4.185,12.0,7.25,98,24.1,OK,77,0,0,0,0,0,65,100,0.0,0,0.0,-1.16238995E15,2.66E-43,0.0,3.041665E-35,64,4.4172666E-11,-1.6136542E-11,2.7917567E-37,False,False,0,None,2.7639333E30,2.827982E-19,
317509293,15.176,14.097599730228728,66.33168301711953,16,5.276787,4.669609,-0.017201185,-0.018862572,-0.99615496,0.996482,5.1100574,-2.6428738,9.912862,11.46134,-142,149,1508,1521.0,0.047697153,-0.06680427,0.069080345,0.10728431,0.0820842781558137,-0.009184414090065415,0.624839947994573,-1.1604320172437808,-152.87610437685376,207.12389562314624,30.385696007608036,13.04135687753916,-10.531745955273285,-142.46869168192706,0.4617954836447207,3.793411627592416,-10.982831419382052,-5.659963681283083,48.99,,,14.0975997,66.3316828,20190519,125517,2019-05-19T12:55:17Z,46.397,0.65,1.39,7.83,10,6,16,0.08,0.0,0.1,0,0,0,0,5,5,14.09759487727461,66.33168668484882,50,1816864,48,17,193,556,3452,3746,3752,0,14998,27,212,3,0,false,false,false,false,false,false,true,false,false,false,5491,5699,4770,4839,52,66,66,52,1518,1543,1455,1454,1510,1536,1450,1441,0.0,0.0,0.0,0.0,1661.3,1654.6,1654.6,1661.3,4.09,3.98,3.64,2.7,0,0,0,0,174.97552955182087,14.097599929042763,66.33168270113755,0,5.2028017,4.4493766,-0.017748425,-0.022730693,-0.99568576,0.9961033,-4.391017,3.2411714,-7.649723,9.397046,-142,149,1508,1521.0,0.036885038,-0.046390824,0.081098065,0.10044656,0.05926731510264272,0.03369540854963297,0.7337298906244287,-1.1468824844584966,-148.17044241859668,211.82955758140332,25.251103898976922,13.170348912616946,-3.2169563992530676,-143.01658769257747,0.49706362823674904,4.111366340489573,0.2711990221473375,5.594066760246307,48.99,NONE,0.0,0.0,0.0,NONE,-6.675936773721964E-9,2.328482776788776E-9,5.283356E-4,2,49.16,51.36,40.66,40.48,16.742,16.742,5.963,7.3726177,0,3376,4.177,12.0,7.132,98,24.1,OK,78,0,0,0,0,0,65,100,0.0,0,0.0,-3.3582992E29,2.66E-43,0.0,3.041665E-35,64,3.9067416E-11,-1.486023E-11,2.2875798E-37,False,False,0,None,2.0205503E30,2.6518917E-19,
321554871,16.227,14.097599986909122,66.33168403894047,16,5.356466,4.672642,-0.012755769,-0.0181633,-0.9780486,0.97830045,12.593525,-3.0437398,11.498662,17.32283,-139,170,1502,1517.0,-0.0136416275,-0.04540529,0.033118214,0.057832092,0.047410278009938946,0.06120162331519354,1.1521724352554041,-1.0393515681916048,-151.02538804615378,208.97461195384622,31.913987172328333,13.35063140379094,-9.638589928361846,-139.95163585560272,0.37226773656257517,3.913520784762366,-33.99916596506358,-28.676298226964615,49.27,,,14.0975994,66.3316836,20190519,125518,2019-05-19T12:55:18Z,46.417,0.65,1.39,7.78,10,6,16,0.01,0.0,0.04,0,0,0,0,5,5,14.09759487727461,66.33168668484882,50,1816864,48,17,194,556,3452,3746,3752,0,14998,27,212,3,0,false,false,false,false,false,false,true,false,false,false,5532,5617,4813,4796,53,66,66,53,1525,1539,1451,1450,1517,1530,1452,1443,0.0,0.0,0.0,0.0,1660.7,1655.8,1654.6,1660.0,4.05,3.91,3.5,2.59,0,0,0,0,176.21061949204588,14.097599909605785,66.33168352366445,0,5.3458967,4.393985,-0.013672123,-0.015869476,-0.98140687,0.9816304,-11.215661,7.115848,-8.427427,15.730476,-136,170,1502,1517.0,-0.0068357447,-0.02947915,0.052493475,0.06059136,0.030261323797121275,0.05672986243874403,1.1530127058904802,-1.0271959004690483,-146.32411648000834,213.67588351999166,27.19577577536294,13.166391906690881,-2.9818182477571744,-139.3862906765486,0.4171549549149963,4.208516506165076,-77.89295631834709,-72.57008858024813,49.28,NONE,0.0,0.0,0.0,NONE,-2.8518032395500257E-9,-2.1363946863575378E-10,2.6607513E-4,2,50.15,51.28,41.02,40.62,16.74,16.74,5.966,7.4355607,0,3375,4.177,12.0,7.127,98,24.2,OK,79,0,0,0,0,0,65,100,0.0,0,0.0,1.4271603E-28,2.68E-43,0.0,3.041665E-35,64,3.661693E-11,-1.4399651E-11,1.8712992E-37,False,False,0,None,1.4892419E30,2.5673207E-19,
325412042,17.230,14.097599259714253,66.33168433709308,16,5.1594095,4.6787043,-0.012326316,-0.019641206,-0.9780491,0.97832394,3.2032738,-1.5309665,2.3456283,4.2552075,-142,152,1508,1522.0,-0.04686692,-0.008071875,0.03129197,0.05692847,0.04755694819272626,-0.00127235858385491,0.6788937370491912,-0.8003573555837973,-151.03739242346114,208.96260757653886,31.440996204661193,13.10235858567387,-10.482975991836911,-140.56416333852886,0.32622148587955946,3.9651813266793243,-36.017282879251084,-30.694415141152113,49.57,,,14.0975987,66.331684,20190519,125519,2019-05-19T12:55:19Z,46.382,0.65,1.39,7.74,10,6,16,0.0,-0.02,0.01,0,0,0,0,5,5,14.09759487727461,66.33168668484882,50,1816864,48,17,195,556,3452,3746,3752,0,14998,27,212,3,0,false,false,false,false,false,false,true,false,false,false,5434,5618,4855,4845,52,66,67,53,1514,1537,1461,1457,1506,1527,1457,1451,0.0,0.0,0.0,0.0,1660.0,1654.6,1654.6,1660.0,3.98,3.87,3.59,2.66,0,0,0,0,171.83430284020596,14.09759922166365,66.3316839534193,0,5.214898,4.3715253,-0.013133523,-0.017196365,-0.97748214,0.97772163,2.6994507,4.69141,-0.80778617,5.472557,-142,152,1508,1522.0,-0.02333687,-0.0058454443,0.04097574,0.04751621,0.024057820717810242,0.03260559890283243,0.7335780451411287,-0.7724637984551566,-146.26044901951582,213.73955098048418,28.52783142314089,14.453553311964406,-2.9291771482765845,-140.74118184222013,0.3603522692092705,4.27098654836667,4.847497685417133,10.170365423516103,49.56,NONE,0.0,0.0,0.0,NONE,-3.195253457349126E-10,-9.931022714041866E-10,2.040863E-4,2,49.1,50.77,41.62,41.37,16.738,16.738,5.959,7.4489317,0,3373,4.174,12.0,7.012,98,24.3,OK,80,0,0,0,0,0,65,100,0.0,0,0.0,1.3575187E-28,2.68E-43,0.0,3.041665E-35,64,3.562306E-11,-1.4275528E-11,1.7250225E-37,False,False,0,None,1.19592745E30,2.5331085E-19,
329290902,18.238,14.097598405295559,66.33168425220799,16,5.479552,4.883542,0.0021842963,-0.015772644,-1.0844578,1.0845747,1.3493632,3.4853706,0.21136384,3.7434294,-151,146,1508,1522.0,-0.13856621,-0.05258012,-0.87323314,0.88572085,0.1482068264669435,-0.10923211212693654,0.5382003604149491,0.18611698589527823,-151.18749793759915,208.81250206240085,29.123103347023942,10.962188474294534,-10.001618331214118,-137.93882388647975,0.3130019376707459,4.029450224285525,-159.82474050678107,-154.5018727686821,49.85,,,14.0975985,66.3316842,20190519,125520,2019-05-19T12:55:20Z,46.508,0.65,1.39,7.72,10,6,16,-0.06,-0.04,-0.14,0,0,0,10000,5,5,14.09759487727461,66.33168668484882,50,1816864,48,17,196,556,3452,3746,3752,0,14998,27,212,3,0,false,false,false,false,false,false,true,false,false,false,6010,6061,4993,4903,52,66,67,52,1566,1582,1474,1460,1558,1574,1470,1454,0.0,0.0,0.0,0.0,1652.7,1645.9,1645.9,1651.5,4.65,4.4,3.72,2.83,0,0,0,0,176.29084315778505,14.097598382000477,66.33168372538445,0,5.2263036,4.630583,0.0029612358,-0.01106441,-1.0420564,1.0421194,7.3105617,5.182352,8.960889,12.672751,-168,149,1502,1518.0,-0.09690261,-0.058837518,-0.9184185,0.9253889,0.11336652653651119,-0.06847770437905147,0.5915361554311953,0.8467396717776821,-146.3544857285194,213.6455142714806,31.001268679644262,16.49209812416844,-1.8904646050047296,-137.5176483688433,0.3643719606437891,4.356825999605361,-142.8626485645245,-137.53978082642553,49.9,NONE,0.0,0.0,0.0,NONE,-6.574402679089039E-9,-4.252308860774845E-9,-0.0033864975,2,54.89,55.97,43.56,41.93,16.713,16.713,5.896,7.424776,0,3371,4.175,12.0,7.015,98,24.3,OK,81,0,0,0,0,0,65,100,0.0,0,0.0,-4.5917904E29,2.66E-43,0.0,3.041665E-35,64,4.237677E-11,-1.5687568E-11,1.7765078E-37,False,False,0,None,1.2601843E30,2.7660426E-19,
333149569,19.241,14.097597851868057,66.33168368990628,16,5.925115,5.5365324,-0.006153752,-0.00915275,-1.172637,1.1726888,10.968831,10.884507,10.095363,18.458172,-156,155,1499,1515.0,-0.03167783,0.035524726,-0.6927057,0.694339,0.04759717488661821,0.019440292934114596,0.9860041012201544,-0.0563964056232718,-150.92822015173144,209.07177984826856,30.88358264131645,13.934694443067567,-10.791609987889506,-140.63732641517268,0.35851725471253465,4.1251216145474325,101.8197627772912,107.14263051539017,50.22,,,14.0975977,66.3316834,20190519,125521,2019-05-19T12:55:21Z,47.172,0.65,1.39,7.73,10,6,16,0.01,0.03,-0.44,0,0,0,9998,5,5,14.09759487727461,66.33168668484882,50,1816867,16,17,197,556,3452,3747,3753,0,15003,27,1,17510,0,false,false,false,false,false,false,true,false,false,false,6246,6502,5343,5333,52,66,66,52,1595,1629,1498,1498,1582,1611,1488,1489,0.0,0.0,0.0,0.0,1643.5,1636.1,1636.1,1642.9,5.24,5.33,4.0,3.31,0,0,0,0,172.6844746956037,14.097598048929493,66.33168306495814,0,5.8986917,5.2078056,-0.0066902367,-0.019284852,-1.1753724,1.1755496,-7.8890357,-9.86453,-10.991195,16.743721,-156,155,1502,1518.0,-0.015887745,0.014825003,-0.6712666,0.6716182,0.021730189848273553,0.052982838875421635,1.1187833375382514,-0.10940761446589542,-146.09448895481074,213.90551104518926,30.355016161752967,15.199591271054071,-1.5190347619364237,-141.66154933955224,0.4266862717978836,4.490580941762501,120.68722718048066,126.01009491857963,50.19,NONE,0.0,0.0,0.0,NONE,1.8629249870739393E-9,-7.888328515045394E-10,-0.0031805038,2,56.99,60.69,45.11,45.25,16.732,16.732,5.912,7.3920293,0,3368,4.176,12.0,7.798,98,24.3,OK,82,0,0,0,0,0,65,100,0.0,0,0.0,-2.914058E-13,2.66E-43,0.0,3.041665E-35,64,8.063061E-11,-2.2447938E-11,2.394109E-37,False,False,0,None,2.153474E30,3.6985068E-19,
337074834,20.261,14.097599008224927,66.3316833796299,16,6.8088436,6.344784,-0.010483712,-0.016255107,-0.86656034,0.8667762,0.59489655,-4.6901655,2.2463074,5.2342577,-151,155,1508,1523.0,-0.008686505,0.04278051,-0.2196163,0.2239128,0.04365349411782075,0.01720605128060955,0.7040133930053412,-0.5522876127396499,-151.08933267298337,208.91066732701663,30.406537360830264,14.35956453110018,-10.705941746040203,-140.50126609121548,0.4111889258114519,4.206988243110211,,,50.55,,,14.0975986,66.3316831,20190519,125522,2019-05-19T12:55:22Z,47.865,0.65,1.39,7.71,10,6,16,0.0,0.11,-0.67,0,0,0,0,5,5,14.09759487727461,66.33168668484882,50,1816867,18,17,198,537,3446,3783,3792,2907,15144,27,1,15244,0,false,false,false,false,false,false,true,false,false,false,5202,5351,4330,4462,52,67,67,52,1501,1519,1414,1425,1488,1510,1411,1419,0.0,0.0,0.0,0.0,1661.9,1657.0,1657.0,1661.9,4.06,3.9,3.11,2.56,0,0,0,0,179.44690630541407,14.097598808047714,66.33168295939495,0,6.835267,5.9883714,-0.010668098,-0.016606601,-0.86537164,0.8655967,0.56731296,-0.89638144,-1.2140683,1.6122363,-151,155,1508,1523.0,0.011331258,0.029809795,-0.22094324,0.22323292,0.031890770578916545,0.003261769924998513,0.8534643157998529,-0.5292022644805572,-146.24040127090018,213.75959872909982,30.7058398394422,14.642901813908107,-1.9336881997221547,-141.22016631967196,0.4498794906039283,4.616912423148648,94.08147759668164,99.4043453347806,50.55,NONE,0.0,0.0,0.0,NONE,1.4580788546382838E-9,3.208607055832147E-10,-0.0033226013,2,45.22,48.1,36.18,37.02,16.729,16.729,5.996,7.390345,0,3366,4.173,12.0,7.919,98,24.4,OK,83,0,0,0,0,0,65,100,0.0,0,0.0,-202692.0,2.66E-43,0.0,3.041665E-35,64,1.8572521E-10,-3.340196E-11,3.0507328E-37,False,False,0,None,3.4102153E30,5.489204E-19,
340923825,21.261,14.097601120538402,66.33168346688682,16,6.8961496,6.4054513,-0.010364515,-0.021234935,-0.9829268,0.98321074,2.2924612,-7.3330994,3.0619993,8.270765,-128,176,1511,1526.0,-0.021115093,0.028681954,-0.0075917756,0.036416158,0.03561603046842298,0.05914002562188312,1.5749858176361917,-1.234317004467459,-151.11300749243043,208.88699250756957,31.60538722662037,16.255205206050505,-12.109933314478472,-140.07655858095703,0.45354501417650434,4.335683894835453,128.04223002094886,133.36509775904784,50.78,,,14.0976003,66.3316831,20190519,125523,2019-05-19T12:55:23Z,47.933,0.65,1.39,7.67,10,6,16,0.02,0.07,-0.22,0,0,0,0,5,5,14.09759487727461,66.33168668484882,50,1821501,114,99,199,3446,3446,4386,4393,234,17550,28,3455,17534,0,false,false,false,false,false,false,true,false,false,false,5492,5724,4777,4842,52,66,67,53,1521,1551,1449,1456,1511,1543,1455,1449,0.0,0.0,0.0,0.0,1657.0,1652.1,1651.5,1656.4,4.16,4.14,3.4,2.65,0,0,0,0,174.03021597365353,14.097601086493356,66.33168277826505,0,6.901434,6.007482,-0.010500029,-0.019146599,-0.9838144,0.9840567,-1.30143,9.198595,-2.5991464,9.646939,-131,173,1514,1529.0,-4.1011657E-4,0.048679553,0.020232571,0.052718345,0.0486812791456999,0.05496480934465244,1.6565218125768029,-1.1799662328919918,-146.23305541965996,213.76694458034004,29.41736783605174,14.74418240762104,-2.6736267082177676,-141.4761975830743,0.5152854586311153,4.784641311443141,111.75400251533024,117.0768702534292,50.8,NONE,0.0,0.0,0.0,NONE,5.602903989916872E-9,2.1417485188629664E-11,1.0538101E-4,2,49.67,53.24,41.29,40.75,16.698,16.698,5.954,7.398817,0,3364,4.168,12.0,6.401,98,24.3,OK,84,0,0,0,0,0,65,100,0.0,0,0.0,6.0898868E-30,2.68E-43,0.0,3.041665E-35,64,1.9666402E-10,-3.4769753E-11,3.3762322E-37,False,False,0,None,4.222536E30,5.6778013E-19,
344811409,22.271,14.09760161757907,66.33168308751716,16,6.9076877,6.426683,-0.013204406,-0.024464693,-0.9818869,0.98228043,9.581681,-1.8473431,7.706265,12.434139,-136,170,1505,1520.0,-0.04336386,0.007508206,-0.015240045,0.046573132,0.0440090644198871,0.003164846928429048,1.3657937887710383,-1.1098957524915423,-151.46595099001595,208.53404900998405,33.33598722680778,19.271916997037312,-13.156216680471497,-140.93599228729346,0.5005297113535135,4.389227608360655,124.48370647063648,129.80657420873544,51.09,,,14.0976013,66.3316829,20190519,125524,2019-05-19T12:55:24Z,47.882,0.65,1.39,7.66,10,6,16,0.0,0.0,-0.07,0,0,0,0,5,5,14.09759487727461,66.33168668484882,50,1821762,48,99,200,3469,3469,4389,4396,174,17559,27,212,17564,0,false,false,false,false,false,false,true,false,false,false,5546,5700,5011,4632,54,68,68,54,1523,1550,1474,1437,1512,1538,1473,1433,0.0,0.0,0.0,0.0,1656.4,1651.5,1650.8,1656.4,4.1,4.09,3.69,2.3,0,0,0,0,161.60795328775185,14.09760183649713,66.3316826722565,0,6.9869576,6.014558,-0.01298405,-0.030551467,-0.9794871,0.9800495,-6.238471,-0.3140104,-9.3403635,11.2365265,-136,170,1505,1520.0,-0.016886424,0.022730976,-0.005456066,0.028837776,0.028316931276062576,0.006812328843276424,1.424820354753789,-1.057655652230772,-146.5070407220251,213.4929592779749,27.229861428938676,12.85079009989697,0.3679558832266651,-141.029311642009,0.5436711808498196,4.847352944446712,131.07028461118287,136.39315234928185,51.07,NONE,0.0,0.0,0.0,NONE,1.4996762837637395E-9,-3.0305741533924414E-10,-2.4318695E-5,2,49.57,52.12,43.34,39.38,16.729,16.729,5.955,7.3687973,0,3362,4.156,12.0,7.109,98,24.4,OK,85,0,0,0,0,0,65,100,0.0,0,0.0,1.4210381E-22,2.68E-43,0.0,3.041665E-35,64,1.9661073E-10,-3.4762648E-11,3.5141577E-37,False,False,0,None,4.5668382E30,5.676875E-19,
348709007,23.284,14.097601626224623,66.3316826440536,16,7.1300898,6.475573,-0.015669499,-0.028597001,-0.97635376,0.9768982,-1.3483442,4.357507,-4.477917,6.3919983,-133,186,1508,1525.0,-0.04633454,-0.03576597,-0.0027068462,0.0585954,0.05853284611055773,-0.009851746444895684,1.9254342205309478,-0.7331206121287182,-151.3971113521841,208.6028886478159,30.482176018230003,17.423164194292365,-10.841964328899696,-138.40787746681107,0.5409650187085266,4.46750511522875,-155.59113802263033,-150.26827028453135,51.38,,,14.0976012,66.3316825,20190519,125525,2019-05-19T12:55:25Z,47.949,0.65,1.39,7.7,10,6,16,-0.02,-0.03,-0.04,0,0,0,0,5,5,14.09759487727461,66.33168668484882,50,1821762,48,99,201,3469,3469,4389,4396,174,17559,27,212,17564,0,false,false,false,false,false,false,true,false,false,false,5556,5684,4802,4781,54,68,68,53,1524,1539,1462,1456,1514,1530,1458,1441,0.0,0.0,0.0,0.0,1657.0,1651.5,1651.5,1656.4,3.98,3.77,3.83,2.72,0,0,0,0,174.8616944978695,14.097601599403092,66.33168233847293,0,7.151228,6.041454,-0.015378137,-0.031095646,-0.978041,0.978656,0.7519144,2.1149266,0.7975783,2.3821044,-133,186,1505,1522.0,-0.023848962,-0.022319615,0.0054105376,0.033109095,0.03266402111607403,0.005436388651287864,1.9759566520614544,-0.7094054026335626,-146.3241704381728,213.6758295618272,29.716859902197445,14.443027440759057,-3.643579179886936,-138.54424659668547,0.5688694140092818,4.9211953843017335,-170.57578337744286,-165.25291563934388,51.37,NONE,0.0,0.0,0.0,NONE,-2.387644653233007E-9,-1.1143785203277158E-9,1.6212463E-5,2,48.86,52.48,43.17,39.03,16.709,16.709,5.95,7.313149,1654,3361,4.169,12.0,7.044,98,24.4,OK,86,0,0,0,0,0,65,100,0.0,0,0.0,2.644687E-29,2.68E-43,0.0,-1.4206529E23,63,2.0171598E-10,-3.5401248E-11,3.668843E-37,False,False,0,None,4.9528434E30,5.765019E-19,
352597033,24.295,14.097601242867258,66.33168259270306,16,7.033731,6.4988008,-0.01997432,-0.025541175,-0.9719901,0.9725308,-1.4916111,1.2857313,0.71937454,2.096547,-133,167,1508,1523.0,-0.023782438,-0.021321807,-0.009457709,0.033311743,0.031940942904375075,-0.014088165623539598,1.1722750853245154,-0.8213865365484757,-151.40036292455613,208.59963707544387,30.60967319256782,17.94324409278438,-10.213632706832286,-138.6474883993042,0.5364597829718778,4.511414320623556,,,51.64,,,14.0976008,66.3316823,20190519,125526,2019-05-19T12:55:26Z,48.03,0.65,1.39,7.73,10,6,16,-0.01,-0.03,0.0,0,0,0,0,5,5,14.09759487727461,66.33168668484882,50,1821762,48,99,202,3469,3469,4389,4396,174,17559,27,212,17564,0,false,false,false,false,false,false,true,false,false,false,5450,5704,4868,4823,54,69,69,54,1516,1543,1468,1462,1507,1538,1467,1453,0.0,0.0,0.0,0.0,1653.9,1649.6,1650.2,1653.9,3.97,3.92,3.68,2.89,0,0,0,0,168.44926713860647,14.09760121011718,66.3316821660836,0,7.120928,6.031154,-0.019825332,-0.023350924,-0.9706881,0.9711713,6.8391533,5.326826,1.45133,8.789508,-133,167,1508,1523.0,-0.006794139,-0.016462678,0.014452078,0.02293562,0.01780955060295842,0.007794965458756034,1.1814904263747426,-0.7524478442498507,-146.26912358623375,213.73087641376625,29.067835995510915,13.478417611644812,-5.099167024781918,-138.36253104074606,0.5765255895905121,4.981534055123023,-149.93879511081377,-144.6159273727148,51.66,NONE,0.0,0.0,0.0,NONE,-2.4379950776881903E-9,8.299275478112126E-12,7.05719E-5,2,48.9,53.17,43.09,41.03,16.707,16.707,5.946,7.25913,1665,3359,4.168,12.0,7.143,98,24.4,OK,87,0,0,0,0,0,65,100,0.0,0,0.0,1.3761779E-36,2.68E-43,0.0,-1.4206529E23,63,2.0026292E-10,-3.522006E-11,3.714072E-37,False,False,0,None,5.0656506E30,5.7400053E-19,
356500082,25.309,14.097600949443924,66.33168259728468,16,6.970041,6.5095954,-0.020531554,-0.02496761,-0.98913354,0.9896616,1.0423368,-4.4378734,4.3914332,6.329761,-128,164,1508,1522.0,-0.0064744763,-0.0047639227,-0.0015383069,0.008184143,0.008038271387475399,0.004883654015369773,1.0660070121701335,-1.1577408861624081,-151.50384410575106,208.49615589424894,31.280348111279924,18.975981261559582,-11.394203327874143,-139.38625464412098,0.5292010736787858,4.5446874536962145,-46.89803578212928,-41.575168044030306,52.0,,,14.0976005,66.3316823,20190519,125527,2019-05-19T12:55:27Z,48.137,0.65,1.39,7.75,10,6,16,0.01,-0.02,-0.01,0,0,0,0,5,5,14.09759487727461,66.33168668484882,50,1821762,48,99,203,3469,3469,4389,4396,174,17559,27,212,17564,0,false,false,false,false,false,false,true,false,false,false,5457,5690,4893,4878,54,69,69,54,1516,1545,1470,1462,1511,1537,1461,1451,0.0,0.0,0.0,0.0,1655.8,1650.8,1650.2,1652.7,3.9,3.92,3.88,2.66,0,0,0,0,169.78312037027325,14.097600876885325,66.33168214609196,0,6.988537,6.030054,-0.021754485,-0.030390661,-0.9898425,0.99054784,2.0619981,5.3759294,-5.063485,7.6675506,-131,164,1508,1522.0,0.005546668,0.0025091164,0.018058384,0.019056926,0.0060877904378700345,0.008739000140001021,1.1096934413179829,-1.050990114059509,-146.24119273329006,213.75880726670994,28.345471163759466,12.66243449456084,-3.4936270387977193,-139.66125550927563,0.5713422874098737,5.020690369467211,-19.483259326149636,-14.160391588050667,51.99,NONE,0.0,0.0,0.0,NONE,1.7464267569471573E-10,2.5152159079499E-10,9.393692E-5,2,48.52,51.6,43.0,41.67,16.701,16.701,5.945,7.212023,1675,3357,4.17,12.0,7.086,98,24.5,OK,88,0,0,0,0,0,65,100,0.0,0,0.0,-1.01581596E34,2.66E-43,0.0,-1.4206529E23,63,1.9993251E-10,-3.5178315E-11,3.6935813E-37,False,False,0,None,5.0145082E30,5.734182E-19,
360394342,26.321,14.09760070047544,66.33168243233308,16,7.273782,6.5230813,-0.015750775,-0.021512426,-0.99119097,0.9915495,-1.5049223,4.5536804,0.9054705,4.880643,-136,167,1508,1523.0,-0.028280599,-0.0143159395,0.0010817284,0.03171606,0.0316976084890714,-0.0105080114842637,1.1285379314921036,-0.8421834221182133,-151.64139074665482,208.35860925334518,32.25951357606159,20.688413252902976,-12.665558258790902,-139.05149956465095,0.5395945986778307,4.57377262420946,-170.83677664187402,-165.51390890377505,52.29,,,14.0976001,66.3316821,20190519,125528,2019-05-19T12:55:28Z,48.236,0.65,1.39,7.77,10,6,16,-0.02,-0.03,-0.01,0,0,0,0,5,5,14.09759487727461,66.33168668484882,50,1821763,19,100,204,3469,3469,4386,4393,130,17562,27,1,17564,0,false,false,false,false,false,false,true,false,false,false,5471,5688,4877,4822,55,69,69,54,1518,1550,1466,1455,1514,1538,1455,1441,0.0,0.0,0.0,0.0,1656.4,1650.2,1650.8,1655.8,3.92,4.13,3.73,2.58,0,0,0,0,169.44670314165828,14.09760055108611,66.33168194994542,0,7.051875,6.0362263,-0.01774093,-0.020821653,-0.99025196,0.9906297,-5.26099,-3.1392539,-8.085991,10.144761,-133,167,1511,1526.0,-0.019742386,0.0050929803,0.010430518,0.022901876,0.020388728625440288,0.005512346917955064,1.2811249739569377,-0.8205856779738648,-146.38430634457436,213.61569365542564,26.981008048829374,11.892154892794393,-2.520009012295991,-139.27135092340075,0.5842469625452901,5.062637923945658,-39.99588416672058,-34.67301642862161,52.31,NONE,0.0,0.0,0.0,NONE,-1.3838868897357744E-9,-3.6142006099603546E-10,7.2956085E-5,2,49.35,52.39,41.8,39.65,16.705,16.705,5.951,7.173073,1683,3355,4.164,12.0,7.098,98,24.5,OK,89,0,0,0,0,0,65,100,0.0,0,0.0,-1.4229588E23,2.66E-43,0.0,-1.4206529E23,63,2.0096635E-10,-3.530799E-11,3.7550537E-37,False,False,0,None,5.2652685E30,5.752049E-19,
364253558,27.324,14.097599460149194,66.33168209407269,16,7.0284386,6.5347285,-0.012482619,-0.019876543,-0.97781235,0.978094,-1.6941638,3.6114514,-2.4736893,4.693816,-136,167,1505,1520.0,-0.004542103,-0.027422016,0.003380462,0.02800045,0.0277956413071796,0.03893831259163576,1.2785834131403246,-0.9626296482117196,-151.7602543723834,208.2397456276166,32.178300636735784,20.571199413836368,-14.253279582563563,-140.41695068173198,0.5499364885388012,4.649367687456164,-144.50692517387594,-139.18405743577696,52.61,,,14.0975992,66.3316816,20190519,125529,2019-05-19T12:55:29Z,48.288,0.65,1.39,7.78,10,6,16,0.01,-0.03,-0.01,0,0,0,0,5,5,14.09759487727461,66.33168668484882,50,1821764,114,100,205,3469,3469,4385,4392,0,17528,27,3446,714,0,false,false,false,false,false,false,true,false,false,false,5444,5642,4887,4835,55,69,69,55,1523,1547,1466,1454,1519,1539,1446,1441,0.0,0.0,0.0,0.0,1653.3,1650.2,1650.8,1654.6,4.25,3.83,3.31,2.74,0,0,0,0,169.61385152508936,14.09759940904497,66.33168139495262,0,6.9835186,6.0399323,-0.012956916,-0.018985936,-0.9752942,0.97556496,0.740496,-9.112636,0.4934879,9.155981,-136,167,1505,1520.0,0.0010732942,-0.016474992,0.0197129,0.025713338,0.01650991545560346,0.0632965110318166,1.300797054701953,-0.8532952748589987,-146.33357987250253,213.66642012749747,28.594733745835402,13.465663601777937,1.599660493770123,-140.0344878598319,0.6220224333535325,5.15898624953038,-147.7075190824797,-142.38465134438073,52.61,NONE,0.0,0.0,0.0,NONE,-1.433570409541781E-9,1.3385928175464203E-11,7.390976E-5,2,49.23,52.85,41.73,39.45,16.695,16.695,5.939,7.140314,1690,3353,4.168,12.0,7.023,97,24.5,OK,90,0,0,0,0,0,65,100,0.0,0,0.0,-2.8529262E-13,2.66E-43,0.0,-1.4206529E23,63,2.0165203E-10,-3.5393254E-11,4.110013E-37,False,False,0,None,6.1672625E30,5.763828E-19,
368178507,28.344,14.097598031122592,66.33168144509298,16,6.871012,6.540077,-0.015864117,-0.03360066,-0.9811818,0.98188514,-4.653457,4.036455,-10.446912,12.127885,-151,164,1508,1524.0,0.0091267545,0.026204761,0.005160841,0.028224483,0.027748642822681288,0.06667084827380945,1.0582855981383814,-0.2801678747895452,-152.01794296529616,207.98205703470384,32.30955932838073,21.030408304884407,-13.640404480585978,-139.32353021719254,0.599401639409577,4.755083929068134,-103.23261645534416,-97.9097487172452,52.93,,,14.0975973,66.3316812,20190519,125530,2019-05-19T12:55:30Z,48.292,0.65,1.39,7.81,10,6,16,0.0,-0.01,0.0,0,0,0,0,5,5,14.09759487727461,66.33168668484882,50,2061729,48,100,206,3427,3456,4368,4375,0,17459,21,212,5,0,false,false,false,false,false,false,true,false,false,false,5480,5655,5079,4683,55,71,71,55,1526,1547,1488,1439,1521,1537,1465,1427,0.0,0.0,0.0,0.0,1653.3,1647.8,1647.8,1653.3,4.06,3.94,4.02,2.57,0,0,0,0,157.41866616889016,14.097597576810587,66.33168097700838,0,6.894793,6.0435677,-0.015327261,-0.02705041,-0.97840196,0.97889584,10.963676,-11.765182,10.812031,19.378384,-151,164,1505,1521.0,0.009559185,0.029242408,0.018265564,0.035778865,0.030765181301156748,0.06145251246557094,1.0617739983242949,-0.17282476336058106,-146.50950095675339,213.49049904324661,28.512545814542133,14.485053261643783,1.822778687829692,-138.81831030934143,0.6460210874624589,5.266605646784566,-129.63046543109078,-124.3075976929918,52.91,NONE,0.0,0.0,0.0,NONE,-2.1457290094713573E-9,-1.532019478705921E-10,6.67572E-6,2,48.76,52.21,44.7,38.87,16.691,16.691,5.945,7.114258,1695,3351,4.164,12.0,7.166,97,24.6,OK,91,0,0,0,0,0,65,100,0.0,0,0.0,14.48584,2.66E-43,0.0,-1.4206529E23,63,2.0228796E-10,-3.547319E-11,4.338224E-37,False,False,0,None,6.7368697E30,5.7749454E-19,
372027779,29.345,14.097597212334463,66.33168095525622,15,7.1344733,6.5432477,-0.016968975,-0.040014554,-0.997466,0.99841255,-1.1362602,-2.8396888,-4.868135,5.749231,-122,195,1505,1522.0,-0.015622795,0.026091468,0.0022700212,0.030495727,0.03041112261236946,0.03515585941090406,2.4699886101633317,-1.536859608825578,-151.9094509756886,208.0905490243114,29.876461577710593,20.483160243150454,-19.236661276486707,-141.35036321286339,0.6455718387491587,4.843930807697263,-157.7065567384403,-152.38368900034132,53.21,,,14.0975967,66.3316806,20190519,125531,2019-05-19T12:55:31Z,48.272,0.65,1.5,7.84,10,5,15,-0.02,0.04,0.01,0,0,0,0,5,5,14.09759487727461,66.33168668484882,50,2061729,48,100,207,3427,3456,4368,4375,0,17459,21,212,5,0,false,false,false,false,false,false,true,false,false,false,5590,5751,4969,4811,55,70,70,55,1526,1550,1474,1451,1518,1543,1461,1440,0.0,0.0,0.0,0.0,1653.9,1650.8,1647.8,1652.7,4.09,3.85,3.5,2.69,0,0,0,0,168.4502786128883,14.097597040163262,66.3316803976399,0,7.105408,6.0411587,-0.01634078,-0.0377609,-0.9962718,0.99712104,7.6401906,1.8847647,4.9652658,9.304769,-122,192,1505,1522.0,-0.008694726,0.042054567,0.015662499,0.045711037,0.04294397441805097,0.025760361912113984,2.4494317342603504,-1.3609162442704845,-146.33029812632748,213.66970187367252,31.952132284056077,18.756673408363486,1.906380872125706,-141.0741013134531,0.7057409282910792,5.338037215240067,-159.4086099115064,-154.08574217340743,53.18,NONE,0.0,0.0,0.0,NONE,5.0621364026087735E-9,1.8807229079197468E-11,1.2111664E-4,2,48.73,52.13,43.2,40.96,16.684,16.684,5.942,7.097867,1698,3349,4.165,12.0,7.118,97,24.6,OK,92,0,0,0,0,0,65,100,0.0,0,0.0,1.9823597E-30,2.66E-43,0.0,-1.4206529E23,63,2.0186874E-10,-3.5420788E-11,4.8901554E-37,False,False,0,None,8.1143875E30,5.767666E-19,
376006130,30.379,14.097595795242515,66.33168016718865,16,7.003638,6.5634966,-0.027355695,-0.046007436,-0.97276884,0.97424036,2.2771637,5.197448,0.6463074,5.711099,-111,207,1502,1520.0,0.011960782,0.02366332,-0.012013221,0.029108943,0.026514393004556595,0.07801155567469747,2.7077274157982076,-1.8151492011493509,-151.9120514289591,208.0879485710409,30.095179358074258,21.287293803539406,-19.966226170178977,-139.45737241529855,0.7258882307610319,4.953223131059369,-135.6354222265672,-130.3125544884682,53.52,,,14.0975957,66.3316801,20190519,125532,2019-05-19T12:55:32Z,48.214,0.65,1.39,7.83,10,6,16,0.01,0.04,0.02,0,0,0,0,5,5,14.09759487727461,66.33168668484882,50,2061729,48,100,208,3427,3456,4368,4375,0,17459,21,212,5,0,false,false,false,false,false,false,true,false,false,false,5418,5684,5102,4848,55,70,71,56,1521,1547,1479,1446,1519,1543,1467,1440,0.0,0.0,0.0,0.0,1652.7,1647.8,1648.4,1652.1,4.03,3.81,4.1,2.4,0,0,0,0,155.70611239741493,14.097595813835404,66.33167970300633,0,6.9666452,6.033658,-0.02941656,-0.046504002,-0.9747316,0.9762836,-0.16063845,-2.9144409,-3.075099,4.239812,-111,207,1502,1520.0,0.01192905,0.047205936,0.01201199,0.050149683,0.0486898610435646,0.04287193751764924,2.6668183132608374,-1.7133641264232184,-146.30189526551814,213.69810473448186,31.786488321573874,18.80982921873303,-0.11987211739376263,-138.7508218113431,0.7774702934637738,5.443358467821254,-164.0140515892588,-158.69118385115982,53.48,NONE,0.0,0.0,0.0,NONE,4.97102197946769E-9,8.079746248358647E-10,8.106232E-5,2,49.31,52.97,44.71,39.83,16.683,16.683,5.933,7.090378,1699,3347,4.162,12.0,7.14,97,24.7,OK,93,0,0,0,0,0,65,100,0.0,0,0.0,1.3360559E21,2.65E-43,0.0,-1.4206529E23,63,2.0053292E-10,-3.5252922E-11,5.5582587E-37,False,False,0,None,9.7814285E30,5.744505E-19,
