Tick#,offsetTime,IMU_ATTI(0):Longitude,IMU_ATTI(0):Latitude,IMU_ATTI(0):numSats,IMU_ATTI(0):barometer:Raw,IMU_ATTI(0):barometer:Smooth,IMU_ATTI(0):accel:X,IMU_ATTI(0):accel:Y,IMU_ATTI(0):accel:Z,IMU_ATTI(0):accel:Composite,IMU_ATTI(0):gyro:X,IMU_ATTI(0):gyro:Y,IMU_ATTI(0):gyro:Z,IMU_ATTI(0):gyro:Composite,IMU_ATTI(0):mag:X,IMU_ATTI(0):mag:Y,IMU_ATTI(0):mag:Z,IMU_ATTI(0):mag:Mod,IMU_ATTI(0):velN,IMU_ATTI(0):velE,IMU_ATTI(0):velD,IMU_ATTI(0):velComposite,IMU_ATTI(0):velH,IMU_ATTI(0):GPS-H,IMU_ATTI(0):roll,IMU_ATTI(0):pitch,IMU_ATTI(0):yaw,IMU_ATTI(0):yaw360,IMU_ATTI(0):totalGyro:Z,IMU_ATTI(0):totalGyro:X,IMU_ATTI(0):totalGyro:Y,IMU_ATTI(0):magYaw,IMU_ATTI(0):distanceHP,IMU_ATTI(0):distanceTravelled,IMU_ATTI(0):directionOfTravel[mag],IMU_ATTI(0):directionOfTravel[true],IMU_ATTI(0):temperature,General:relativeHeight,General:absoluteHeight,GPS(0):Long,GPS(0):Lat,GPS(0):Date,GPS(0):Time,GPS:dateTimeStamp,GPS(0):heightMSL,GPS(0):hDOP,GPS(0):pDOP,GPS(0):sAcc,GPS(0):numGPS,GPS(0):numGLNAS,GPS(0):numSV,GPS(0):velN,GPS(0):velE,GPS(0):velD,RC:Aileron,RC:Elevator,RC:Rudder,RC:Throttle,Controller:navHealth,Controller:ctrl_level,HP:Longitude,HP:Latitude,HP:rthHeight,OA:avoidObst,OA:emergBrake,OA:radiusLimit,OA:airportLimit,OA:groundForceLanding,OA:horizNearBoundary,OA:vertLowLimit,OA:vertAirportLimit,OA:roofLimit,OA:hitGroundLimit,Motor:Speed:RFront,Motor:Speed:LFront,Motor:Speed:LBack,Motor:Speed:RBack,Motor:EscTemp:RFront,Motor:EscTemp:LFront,Motor:EscTemp:LBack,Motor:EscTemp:RBack,Motor:PPMrecv:RFront,Motor:PPMrecv:LFront,Motor:PPMrecv:LBack,Motor:PPMrecv:RBack,Motor:PPMsend:RFront,Motor:PPMsend:LFront,Motor:PPMsend:LBack,Motor:PPMsend:RBack,Motor:V_out:RFront,Motor:V_out:LFront,Motor:V_out:LBack,Motor:V_out:RBack,Motor:Volts:RFront,Motor:Volts:LFront,Motor:Volts:LBack,Motor:Volts:RBack,Motor:Current:RFront,Motor:Current:LFront,Motor:Current:LBack,Motor:Current:RBack,Motor:Status:RFront,Motor:Status:LFront,Motor:Status:LBack,Motor:Status:RBack,Motor:thrustAngle,IMU_ATTI(1):Longitude,IMU_ATTI(1):Latitude,IMU_ATTI(1):numSats,IMU_ATTI(1):barometer:Raw,IMU_ATTI(1):barometer:Smooth,IMU_ATTI(1):accel:X,IMU_ATTI(1):accel:Y,IMU_ATTI(1):accel:Z,IMU_ATTI(1):accel:Composite,IMU_ATTI(1):gyro:X,IMU_ATTI(1):gyro:Y,IMU_ATTI(1):gyro:Z,IMU_ATTI(1):gyro:Composite,IMU_ATTI(1):mag:X,IMU_ATTI(1):mag:Y,IMU_ATTI(1):mag:Z,IMU_ATTI(1):mag:Mod,IMU_ATTI(1):velN,IMU_ATTI(1):velE,IMU_ATTI(1):velD,IMU_ATTI(1):velComposite,IMU_ATTI(1):velH,IMU_ATTI(1):GPS-H,IMU_ATTI(1):roll,IMU_ATTI(1):pitch,IMU_ATTI(1):yaw,IMU_ATTI(1):yaw360,IMU_ATTI(1):totalGyro:Z,IMU_ATTI(1):totalGyro:X,IMU_ATTI(1):totalGyro:Y,IMU_ATTI(1):magYaw,IMU_ATTI(1):distanceHP,IMU_ATTI(1):distanceTravelled,IMU_ATTI(1):directionOfTravel[mag],IMU_ATTI(1):directionOfTravel[true],IMU_ATTI(1):temperature,IMUEX(0):err,IMUEX(0):rtk_Longitude,IMUEX(0):rtk_Latitude,IMUEX(0):rtk_Alti,IMUEX(1):err,IMUEX(1):rtk_Longitude,IMUEX(1):rtk_Latitude,IMUEX(1):rtk_Alti,BattInfo:Voltage,BattInfo:BatVoltage,BattInfo:AdVoltage,BattInfo:AvgCurrent,BattInfo:R_time,BattInfo:R_CAP_MAH,BattInfo:LowCellVoltage,BattInfo:LowCellVolThreshold,BattInfo:BatCurrent,BattInfo:Remaining%,BattInfo:Temp,BattInfo:status,battery_info:BatDynCnt,battery_info:Vol1Protect,battery_info:Vol2Protect,battery_info:Cap1Protect,battery_info:Cap2Protect,battery_info:Batpresent,battery_info:sopPercentage,battery_info:sopValue,battery_info:sopScale,battery_info:sopFlg,BattInfo:WindHeading:WindDir,battery_info:home_dir,BattInfo:Wind:rangeMin,BattInfo:Wind:rangeMax,battery_info:cap_speed,battery_info:against_wind,battery_info:emergency_land_cap,battery_info:intel_bat_land_cap,battery_info:intel_bat_gh_cap,BattInfo:Smart:SmartGh,BattInfo:Smart:SmartLand,BattInfo:GoHome:CntDown,BattInfo:GoHome:GhCmd,BattInfo:GoHome:CapLevel,BattInfo:GoHome:LandCapLv,Attribute|Value,ConvertDatV3,3.6.6-Tablet
7088473,1.842,,,,,,,,,,,,,,,,,,,,,,,,,,,,,,,,,,,,,,,,,,,,,,,,,,,,,,,,,,,,,,,,,,,,,,,,,,,,,,,,,,,,,,,,,,,,,,,,,,,,,,,,,,,,,,,,,,,,,,,,,,,,,,,,,,,,,,,,,,,,,,,,,,,,,,,,,,,,,,,,,OK,,,,,,,,,,,,,,,,,,,,,,,,,,Firmware Date| Oct 17 2018
442028055,114.881,,,,,,,,,,,,,,,,,,,,,,,,,,,,,,,,,,,,,,,,,,,,,,,,,,,,,,,,,,,,,,,,,,,,,,,,,,,,,,,,,,,,,,,,,,,,,,,,,,,,,,,,,,,,,,,,,,,,,,,,,,,,,,,,,,,,,,,,,,,,,,,,,,,,,,,,,,,,,,,,,OK,,,,,,,,,,,,,,,,,,,,,,,,,,ACType|MavicEnterprise
445937305,115.897,,,0,-13.037206,-12.894992,0.062099013,-0.010636605,-0.9882862,0.9902924,0.41955626,0.14922681,-0.10687634,0.4579505,-305,-443,984,1121.0,-0.011899881,0.026263574,-0.025457127,0.038463593,0.028833704648492088,-0.028833704648492088,0.5815684592436718,3.4542337972071797,120.64609238191612,120.6460923819161,-0.031519925121811364,0.3182877333110709,-0.013062717909603854,118.45042547543271,,0.0,,,57.83,,,0.0,0.0,20151018,153,2015-10-18T00:01:53Z,-17.0,99.99,99.99,3.7500008E7,0,0,0,0.0,0.0,0.0,0,0,0,0,0,0,,,,false,false,false,false,false,false,false,false,false,false,0,0,0,0,47,61,60,46,943,945,944,943,940,940,940,940,0.0,0.0,0.0,0.0,1515.9,1509.8,1510.4,1514.7,0.0,0.0,0.0,0.0,0,0,0,0,-45.0,1.2679857232596256E-10,2.4697109099118598E-11,0,-12.963221,-12.45509,0.062130887,-0.012431176,-0.98899704,0.9910247,0.31701747,-0.02988449,-0.029926494,0.31982613,-302,-443,984,1120.0,4.163018E-4,0.0019359614,-0.00200818,0.0028202909,0.001980215675029381,-0.001980215675029381,0.5908062699845735,3.6034892320433434,118.70393065005884,118.70393065005885,-0.004031415915613203,0.37132569123858744,-0.02922104723941745,117.893230046603,,7.310310169343241E-5,,,57.9,NONE,0.0,0.0,0.0,NONE,4.999658671587748E-11,6.572509793171577E-11,0.0,15.238,15.238,5.442,1.4450772,0,1663,3.806,12.0,1.456,46,22.5,OK,109,0,0,0,0,0,65,98,0.0,0,0.0,589232.0,2.69E-43,0.0,-5.9807744E7,62,2.4414156E-5,-2.4414278E-5,9.4E-44,False,False,0,None,0.0,1.0842022E-19,dateTime|2015-10-18 0:1:53 GMT
449799904,116.901,0.0,0.0,0,-12.98436,-12.988698,0.06311432,-0.010776145,-0.9889489,0.99101937,0.3645031,0.0791094,-0.13162024,0.39553088,-302,-446,987,1124.0,-0.014352221,0.03266875,0.02419231,0.04311034,0.035682396829509806,-0.035682396829509806,0.5906497619106775,3.4697430081509077,120.63482529611292,120.63482529611292,-0.12018505008855691,0.706292067382509,-0.049922609212007744,117.94645357068202,,0.0,,,58.19,,,0.0,0.0,20151018,154,2015-10-18T00:01:54Z,-17.0,99.99,99.99,3.7500008E7,0,0,0,0.0,0.0,0.0,0,0,0,0,0,0,,,,false,false,false,false,false,false,false,false,false,false,0,0,0,0,48,61,61,48,943,945,944,944,940,940,940,940,0.0,0.0,0.0,0.0,1515.9,1510.4,1509.8,1515.3,0.0,0.0,0.0,0.0,0,0,0,0,-45.0,-7.000860736892756E-11,-1.1250905256899353E-10,0,-12.883951,-12.455449,0.062945716,-0.010190604,-0.9888225,0.9908764,0.3219422,-0.034616984,-0.013181078,0.32406613,-302,-446,987,1124.0,-0.0017136561,-0.0010306039,3.0609884E-4,0.0020229826,0.001999690404253745,-0.001973116115411446,0.6061016386919608,3.6257122847601377,118.7161939591648,118.7161939591648,-0.035051666420426265,0.7233379311574534,-0.06766006526833382,117.66627785737573,,1.401547629620778E-4,,,58.23,NONE,0.0,0.0,0.0,NONE,-7.198303750089348E-11,-1.1107006111830099E-10,2.861023E-6,15.239,15.239,5.441,1.445842,0,1663,3.806,12.0,1.428,46,22.5,OK,110,0,0,0,0,0,65,98,0.0,0,0.0,589232.0,2.69E-43,0.0,-5.9807744E7,62,2.4414156E-5,-2.4414278E-5,9.4E-44,False,False,0,None,0.0,1.0842022E-19,
453713382,117.918,0.0,0.0,0,-13.005498,-12.995424,0.061340686,-0.008924529,-0.98854953,0.9904911,0.39644447,-0.042336002,0.0014895549,0.39870137,-302,-443,987,1123.0,-0.018064613,0.033496052,-9.1100624E-4,0.038067646,0.038056742959475934,-0.038056742959475934,0.6108246509635297,3.4821071026932997,120.63056659269823,120.63056659269824,-0.1655251281166504,1.1228327843882944,-0.023603350531671365,118.06465832243657,,0.0,,,58.52,,,0.0,0.0,20151018,155,2015-10-18T00:01:55Z,-17.0,99.99,99.99,3.7500008E7,0,0,0,0.0,0.0,0.0,0,0,0,0,0,0,,,,false,false,false,false,false,false,false,false,false,false,0,0,0,0,48,62,63,48,943,944,944,944,940,940,940,940,0.0,0.0,0.0,0.0,1515.3,1511.1,1510.4,1514.7,0.0,0.0,0.0,0.0,0,0,0,0,-45.0,1.7569081675424668E-11,8.02154071923675E-11,0,-12.841674,-12.454807,0.061003763,-0.011849565,-0.990802,0.9927489,0.4099132,0.08856815,0.04224636,0.42149487,-302,-443,990,1125.0,0.003606178,7.5688865E-4,-0.0028183209,0.004639001,0.0036847524679907845,-0.00366160927909122,0.6126111274756457,3.638207559345542,118.7225962940649,118.72259629406489,-0.08451152554759203,1.1220919787234918,-0.11248431292352415,117.77421109339309,,2.471118227658305E-4,,,58.48,NONE,0.0,0.0,0.0,NONE,-9.283168108677621E-11,-1.8740353788246094E-12,-6.67572E-6,15.238,15.238,5.44,1.4456621,0,1662,3.806,12.0,1.438,46,22.5,OK,111,0,0,0,0,0,65,98,0.0,0,0.0,589232.0,2.69E-43,0.0,-5.9807744E7,62,2.4414156E-5,-2.4414278E-5,9.4E-44,False,False,0,None,0.0,1.0842022E-19,
457589524,118.925,0.0,0.0,0,-13.142899,-13.022277,0.060981672,-0.011395359,-0.98907536,0.991019,0.18855791,0.007926415,-0.11380824,0.22038427,-302,-443,984,1120.0,-0.018212637,0.032121293,-0.0027597,0.03702828,0.03692529850463333,-0.03692529850463333,0.5891460031090187,3.471486976144261,120.61538808696028,120.61538808696025,-0.2757877606748144,1.4574754841047137,-0.07765714152312149,118.12085098374351,,0.0,,,58.8,,,0.0,0.0,20151018,156,2015-10-18T00:01:56Z,-17.0,99.99,99.99,3.7500008E7,0,0,0,0.0,0.0,0.0,0,0,0,0,0,0,,,,false,false,false,false,false,false,false,false,false,false,0,0,0,0,48,62,62,48,942,945,944,943,940,940,940,940,0.0,0.0,0.0,0.0,1515.3,1511.1,1510.4,1514.7,0.0,0.0,0.0,0.0,0,0,0,0,-45.0,-9.878843638889681E-11,-1.7033642995239997E-11,0,-12.841674,-12.4546,0.060457032,-0.01089814,-0.98983675,0.9917412,0.35057765,-0.2005459,-0.040215507,0.40588254,-302,-443,984,1120.0,-2.0794367E-4,-0.0015321648,-0.0026581418,0.0030751403,0.0015462113037318294,-0.0015294727899469484,0.6152014643419107,3.6238896285253084,118.71063596350675,118.71063596350677,-0.12575289393579037,1.4856944376747714,-0.18284646084041606,117.83761421858713,,3.6998161226069534E-4,,,58.83,NONE,0.0,0.0,0.0,NONE,5.752619314629069E-11,8.262488125549256E-11,0.0,15.238,15.238,5.442,1.4444289,0,1662,3.806,12.0,1.423,46,22.5,OK,112,0,0,0,0,0,65,98,0.0,0,0.0,589232.0,2.69E-43,0.0,-5.9807744E7,62,2.4414156E-5,-2.4414278E-5,9.4E-44,False,False,0,None,0.0,1.0842022E-19,
461611963,119.971,0.0,0.0,0,-12.714843,-12.992503,0.06412428,-0.010120144,-0.98892564,0.9910541,0.35961187,0.1279911,0.028442448,0.38276806,-302,-443,987,1123.0,-0.019515043,0.03207329,-0.017920218,0.041601285,0.03754374428748723,-0.03754374428748723,0.6012776457163738,3.453140949805421,120.60584714153103,120.60584714153106,-0.31433304824325453,1.8266057276165766,-0.1572222063984777,118.12245511598829,,0.0,,,59.08,,,0.0,0.0,20151018,157,2015-10-18T00:01:57Z,-17.0,99.99,99.99,3.7500008E7,0,0,0,0.0,0.0,0.0,0,0,0,0,0,0,,,,false,false,false,false,false,false,false,false,false,false,0,0,0,0,49,62,62,49,943,945,944,943,940,940,940,940,0.0,0.0,0.0,0.0,1515.3,1510.4,1510.4,1514.7,0.0,0.0,0.0,0.0,0,0,0,0,-45.0,1.1177282437174061E-11,-7.897720524470296E-11,0,-13.074198,-12.454725,0.06290159,-0.01036818,-0.9894256,0.99147725,0.41560185,-0.11696573,-0.11669513,0.44724002,-302,-443,990,1125.0,-0.001223798,1.8307011E-4,-0.0014234358,0.0018860981,0.0012374151646724243,-0.001223990690192901,0.6312520126626389,3.606114681956318,118.69734506392045,118.69734506392047,-0.19513669336658457,1.8673688657673393,-0.33534399894174954,117.81391487055625,,4.672507425051526E-4,,,59.04,NONE,0.0,0.0,0.0,NONE,8.56701887471133E-12,8.316031993616272E-11,-1.9073486E-6,15.237,15.237,5.441,1.4422779,0,1661,3.806,12.0,1.426,46,22.5,OK,113,0,0,0,0,0,65,98,0.0,0,0.0,589232.0,2.69E-43,0.0,-5.9807744E7,62,2.4414156E-5,-2.4414278E-5,9.4E-44,False,False,0,None,0.0,1.0842022E-19,
465521278,120.987,0.0,0.0,0,-12.535165,-12.971999,0.0635708,-0.011299274,-0.9919663,0.99406546,0.40412778,-0.087897815,-0.012367192,0.41376108,-302,-443,984,1120.0,-0.019033516,0.034904003,-0.028546236,0.048943352,0.03975631004973864,-0.03975631004973864,0.5966993366378307,3.462873903748665,120.59618600412342,120.59618600412341,-0.36861804121636704,2.195523545762475,-0.2512858479076974,118.12914131703619,,0.0,,,59.35,,,0.0,0.0,20151018,158,2015-10-18T00:01:58Z,-17.0,99.99,99.99,3.7500008E7,0,0,0,0.0,0.0,0.0,0,0,0,0,0,0,,,,false,false,false,false,false,false,false,false,false,false,0,0,0,0,48,61,61,48,943,945,944,943,940,940,940,940,0.0,0.0,0.0,0.0,1515.9,1510.4,1511.7,1514.1,0.0,0.0,0.0,0.0,0,0,0,0,-45.0,4.5880401858379855E-11,-1.5025747946325717E-11,0,-12.994928,-12.454448,0.06127825,-0.009235276,-0.9888018,0.9907418,0.48884955,-0.06389947,-0.16887613,0.5211297,-302,-443,984,1120.0,-2.7953507E-4,6.027267E-4,-0.0011502404,0.0013283344,6.643939793009105E-4,-6.564308935742612E-4,0.6185972892199778,3.626833720766828,118.66721642389736,118.66721642389734,-0.31339244367790803,2.2507167359806273,-0.37754870164366194,117.82969807627236,,5.581983650938103E-4,,,59.4,NONE,0.0,0.0,0.0,NONE,1.3486361743992992E-11,-5.6020271859663186E-11,0.0,15.237,15.237,5.441,1.4395906,0,1661,3.806,12.0,1.429,46,22.5,OK,114,0,0,0,0,0,65,98,0.0,0,0.0,589232.0,2.69E-43,0.0,-5.9807744E7,62,2.4414156E-5,-2.4414278E-5,9.4E-44,False,False,0,None,0.0,1.0842022E-19,
469382863,121.991,0.0,0.0,0,-12.899805,-12.943754,0.062958896,-0.011327427,-0.99202126,0.9940817,0.49541667,-0.06879063,-0.15419024,0.523397,-302,-443,984,1120.0,-0.020193674,0.03472309,-0.02579664,0.047738288,0.040168113739488746,-0.040168113739488746,0.5988137731618396,3.4636866433797677,120.57688353871634,120.57688353871634,-0.4543082347414065,2.5631341209662293,-0.32407519874445273,118.12595243367309,,0.0,,,59.73,,,0.0,0.0,20151018,159,2015-10-18T00:01:59Z,-17.0,99.99,99.99,3.7500008E7,0,0,0,0.0,0.0,0.0,0,0,0,0,0,0,,,,false,false,false,false,false,false,false,false,false,false,0,0,0,0,49,62,61,48,943,945,944,943,940,940,940,940,0.0,0.0,0.0,0.0,1515.9,1509.8,1510.4,1514.7,0.0,0.0,0.0,0.0,0,0,0,0,-45.0,-2.078171375035475E-11,3.761456723896738E-11,0,-13.047775,-12.453929,0.061134253,-0.01142108,-0.99227244,0.99421954,0.5388413,-0.07125738,0.09933102,0.55253434,-302,-443,984,1120.0,6.138508E-4,-3.6509705E-4,-0.0034873763,0.0035597614,7.142188981285047E-4,-7.048079378011876E-4,0.6074712835155143,3.6276802985205205,118.66529137080863,118.66529137080863,-0.43631600344821564,2.612153351535578,-0.4875559696094247,117.83761210389572,,6.690958378310075E-4,,,59.72,NONE,0.0,0.0,0.0,NONE,5.96344829415697E-11,-1.3800931966949127E-10,-8.583069E-6,15.238,15.238,5.442,1.4369158,0,1661,3.806,12.0,1.427,46,22.5,OK,115,0,0,0,0,0,65,98,0.0,0,0.0,589232.0,2.69E-43,0.0,-5.9807744E7,62,2.4414156E-5,-2.4414278E-5,9.4E-44,False,False,0,None,0.0,1.0842022E-19,
473297020,123.008,0.0,0.0,0,-12.424188,-12.593451,0.18870197,-0.13794588,-0.9437751,0.9722906,-0.7524571,1.9099903,-81.60044,81.62626,-308,-177,1257,1306.0,0.21855699,-0.42139056,-0.10241979,0.4856202,0.47469690088803773,-0.47469690088803773,2.0796607443112203,1.419794306430172,127.4594257745041,127.4594257745041,7.23701010193983,3.987672555791818,-2.3966618908700097,141.2209430910575,,0.0,,,60.0,-0.07637466021728478,,0.0,0.0,20151018,200,2015-10-18T00:02:00Z,-17.0,99.99,99.99,3.7500008E7,0,0,0,0.0,0.0,0.0,0,0,0,0,0,0,,,,false,false,false,false,false,false,false,false,false,false,0,0,0,0,48,62,62,49,943,944,944,944,940,940,940,940,0.0,0.0,0.0,0.0,1515.9,1510.4,1511.1,1514.7,0.0,0.0,0.0,0.0,0,0,0,0,-45.0,6.121770439288563E-9,-2.985371638041083E-9,0,-12.667281,-12.059211,0.20905845,-0.14554797,-0.9085319,0.94356763,-8.346197,-26.12283,-76.02166,80.816795,-340,-180,1239,1297.0,-0.1344305,0.2775509,-0.15454085,0.34494773,0.3083927127434838,-0.307644383707116,2.4285386896106047,1.6889344061727816,127.51443497044393,127.51443497044392,9.044311087977599,3.1308867591499285,-2.174686947842849,142.57323616566117,,0.010510070983845685,112.32997602637899,112.32997602637899,59.99,NONE,0.0,0.0,0.0,NONE,-1.4843430210772122E-8,5.429749473699134E-9,-6.3610077E-4,15.235,15.235,5.441,1.434544,0,1660,3.806,12.0,1.432,46,22.5,OK,116,0,0,0,0,0,65,98,0.0,0,0.0,589232.0,2.69E-43,0.0,-5.9807744E7,62,2.4414156E-5,-2.4414278E-5,9.4E-44,False,False,0,None,0.0,1.0842022E-19,
477231583,124.030,0.0,0.0,0,-12.265649,-12.584852,0.030924056,-0.08769276,-0.927998,0.93264496,0.8539268,-4.6841393,-1.5581433,5.0098066,-268,-199,1292,1334.0,0.0,0.0,-0.022725739,0.022725739,0.0,0.0,4.680692264677603,1.1084336221941216,119.34022262674324,119.34022262674324,-0.7422215313759798,6.517462199741158,-3.9913696172182638,128.69895295399112,,0.0,,,60.3,0.08216415814209022,,0.0,0.0,20151018,201,2015-10-18T00:02:01Z,-17.0,99.99,99.99,3.7500008E7,0,0,0,0.0,0.0,0.0,0,0,0,0,0,0,,,,false,false,false,false,false,false,false,false,false,false,0,0,0,0,48,61,61,49,943,945,943,943,940,940,940,940,0.0,0.0,0.0,0.0,1515.9,1511.7,1511.1,1515.3,0.0,0.0,0.0,0.0,0,0,0,0,-45.0,-3.182445485480349E-10,1.0953066832962383E-10,0,-12.413618,-12.072076,0.0291309,-0.095556594,-0.9401443,0.94543695,3.4599092,-2.3165967,-1.135253,4.31583,-268,-205,1292,1335.0,0.005093487,-0.013820238,-0.0077130897,0.016626315,0.014728971473699873,-0.013952014516193092,4.7803276957893335,1.2967413753382047,117.52858498116176,117.52858498116177,-0.7466985522605069,4.674930457869124,-4.253169228815443,127.4778406062575,,0.012644208992545376,,,60.27,NONE,0.0,0.0,0.0,NONE,3.086054179392816E-8,-1.482189546804084E-8,6.752014E-4,15.236,15.236,5.441,1.4325571,0,1660,3.806,12.0,1.424,46,22.5,OK,117,0,0,0,0,0,65,98,0.0,0,0.0,589232.0,2.69E-43,0.0,-5.9807744E7,62,2.4414156E-5,-2.4414278E-5,9.4E-44,False,False,0,None,0.0,1.0842022E-19,
481186399,125.058,0.0,0.0,0,-12.46118,-12.624969,-0.043161817,-0.00792384,-1.0283917,1.0293275,-15.061694,1.67045,1.3694158,15.215793,-154,-322,1271,1320.0,-0.06810499,0.073311545,0.064037904,0.11880121,0.10006434188615301,-0.10006434188615301,-0.8765032001340245,-4.36643702821222,116.78438655507303,116.78438655507301,-3.047112051002809,0.8802664676303209,-10.104178582109832,129.64700898726457,,0.0,,,60.67,-0.11336673327636682,,0.0,0.0,20151018,202,2015-10-18T00:02:02Z,-17.0,99.99,99.99,3.7500008E7,0,0,0,0.0,0.0,0.0,0,0,0,0,0,0,,,,false,false,false,false,false,false,false,false,false,false,0,0,0,0,47,61,61,47,943,945,945,943,940,940,940,940,0.0,0.0,0.0,0.0,1514.1,1510.4,1510.4,1514.7,0.0,0.0,0.0,0.0,0,0,0,0,-45.0,1.0071601289269365E-9,-1.5404235743831675E-9,0,-12.524595,-12.280904,-0.044521913,-0.017133452,-1.024162,1.0252725,-15.104533,-1.4047507,2.4025755,15.358796,-151,-301,1274,1317.0,-0.06821787,0.045845084,0.16102356,0.18078727,0.08219154341618125,-0.08196258707192998,-0.39823707290014515,-4.023143011154563,115.11207509305267,115.11207509305268,-4.164760085654617,-1.7050380094286908,-12.134565523999223,129.42235066553593,,0.013553503024373505,,,60.64,NONE,0.0,0.0,0.0,NONE,7.301375475636793E-10,-1.9274620615203707E-9,4.2152405E-4,15.236,15.236,5.441,1.4312783,0,1659,3.806,12.0,1.45,46,22.6,OK,118,0,0,0,0,0,65,98,0.0,0,0.0,589232.0,2.69E-43,0.0,-5.9807744E7,62,2.4414156E-5,-2.4414278E-5,9.4E-44,False,False,0,None,0.0,1.0842022E-19,
485047892,126.062,0.0,0.0,0,-12.931513,-12.633763,0.21180773,0.69280654,-0.63564265,0.96378684,-16.91434,45.220947,-10.553386,49.420673,-443,-1174,661,1418.0,0.008087918,-0.008404449,-0.07968522,0.08053436,0.01166401188728277,-0.01166401188728277,-47.046155362554174,21.72229274307453,129.1799471875408,129.1799471875408,2.0117285452561084,-46.558344421759784,7.28157536088196,76.96928217797988,,0.0,,,60.94,-0.5836998326416012,,0.0,0.0,20151018,203,2015-10-18T00:02:03Z,-17.0,99.99,99.99,3.7500008E7,0,0,0,0.0,0.0,0.0,0,0,0,0,0,0,,,,false,false,false,false,false,false,false,false,false,false,0,0,0,0,48,62,61,48,943,945,944,944,940,940,940,940,0.0,0.0,0.0,0.0,1514.7,1509.8,1511.1,1515.3,0.0,0.0,0.0,0.0,0,0,0,0,-45.0,-5.802816538131918E-10,-2.5485541884542928E-9,0,-12.418903,-12.28732,0.21016736,0.66246283,-0.70128465,0.98733354,-10.459492,44.722248,-1.0739646,45.941635,-434,-1168,676,1417.0,-0.11237556,-0.025689239,-0.033138216,0.11994308,0.11527446679793638,-0.11506611109227607,-45.73431789757159,20.168131580294606,127.1804065849731,127.18040658497307,-1.2990632017528245,-49.48047875869542,6.828354793477244,82.48832107224705,,0.018570613447833093,,,60.92,NONE,0.0,0.0,0.0,NONE,-8.31937826385034E-10,-2.6350275321624128E-9,-1.335144E-5,15.236,15.236,5.441,1.431259,0,1659,3.805,12.0,1.441,46,22.6,OK,119,0,0,0,0,0,65,98,0.0,0,0.0,589232.0,2.69E-43,0.0,-5.9807744E7,62,2.4414156E-5,-2.4414278E-5,9.4E-44,False,False,0,None,0.0,1.0842022E-19,
488945228,127.075,0.0,0.0,0,-12.614434,-12.728164,0.19681837,0.20462985,-0.9539275,0.9952831,-14.675502,-8.409149,101.21255,102.6161,-113,-720,1097,1317.0,-0.055432647,-0.24223244,0.17111959,0.30171385,0.2484941355010384,-0.2484941355010384,-13.205105580937945,4.479503847779271,77.96231459386478,77.96231459386479,-34.32366391951963,-15.455494797334712,28.691895547747283,92.0849815449792,,0.0,,,61.28,-0.2666212422485348,,0.0,0.0,20151018,204,2015-10-18T00:02:04Z,-17.0,99.99,99.99,3.7500008E7,0,0,0,0.0,0.0,0.0,0,0,0,0,0,0,,,,false,false,false,false,false,false,false,false,false,false,0,0,0,0,49,61,61,49,943,944,944,944,940,940,940,940,0.0,0.0,0.0,0.0,1514.7,1511.7,1510.4,1514.7,0.0,0.0,0.0,0.0,0,0,0,0,-45.0,-4.831229674139867E-9,-4.224075684807681E-9,0,-12.60915,-12.366009,0.19967796,0.23623663,-0.9248971,0.97525054,-37.748165,-22.838718,69.69119,82.48269,-162,-720,1088,1314.0,-0.1884484,-0.21251263,0.2066407,0.3512475,0.28403240988720463,-0.2835308046531322,-14.138308165735012,5.931551608177221,83.2765626815819,83.27656268158188,-31.85020135998811,-14.700800247559172,29.30045769212396,94.486389826905,,0.028779695866761067,58.03675641248802,58.03675641248802,61.32,NONE,0.0,0.0,0.0,NONE,-1.0365841647045298E-8,-8.964849636867082E-9,4.348755E-4,15.236,15.236,5.441,1.4318886,0,1659,3.805,12.0,1.425,46,22.6,OK,120,0,0,0,0,0,65,98,0.0,0,0.0,589232.0,2.69E-43,0.0,-5.9807744E7,62,2.4414156E-5,-2.4414278E-5,9.4E-44,False,False,0,None,0.0,1.0842022E-19,
492793002,128.075,0.0,0.0,0,-12.899805,-12.728078,0.039017223,0.08423407,-0.98664004,0.9909976,-19.755836,6.141367,53.21035,57.090725,-131,-498,1123,1235.0,-0.13509026,0.03137971,-0.059209205,0.15079719,0.1386869314911834,-0.1386869314911834,-6.066538058589846,-1.1470654489240508,96.49825597052043,96.4982559705204,-14.810747101393147,-7.49784358560577,19.782386436098655,112.29437163946547,,0.0,,,61.56,-0.5519920689697262,,0.0,0.0,20151018,205,2015-10-18T00:02:05Z,-17.0,99.99,99.99,3.7500008E7,0,0,0,0.0,0.0,0.0,0,0,0,0,0,0,,,,false,false,false,false,false,false,false,false,false,false,0,0,0,0,48,61,62,49,943,945,944,944,940,940,940,940,0.0,0.0,0.0,0.0,1515.3,1511.1,1509.8,1515.3,0.0,0.0,0.0,0.0,0,0,0,0,-45.0,1.1906315747984528E-9,-3.8990644924017966E-9,0,-12.545734,-12.4995,-0.006308578,0.12399885,-0.99026114,0.99801433,-23.226446,-12.241786,49.096626,55.67592,-145,-501,1120,1235.0,-0.17397197,0.053306796,0.09143033,0.20363538,0.1819556590944281,-0.18128509701919096,-7.050878354793317,-0.6687563257971132,98.40768168361083,98.4076816836108,-16.308878668212984,-5.151534714169459,24.04781695141698,113.80284806860396,,0.0366734880120901,,,61.59,NONE,0.0,0.0,0.0,NONE,1.142224571082497E-9,-3.855158519533097E-9,2.2888184E-4,15.236,15.236,5.44,1.4320803,0,1658,3.806,12.0,1.426,46,22.6,OK,121,0,0,0,0,0,65,98,0.0,0,0.0,589232.0,2.69E-43,0.0,-5.9807744E7,62,2.4414156E-5,-2.4414278E-5,9.4E-44,False,False,0,None,0.0,1.0842022E-19,
496648063,129.077,0.0,0.0,0,-12.714843,-12.728701,-0.2860849,0.25185102,-0.9798433,1.0513641,23.43806,-20.487328,-10.650604,32.9015,-99,-659,1144,1323.0,0.0,0.0,-0.013660476,0.013660476,0.0,0.0,-11.869273694702668,-5.7841687137678095,99.50010181695437,99.50010181695438,-10.85447585048354,-13.517280256111192,15.168838086246566,118.77833828246729,,0.0,,,61.83,-0.3670297963256832,,0.0,0.0,20151018,206,2015-10-18T00:02:06Z,-17.0,99.99,99.99,3.7500008E7,0,0,0,0.0,0.0,0.0,0,0,0,0,0,0,,,,false,false,false,false,false,false,false,false,false,false,0,0,0,0,49,63,61,48,943,945,944,943,940,940,940,940,0.0,0.0,0.0,0.0,1514.1,1511.1,1511.1,1515.3,0.0,0.0,0.0,0.0,0,0,0,0,-45.0,-6.435872554304428E-9,-1.2633508360354189E-9,0,-12.60915,-12.474509,-0.27245206,0.20060526,-1.0491066,1.1023145,27.844524,-10.477039,7.116455,30.589703,-70,-637,1168,1332.0,-0.055790916,-0.29000705,-0.06569576,0.30254364,0.2953247703546186,-0.2944292393853454,-9.565330759806779,-6.524401231768891,97.55302649561523,97.5530264956152,-16.14482423063866,-7.571832622359795,20.17141332530797,116.07906884595513,,0.04170788546198479,,,61.84,NONE,0.0,0.0,0.0,NONE,-8.784791885703882E-10,-2.3357257627022447E-9,1.5258789E-4,15.233,15.233,5.441,1.4322169,0,1657,3.805,12.0,1.452,46,22.6,OK,122,0,0,0,0,0,65,98,0.0,0,0.0,589232.0,2.69E-43,0.0,-5.9807744E7,62,2.4414156E-5,-2.4414278E-5,9.4E-44,False,False,0,None,0.0,1.0842022E-19,
500503537,130.079,0.0,0.0,0,-12.630288,-12.693004,-0.0910973,0.03189181,-0.9816833,0.9864167,8.500324,-0.6305914,2.1103113,8.781035,-136,-310,1319,1361.0,0.0,0.0,0.020779483,0.020779483,0.0,0.0,-0.6795357052834711,-4.922408273163411,115.68309170346188,115.68309170346186,3.6383208883314837,-0.15204409284519393,15.053339967202804,130.22865192383838,,0.0,,,62.12,-0.2824751240844723,,0.0,0.0,20151018,207,2015-10-18T00:02:07Z,-17.0,99.99,99.99,3.7500008E7,0,0,0,0.0,0.0,0.0,0,0,0,0,0,0,,,,false,false,false,false,false,false,false,false,false,false,0,0,0,0,49,62,61,48,943,945,944,943,940,940,940,940,0.0,0.0,0.0,0.0,1515.3,1511.1,1509.8,1514.7,0.0,0.0,0.0,0.0,0,0,0,0,-45.0,5.447904535071955E-9,-5.638252986619699E-9,0,-12.630288,-12.486257,-0.05812182,-0.0066092373,-0.9554019,0.957191,7.519234,1.2856982,3.8375752,8.539255,-128,-304,1325,1365.0,-0.08365449,0.081946835,0.08495792,0.14467621,0.1171040476248303,-0.11569877127197539,0.2148738528496328,-4.3381299478258315,113.83517909651826,113.83517909651823,-3.698353201209492,4.862136548395998,17.863404114778415,126.39787977979077,,0.04780047818519075,,,62.11,NONE,0.0,0.0,0.0,NONE,1.932933642642007E-9,-1.9330005724772787E-9,1.9741058E-4,15.233,15.233,5.442,1.4331102,0,1657,3.804,12.0,1.439,46,22.6,OK,123,0,0,0,0,0,65,98,0.0,0,0.0,589232.0,2.69E-43,0.0,-5.9807744E7,62,2.4414156E-5,-2.4414278E-5,9.4E-44,False,False,0,None,0.0,1.0842022E-19,
504401226,131.092,0.0,0.0,0,-12.651427,-12.679362,-0.1011047,0.08132417,-0.97182417,0.9804479,-6.2652106,6.331875,-5.8623805,10.6636305,-70,-344,1322,1367.0,-0.026385954,0.008599078,-0.011446765,0.030019846,0.02775180593774136,-0.02775180593774136,-3.0220081098775684,-7.315181324105017,114.23308194496165,114.23308194496167,2.6615993598632977,-2.1186065108592116,12.562995683225774,131.21365380339162,,0.0,,,62.46,-0.3036142689819332,,0.0,0.0,20151018,208,2015-10-18T00:02:08Z,-17.0,99.99,99.99,3.7500008E7,0,0,0,0.0,0.0,0.0,0,0,0,0,0,0,,,,false,false,false,false,false,false,false,false,false,false,0,0,0,0,48,62,62,49,943,945,944,944,940,940,940,940,0.0,0.0,0.0,0.0,1514.7,1510.4,1510.4,1514.1,0.0,0.0,0.0,0.0,0,0,0,0,-45.0,-2.6760221413298674E-10,9.827307722415169E-10,0,-12.630288,-12.49123,-0.105999984,0.06207222,-0.9625412,0.97034764,-7.68704,5.138507,-5.126807,10.572558,-70,-335,1319,1362.0,0.013427582,-0.0034856936,0.014239167,0.019879736,0.013872635301835273,-0.012912522363305165,-2.5746217388219637,-6.995356531476176,112.33532953861626,112.33532953861629,-5.091557588502507,2.5606713612911776,15.555295505594053,130.0842787778023,,0.0497622529277998,,,62.49,NONE,0.0,0.0,0.0,NONE,2.0769792008354626E-10,-1.4383305285311965E-9,6.637573E-4,15.233,15.233,5.441,1.4344575,0,1657,3.804,12.0,1.441,46,22.6,OK,124,0,0,0,0,0,65,98,0.0,0,0.0,589232.0,2.69E-43,0.0,-5.9807744E7,62,2.4414156E-5,-2.4414278E-5,9.4E-44,False,False,0,None,0.0,1.0842022E-19,
508331357,132.113,0.0,0.0,0,-12.693705,-12.671107,-0.11360107,0.040647063,-0.9820891,0.98947275,11.081489,10.790597,-28.609251,32.522694,-73,-369,1322,1374.0,-0.06291469,-0.012135493,-0.0071893707,0.06447647,0.06407439700004586,-0.06407439700004586,-1.9804293323462372,-6.449514097294114,108.31930534771612,108.31930534771612,-3.0920703060441603,-1.273726702380701,14.06074293585242,124.53885164827163,,0.0,,,62.75,-0.3458916051025387,,0.0,0.0,20151018,209,2015-10-18T00:02:09Z,-17.0,99.99,99.99,3.7500008E7,0,0,0,0.0,0.0,0.0,0,0,0,0,0,0,,,,false,false,false,false,false,false,false,false,false,false,0,0,0,0,49,61,61,49,943,946,944,943,940,940,940,940,0.0,0.0,0.0,0.0,1514.7,1511.1,1509.8,1515.3,0.0,0.0,0.0,0.0,0,0,0,0,-45.0,-6.165869263372017E-10,-8.610523335792617E-10,0,-12.477034,-12.505889,-0.10834453,0.06006218,-0.98117644,0.98896575,9.161719,7.011814,-19.014612,22.240911,-70,-372,1322,1375.0,-0.039214,-0.027552813,0.013486038,0.049787235,0.04792593509159057,-0.047721652059590405,-2.0488028982663593,-6.2875407344779655,106.80478790092612,106.8047879009261,-10.880632259083077,2.9694917522655158,16.52558416477068,123.615775649963,,0.05080594049113809,,,62.72,NONE,0.0,0.0,0.0,NONE,-6.136169148585221E-10,-7.763358942713047E-10,2.9563904E-5,15.234,15.234,5.442,1.4356062,0,1656,3.805,12.0,1.431,46,22.6,OK,125,0,0,0,0,0,65,98,0.0,0,0.0,589232.0,2.69E-43,0.0,-5.9807744E7,62,2.4414156E-5,-2.4414278E-5,9.4E-44,False,False,0,None,0.0,1.0842022E-19,
512300004,133.144,0.0,0.0,0,-12.989644,-12.686859,-0.1137964,-0.08123391,-0.9841388,0.994021,0.4162913,-1.5656884,3.4342027,3.7971604,-30,-270,1328,1355.0,-0.07781043,-0.027833447,-0.013392586,0.08371694,0.08263875316855607,-0.08263875316855607,4.450026945773377,-6.957603885723102,98.45156381690678,98.4515638169068,-13.182409877408688,4.474365822157183,13.208829418190735,116.75082545822164,,0.0,,,63.08,-0.6418310505981442,,0.0,0.0,20151018,211,2015-10-18T00:02:11Z,-17.0,99.99,99.99,3.7500008E7,0,0,0,0.0,0.0,0.0,0,0,0,0,0,0,,,,false,false,false,false,false,false,false,false,false,false,0,0,0,0,49,61,61,49,943,946,944,943,940,940,940,940,0.0,0.0,0.0,0.0,1514.7,1511.1,1509.8,1515.3,0.0,0.0,0.0,0.0,0,0,0,0,-45.0,-2.365794001958759E-9,-3.7753447084964213E-10,0,-12.561588,-12.5280075,-0.11785961,-0.08131096,-0.9821573,0.9925398,1.7793084,-0.1297287,2.7669575,3.2922366,-25,-273,1328,1356.0,-0.0051767402,-0.035062805,0.010267868,0.036900245,0.03544289733546462,-0.035247250187200464,4.35659517860655,-6.588925723226545,96.20519459444233,96.20519459444233,-22.314991305839566,8.833570964032305,16.23523067851299,115.05312931178875,,0.05264596744932018,,,63.06,NONE,0.0,0.0,0.0,NONE,-7.156305355523147E-10,-2.977373740236594E-10,3.4332275E-5,15.234,15.234,5.439,1.4360932,0,1656,3.806,12.0,1.427,46,22.6,OK,126,0,0,0,0,0,65,98,0.0,0,0.0,589232.0,2.69E-43,0.0,-5.9807744E7,62,2.4414156E-5,-2.4414278E-5,9.4E-44,False,False,0,None,0.0,1.0842022E-19,
516230828,134.166,0.0,0.0,0,-12.5827265,-12.68915,-0.14111549,-0.07484658,-0.9773517,0.99031913,1.2865365,-2.136123,-1.226156,2.7787867,-10,-261,1322,1347.0,-0.06633266,0.00864752,-0.020118635,0.06985385,0.06689395695460705,-0.06689395695460705,4.318156918459701,-8.157540453598982,99.64700365303106,99.64700365303105,-12.165993811950731,4.486095731459604,11.58272745249994,118.35328971995287,,0.0,,,63.33,-0.23491347857665978,,0.0,0.0,20151018,212,2015-10-18T00:02:12Z,-17.0,99.99,99.99,3.7500008E7,0,0,0,0.0,0.0,0.0,0,0,0,0,0,0,,,,false,false,false,false,false,false,false,false,false,false,0,0,0,0,49,63,62,48,943,945,944,944,940,940,940,940,0.0,0.0,0.0,0.0,1514.7,1511.1,1511.1,1514.7,0.0,0.0,0.0,0.0,0,0,0,0,-45.0,-4.255231633969563E-10,1.8386577545927955E-9,0,-12.529881,-12.533022,-0.14414506,-0.077499464,-0.98171896,0.99526685,0.81042045,-0.5949184,-0.17673059,1.020756,-13,-264,1322,1348.0,0.02745932,-0.006511447,0.00779698,0.02927808,0.02822079314117786,-0.027900191068420278,4.127621681849246,-7.806630171847859,97.43665457309793,97.43665457309794,-21.11452933622831,9.2303077680659,15.218523915177707,117.85002251448803,,0.053538348624520955,,,63.36,NONE,0.0,0.0,0.0,NONE,-1.235692092936931E-10,6.348977293546876E-10,1.9073486E-5,15.234,15.234,5.44,1.435695,0,1655,3.806,12.0,1.424,46,22.7,OK,127,0,0,0,0,0,65,99,0.0,0,0.0,589232.0,2.69E-43,0.0,-5.9807744E7,62,2.4414156E-5,-2.4414278E-5,9.4E-44,False,False,0,None,0.0,1.0842022E-19,
520087529,135.168,0.0,0.0,0,-12.60915,-12.680822,-0.15937243,-0.047628056,-0.9861054,1.0000359,-0.51791215,4.213271,3.354796,5.4105954,14,-279,1328,1357.0,-0.059788086,0.02092002,-0.026542466,0.06867871,0.06334242218820244,-0.06334242218820244,3.373351677372002,-8.721565551685456,99.99219673079662,99.99219673079665,-11.75974895542201,4.236508808632207,10.747669241002072,117.37690892858554,,0.0,,,63.66,-0.26133693286132775,,0.0,0.0,20151018,213,2015-10-18T00:02:13Z,-17.0,99.99,99.99,3.7500008E7,0,0,0,0.0,0.0,0.0,0,0,0,0,0,0,,,,false,false,false,false,false,false,false,false,false,false,0,0,0,0,49,62,61,49,943,944,944,943,940,940,940,940,0.0,0.0,0.0,0.0,1514.7,1510.4,1510.4,1515.3,0.0,0.0,0.0,0.0,0,0,0,0,-45.0,-6.993331217654263E-10,1.402481244171181E-9,0,-12.6197195,-12.534973,-0.14295112,-0.058558226,-0.9712467,0.9834553,0.58917546,0.6333931,1.1980937,1.4777493,9,-282,1322,1351.0,0.020907959,-0.010226517,0.0011322654,0.023302497,0.023274973276827978,-0.02321784187917986,3.147021141180513,-8.249422761705112,97.91868168528754,97.91868168528754,-20.47192950996593,8.518915041658595,14.898874779070436,116.71947120695654,,0.05411719467058064,,,63.65,NONE,0.0,0.0,0.0,NONE,1.222222464065894E-10,7.524419465614235E-10,1.6212463E-5,15.234,15.234,5.441,1.4346206,0,1655,3.805,12.0,1.427,46,22.6,OK,128,0,0,0,0,0,65,98,0.0,0,0.0,589232.0,2.69E-43,0.0,-5.9807744E7,62,2.4414156E-5,-2.4414278E-5,9.4E-44,False,False,0,None,0.0,1.0842022E-19,
523985206,136.181,0.0,0.0,0,-12.772974,-12.71124,-0.14786632,-0.04672561,-0.9821194,0.9942868,0.1841387,1.8052194,1.0719362,2.107551,6,-292,1322,1353.0,-0.066276185,0.03486776,-0.0057359654,0.07510789,0.07488853869485898,-0.07488853869485898,2.986522428197854,-8.600959600035642,100.5526368825141,100.5526368825141,-11.162682848320962,4.2031513375631135,10.690739145229102,117.69683587243716,,0.0,,,64.02,-0.4251610142822262,,0.0,0.0,20151018,214,2015-10-18T00:02:14Z,-17.0,99.99,99.99,3.7500008E7,0,0,0,0.0,0.0,0.0,0,0,0,0,0,0,,,,false,false,false,false,false,false,false,false,false,false,0,0,0,0,48,63,62,48,943,945,944,943,940,940,940,940,0.0,0.0,0.0,0.0,1515.3,1509.8,1509.2,1515.3,0.0,0.0,0.0,0.0,0,0,0,0,-45.0,-4.3244203504072264E-10,1.4857754239190546E-9,0,-12.720127,-12.531113,-0.15298417,-0.04453849,-0.97904927,0.99193007,-0.19748627,1.357186,0.03655011,1.3719659,9,-288,1322,1353.0,0.02181254,-0.0065500806,-3.365121E-4,0.022777261,0.022774776518341054,-0.022744086512159794,2.821701700961713,-8.503610419106886,98.17456752650666,98.17456752650668,-20.187261725638116,8.462572380027554,14.629647975717774,117.5807223428319,,0.05468313344939425,,,63.92,NONE,0.0,0.0,0.0,NONE,-1.1387693242718473E-10,5.232574559545857E-10,-2.861023E-6,15.234,15.234,5.44,1.4335201,0,1655,3.804,12.0,1.44,46,22.6,OK,129,0,0,0,0,0,65,98,0.0,0,0.0,589232.0,2.69E-43,0.0,-5.9807744E7,62,2.4414156E-5,-2.4414278E-5,9.4E-44,False,False,0,None,0.0,1.0842022E-19,
528044171,137.236,0.0,0.0,0,-12.688419,-12.735349,-0.12258699,-0.073231846,-1.0029589,1.0130731,10.522601,6.832407,-32.584972,34.916862,-39,-295,1328,1360.0,-0.12545143,0.05488388,0.030554336,0.1402992,0.13693173712082632,-0.13693173712082632,4.700679970924494,-6.306272291351047,94.33684425717658,94.33684425717661,-17.620171131958518,5.605929060131804,12.956064760184756,114.25287712040709,,0.0,,,64.29,-0.34060634204101525,,0.0,0.0,20151018,215,2015-10-18T00:02:15Z,-17.0,99.99,99.99,3.7500008E7,0,0,0,0.0,0.0,0.0,0,0,0,0,0,0,,,,false,false,false,false,false,false,false,false,false,false,0,0,0,0,49,61,62,48,943,945,944,944,940,940,940,940,0.0,0.0,0.0,0.0,1515.3,1511.1,1511.1,1514.7,0.0,0.0,0.0,0.0,0,0,0,0,-45.0,3.9729968816004646E-10,-8.19840290629428E-10,0,-12.508741,-12.531198,-0.10156066,-0.029619679,-0.97564363,0.9813625,10.18006,0.45503595,-19.866934,22.327915,-42,-316,1325,1362.0,-0.013430916,0.0064757415,0.034385316,0.03747899,0.014910557614780296,-0.01465227014826336,2.8226081114249815,-6.465565423001213,95.10772508397453,95.10772508397451,-23.090230129639146,8.46585584636746,16.783687410973442,116.39272160686942,,0.05525533588645313,,,64.27,NONE,0.0,0.0,0.0,NONE,2.1751359987882935E-10,3.7079128991998607E-10,2.2888184E-5,15.233,15.233,5.441,1.4332741,0,1654,3.805,12.0,1.45,45,22.6,OK,130,0,0,0,0,0,65,98,0.0,0,0.0,589232.0,2.69E-43,0.0,-5.9807744E7,62,2.4414156E-5,-2.4414278E-5,9.4E-44,False,False,0,None,0.0,1.0842022E-19,
531953172,138.252,0.0,0.0,0,-12.54045,-12.712846,-0.18582349,0.07443693,-0.9411351,0.9621884,-3.816868,-7.57692,29.986925,31.163984,-111,-467,1233,1323.0,0.099062726,0.46046743,-0.055739492,0.47428954,0.4710028394595284,-0.4710028394595284,-7.602624163072084,-5.327879217486782,112.67561907459789,112.67561907459788,2.699186414500003,-4.6917015759794545,12.394986026796817,127.46657389542841,,0.0,,,64.47,-0.19263709613037072,,0.0,0.0,20151018,215,2015-10-18T00:02:15Z,-17.0,99.99,99.99,3.7500008E7,0,0,0,0.0,0.0,0.0,0,0,0,0,0,0,,,,false,false,false,false,false,false,false,false,false,false,0,0,0,0,49,63,63,50,943,945,944,943,940,940,940,940,0.0,0.0,0.0,0.0,1514.7,1509.8,1511.1,1514.7,0.0,0.0,0.0,0.0,0,0,0,0,-45.0,2.272615960607308E-8,1.7037391282288246E-8,0,-12.54045,-12.535571,-0.19262473,0.12799148,-0.8809386,0.91079026,-7.666889,7.3555074,28.515842,30.430872,-105,-480,1227,1321.0,0.25574026,0.33273172,0.03315888,0.42096674,0.4196587736363652,-0.41652942964137085,-8.490740671796894,-4.886437457065889,112.37767985907514,112.37767985907516,-3.8145133883589724,-1.1385200155816655,17.10889120545218,126.09360475276034,,0.06225900355954452,46.53660065293935,46.53660065293935,64.4,NONE,0.0,0.0,0.0,NONE,2.256606346237387E-9,1.1491094629558469E-10,3.528595E-5,15.232,15.232,5.442,1.4331747,0,1654,3.805,12.0,1.396,45,22.6,OK,131,0,0,0,0,0,65,98,0.0,0,0.0,589232.0,2.69E-43,0.0,-5.9807744E7,62,2.4414156E-5,-2.4414278E-5,9.4E-44,False,False,0,None,0.0,1.0842022E-19,
535816033,139.256,0.0,0.0,0,-12.4928875,-12.7435665,0.004788448,0.21265927,-1.0072334,1.0294493,1.6562122,-12.109206,11.493583,16.777317,-225,-594,1171,1332.0,-0.074856214,0.06445877,-0.07493289,0.1239892,0.09878454246301652,-0.09878454246301652,-12.216542280846564,-0.5705197114134516,118.40757739550052,118.40757739550054,8.56418310939706,-9.924098252377807,15.52695589724156,125.53229471088567,,0.0,,,64.57,-0.14507449694824182,,0.0,0.0,20151018,216,2015-10-18T00:02:16Z,-17.0,99.99,99.99,3.7500008E7,0,0,0,0.0,0.0,0.0,0,0,0,0,0,0,,,,false,false,false,false,false,false,false,false,false,false,0,0,0,0,49,62,64,50,942,945,944,943,940,940,940,940,0.0,0.0,0.0,0.0,1515.9,1511.1,1511.7,1514.7,0.0,0.0,0.0,0.0,0,0,0,0,-45.0,1.6711041595098569E-9,-3.2622940941536946E-9,0,-12.572158,-12.60892,0.007256805,0.19129847,-1.0082337,1.026247,-5.2108297,-19.736479,3.9401252,20.789562,-219,-588,1174,1331.0,-0.048492774,0.026743047,-0.033248752,0.06459272,0.05537815242428367,-0.05213878779334008,-12.135483989447629,-1.7042233482732043,116.6811849817431,116.68118498174312,-0.6429260086839548,-3.482714331435683,19.191013050402177,128.0441706060169,,0.06814301235770505,,,64.55,NONE,0.0,0.0,0.0,NONE,5.581948371641851E-10,-1.073956157930038E-9,-6.2942505E-5,15.235,15.235,5.44,1.4311485,0,1653,3.804,12.0,1.393,45,22.6,OK,132,0,0,0,0,0,65,98,0.0,0,0.0,589232.0,2.69E-43,0.0,-5.9807744E7,62,2.4414156E-5,-2.4414278E-5,9.4E-44,False,False,0,None,0.0,1.0842022E-19,
539729087,140.273,0.0,0.0,0,-12.640858,-12.746883,-0.09231676,0.20567307,-0.961365,0.9874444,1.1474936,2.0609114,-2.3654952,3.3406086,-113,-579,1209,1345.0,-0.12987377,0.10410176,0.047945485,0.17321415,0.1664463066638978,-0.1664463066638978,-12.87055601680456,-5.586273651702281,121.43150418825587,121.43150418825587,11.480910017903525,-10.419088736688984,9.921152945086902,129.0870514910636,,0.0,,,64.62,-0.29304469653320275,,0.0,0.0,20151018,218,2015-10-18T00:02:18Z,-17.0,99.99,99.99,3.7500008E7,0,0,0,0.0,0.0,0.0,0,0,0,0,0,0,,,,false,false,false,false,false,false,false,false,false,false,0,0,0,0,48,63,63,49,943,945,944,944,940,940,940,940,0.0,0.0,0.0,0.0,1515.9,1511.1,1511.1,1515.9,0.0,0.0,0.0,0.0,0,0,0,0,-45.0,6.609990633574223E-10,-1.7994086490850852E-9,0,-12.519311,-12.583641,-0.09453618,0.20745984,-0.96383023,0.9904269,2.342712,1.8080497,-0.36070085,2.9811823,-111,-582,1209,1346.0,-0.080014564,0.029510839,0.040169228,0.09426976,0.08528317531304369,-0.08508880154219874,-12.758342785381876,-5.444681404554224,119.30046578644756,119.30046578644755,1.1507539240662334,-3.225282638710178,13.830079683883831,127.96395163060608,,0.07029403075217554,,,64.62,NONE,0.0,0.0,0.0,NONE,8.949857701448911E-10,-2.0910888735145703E-9,9.727478E-5,15.234,15.234,5.439,1.4267241,0,1653,3.805,12.0,1.387,45,22.6,OK,133,0,0,0,0,0,65,98,0.0,0,0.0,589232.0,2.69E-43,0.0,-5.9807744E7,62,2.4414156E-5,-2.4414278E-5,9.4E-44,False,False,0,None,0.0,1.0842022E-19,
543672833,141.298,0.0,0.0,0,-12.772974,-12.752098,-0.066596694,0.24203409,-0.95627755,0.9886771,1.1111044,0.4966707,-2.4962633,2.7771504,-148,-600,1203,1352.0,-0.13434395,0.12782252,0.027618349,0.18748245,0.18543703944191153,-0.18543703944191153,-13.988131763297567,-4.353612781466741,120.61180607167418,120.61180607167421,10.801297953149598,-11.270153689503795,11.28302825215421,130.30647570051977,,0.0,,,64.73,-0.4251610142822262,,0.0,0.0,20151018,218,2015-10-18T00:02:18Z,-17.0,99.99,99.99,3.7500008E7,0,0,0,0.0,0.0,0.0,0,0,0,0,0,0,,,,false,false,false,false,false,false,false,false,false,false,0,0,0,0,48,63,63,49,943,945,944,944,940,940,940,940,0.0,0.0,0.0,0.0,1515.9,1511.1,1511.1,1515.9,0.0,0.0,0.0,0.0,0,0,0,0,-45.0,2.0646515971593393E-9,-2.4181080638540517E-9,0,-12.519311,-12.604629,-0.07351034,0.24486479,-0.9574008,0.99094844,1.5235397,1.852391,-1.6349716,2.9026983,-145,-600,1203,1352.0,-0.036119007,0.030435847,0.03731119,0.06019176,0.04723265420073917,-0.04706623979564581,-13.92632514915554,-4.252062585695568,118.53080920373883,118.53080920373884,0.45282061868292534,-3.9063902818285636,14.98327689375546,129.5569038127914,,0.07204731865370033,,,64.73,NONE,0.0,0.0,0.0,NONE,7.552362754521113E-10,-8.603161188108329E-10,9.536743E-5,15.235,15.235,5.442,1.4204141,0,1653,3.805,12.0,1.367,45,22.6,OK,134,0,0,0,0,0,65,98,0.0,0,0.0,589232.0,2.69E-43,0.0,-5.9807744E7,62,2.4414156E-5,-2.4414278E-5,9.4E-44,False,False,0,None,0.0,1.0842022E-19,
547637535,142.329,0.0,0.0,0,-12.39248,-12.73428,-0.07800906,0.23845218,-0.9700553,1.0019741,1.0089395,0.22239009,-1.8027855,2.0778477,-136,-594,1194,1340.0,-0.15215094,0.13412963,0.019957744,0.20381114,0.20283162498525267,-0.20283162498525267,-13.565512248730565,-5.268501477852703,119.84177044833264,119.84177044833262,9.95122859278378,-10.220760877895156,10.74346320893353,130.59135455547226,,0.0,,,64.79,-0.044666896545409784,,0.0,0.0,20151018,219,2015-10-18T00:02:19Z,-17.0,99.99,99.99,3.7500008E7,0,0,0,0.0,0.0,0.0,0,0,0,0,0,0,,,,false,false,false,false,false,false,false,false,false,false,0,0,0,0,49,64,64,49,942,944,944,943,940,940,940,940,0.0,0.0,0.0,0.0,1515.3,1509.2,1511.1,1514.7,0.0,0.0,0.0,0.0,0,0,0,0,-45.0,6.620699441237305E-10,-8.492057673920231E-10,0,-12.466465,-12.616255,-0.07525779,0.24105804,-0.9677938,1.0001987,1.1451179,-0.76300997,-1.3716557,1.942915,-136,-594,1194,1340.0,-0.038071927,0.02967805,0.031405006,0.057589345,0.048272748583693126,-0.04804565061342959,-13.530964843808391,-5.095578366833911,117.84622836214793,117.84622836214794,-0.5129032892414095,-2.715610618120597,14.235934556212149,130.08243776752667,,0.07294349348617941,,,64.77,NONE,0.0,0.0,0.0,NONE,5.962109846855951E-10,-8.778517372178114E-10,7.05719E-5,15.236,15.236,5.441,1.4204141,0,1653,3.806,12.0,1.367,45,22.6,OK,134,0,0,0,0,0,65,98,0.0,0,0.0,589232.0,2.69E-43,0.0,-5.9807744E7,62,2.4414156E-5,-2.4414278E-5,9.4E-44,False,False,0,None,0.0,1.0842022E-19,
551558774,143.348,0.0,0.0,0,-12.561588,-12.746678,-0.104612075,0.24561101,-0.95109236,0.9878487,0.21612513,-4.087335,-0.28318343,4.10283,-128,-591,1197,1341.0,-0.14653285,0.14465338,0.01667742,0.20657834,0.20590404228581957,-0.20590404228581957,-13.525519147524076,-5.449239587517966,119.49483297558615,119.49483297558618,9.611807162438915,-9.713193886690748,10.397645779941698,130.43317530226622,,0.0,,,64.86,-0.21377528735351525,,0.0,0.0,20151018,221,2015-10-18T00:02:21Z,-17.0,99.99,99.99,3.7500008E7,0,0,0,0.0,0.0,0.0,0,0,0,0,0,0,,,,false,false,false,false,false,false,false,false,false,false,0,0,0,0,49,63,63,49,943,944,944,943,940,940,940,940,0.0,0.0,0.0,0.0,1515.9,1509.8,1509.8,1514.7,0.0,0.0,0.0,0.0,0,0,0,0,-45.0,2.8940461373926954E-9,-2.0412261586078267E-9,0,-12.572158,-12.617854,-0.09555087,0.24574462,-0.9501308,0.986037,0.17247593,-4.7799015,-2.276245,5.297027,-133,-591,1197,1341.0,-0.030443307,0.04234893,0.02471859,0.057716854,0.05215579322128655,-0.051879708688432453,-13.474301300121095,-5.169069060122314,117.54841744492703,117.54841744492705,-0.6221105800514527,-2.42217313347631,14.305579762830778,130.1721362673503,,0.07390627625708467,,,64.85,NONE,0.0,0.0,0.0,NONE,1.031790362129863E-9,-7.024286358687671E-10,6.1035156E-5,15.236,15.236,5.441,1.4123572,0,1652,3.806,12.0,1.361,45,22.7,OK,135,0,0,0,0,0,65,98,0.0,0,0.0,589232.0,2.69E-43,0.0,-5.9807744E7,62,2.4414156E-5,-2.4414278E-5,9.4E-44,False,False,0,None,0.0,1.0842022E-19,
555415414,144.350,0.0,0.0,0,-12.698989,-12.766229,-0.084494874,0.2467004,-0.9551066,0.9900652,-0.2914342,-0.5461998,-0.091197096,0.6257675,-145,-597,1197,1345.0,-0.129155,0.13461667,0.01719448,0.18734543,0.18655471140132374,-0.18655471140132374,-13.78323762637227,-4.80982844055542,119.22976182521498,119.22976182521495,9.22149615708246,-9.323750368670204,10.741084348275484,130.75310721603748,,0.0,,,64.91,-0.3511759144897457,,0.0,0.0,20151018,222,2015-10-18T00:02:22Z,-17.0,99.99,99.99,3.7500008E7,0,0,0,0.0,0.0,0.0,0,0,0,0,0,0,,,,false,false,false,false,false,false,false,false,false,false,0,0,0,0,49,63,62,50,943,944,944,944,940,940,940,940,0.0,0.0,0.0,0.0,1515.9,1510.4,1509.8,1514.1,0.0,0.0,0.0,0.0,0,0,0,0,-45.0,7.343541679569625E-10,-4.5565832805787465E-10,0,-12.661996,-12.618454,-0.08179716,0.2445713,-0.95524436,0.9894431,-0.83494455,-1.0641863,-0.2942616,1.3842741,-145,-597,1194,1342.0,-0.020370102,0.032525975,0.020272179,0.04340324,0.03837811897528376,-0.038080892344782305,-13.713606294626151,-4.647114315049556,117.30472540808672,117.30472540808671,-1.3416274325250623,-2.2319878221504523,14.748064127047318,130.0929599980902,,0.07502019083726254,,,64.9,NONE,0.0,0.0,0.0,NONE,7.771892635678712E-10,-6.452705554648508E-10,7.05719E-5,15.236,15.236,5.441,1.3948189,0,1651,3.805,12.0,1.399,45,22.7,OK,137,0,0,0,0,0,65,98,0.0,0,0.0,589232.0,2.69E-43,0.0,-5.9807744E7,62,2.4414156E-5,-2.4414278E-5,9.4E-44,False,False,0,None,0.0,1.0842022E-19,
559313056,145.363,0.0,0.0,0,-12.730697,-12.772698,-0.08101246,0.23247205,-0.97102803,1.0017493,-0.09708437,0.28294688,-4.232592,4.24315,-139,-597,1188,1336.0,-0.13679907,0.14482178,0.022577787,0.20049211,0.19921679589304242,-0.19921679589304242,-13.485338609932615,-4.833921098518287,118.30096865278409,118.30096865278409,8.273243049680959,-8.605637784817173,10.71902115916682,129.20637859792632,,0.0,,,64.89,-0.3828836781616207,,0.0,0.0,20151018,223,2015-10-18T00:02:23Z,-17.0,99.99,99.99,3.7500008E7,0,0,0,0.0,0.0,0.0,0,0,0,0,0,0,,,,false,false,false,false,false,false,false,false,false,false,0,0,0,0,49,62,62,48,943,945,944,944,940,940,940,940,0.0,0.0,0.0,0.0,1515.9,1510.4,1510.4,1515.9,0.0,0.0,0.0,0.0,0,0,0,0,-45.0,9.750338623312073E-10,-8.791903360504351E-10,0,-12.482319,-12.629603,-0.07768063,0.23019004,-0.9709384,1.0008712,0.59914666,0.33296376,-4.330695,4.384605,-139,-597,1188,1336.0,-0.039063588,0.043487553,0.039102543,0.070328794,0.05845623170667207,-0.05840275820068421,-13.445928432250783,-4.67104880606569,116.53115589642682,116.53115589642681,-2.1175391750067494,-1.5817290260252346,14.640539160089478,128.70812665476592,,0.07611086162960604,,,64.89,NONE,0.0,0.0,0.0,NONE,2.8126594603684376E-9,-3.027571166232778E-9,3.4046173E-4,15.234,15.234,5.442,1.3880162,0,1651,3.805,12.0,1.348,45,22.7,OK,138,0,0,0,0,0,65,98,0.0,0,0.0,589232.0,2.69E-43,0.0,-5.9807744E7,62,2.4414156E-5,-2.4414278E-5,9.4E-44,False,False,0,None,0.0,1.0842022E-19,
563372110,146.418,0.0,0.0,0,-12.651427,-12.786793,-0.07266177,0.2326643,-0.9608991,0.9913322,0.80614144,0.76541346,0.7381695,1.3343973,-142,-597,1186,1335.0,-0.11147003,0.12034895,0.00555987,0.16413516,0.16404096144120167,-0.16404096144120167,-13.413348729993643,-4.736678827226471,117.89310690797383,117.89310690797384,7.770648444235037,-8.125941541407018,10.871120655316746,129.08490720087565,,0.0,,,64.91,-0.3036142689819332,,0.0,0.0,20151018,224,2015-10-18T00:02:24Z,-17.0,99.99,99.99,3.7500008E7,0,0,0,0.0,0.0,0.0,0,0,0,0,0,0,,,,false,false,false,false,false,false,false,false,false,false,0,0,0,0,49,62,62,48,943,944,944,943,940,940,940,940,0.0,0.0,0.0,0.0,1515.9,1511.1,1511.1,1514.7,0.0,0.0,0.0,0.0,0,0,0,0,-45.0,3.839095438839823E-10,-3.798937536759908E-10,0,-12.640858,-12.63071,-0.07429933,0.23740561,-0.96095306,0.9926292,1.0376787,0.6432988,1.5658535,1.985575,-139,-597,1188,1336.0,-0.017071355,0.017090455,0.012938759,0.027403034,0.024156051084987463,-0.024074491490702482,-13.384632955946657,-4.590988206396483,116.0303409739927,116.03034097399268,-2.7573320741480383,-1.2314085937762456,14.708291591595463,128.37311130271823,,0.07692781002767364,,,64.93,NONE,0.0,0.0,0.0,NONE,3.863190181500088E-10,-5.493935655724787E-10,4.386902E-5,15.238,15.238,5.442,1.3816637,0,1650,3.805,12.0,1.358,45,22.7,OK,139,0,0,0,0,0,65,98,0.0,0,0.0,589232.0,2.69E-43,0.0,-5.9807744E7,62,2.4414156E-5,-2.4414278E-5,9.4E-44,False,False,0,None,0.0,1.0842022E-19,
567281486,147.434,0.0,0.0,0,-12.323779,-12.774521,-0.06861633,0.23229936,-0.967766,0.99761826,-0.23211725,1.0583576,-0.96011627,1.4476955,-148,-600,1188,1339.0,-0.0991199,0.12040853,-0.001136479,0.15596236,0.15595822509996615,-0.15595822509996615,-13.479743571738272,-4.312375540772242,118.02219990070846,118.02219990070847,7.957214397766673,-7.749592295094634,11.284972679327899,128.62903151523707,,0.0,,,64.96,0.024033893859863653,,0.0,0.0,20151018,225,2015-10-18T00:02:25Z,-17.0,99.99,99.99,3.7500008E7,0,0,0,0.0,0.0,0.0,0,0,0,0,0,0,,,,false,false,false,false,false,false,false,false,false,false,0,0,0,0,49,63,63,49,943,945,944,943,940,940,940,940,0.0,0.0,0.0,0.0,1515.3,1510.4,1511.1,1514.7,0.0,0.0,0.0,0.0,0,0,0,0,-45.0,1.0055538671678134E-9,-2.704634702625888E-10,0,-12.503457,-12.624917,-0.0683345,0.23200028,-0.9602432,0.9902327,-1.2582021,0.03980466,0.3298421,1.3013272,-151,-600,1188,1339.0,-0.003857616,0.014941149,0.014301675,0.021039417,0.015431109627693933,-0.015362030399898086,-13.498362383108274,-4.069367018860537,116.19907585195503,116.19907585195506,-2.5492130325376,-0.826687883320692,15.154669270077719,128.3887455175762,,0.07745448665764294,,,64.96,NONE,0.0,0.0,0.0,NONE,3.1082216188782047E-10,-3.0202088835460587E-10,3.4332275E-5,15.236,15.236,5.442,1.3816637,0,1650,3.805,12.0,1.358,45,22.7,OK,139,0,0,0,0,0,65,98,0.0,0,0.0,589232.0,2.69E-43,0.0,-5.9807744E7,62,2.4414156E-5,-2.4414278E-5,9.4E-44,False,False,0,None,0.0,1.0842022E-19,
571143854,148.438,0.0,0.0,0,-12.646142,-12.622422,-0.032363053,0.24084774,-0.9643353,0.9944836,2.0946922,-2.2264597,0.099737555,3.0585628,-176,-600,1188,1342.0,-0.124322236,0.15185864,0.009417532,0.19648348,0.19625765041455326,-0.19625765041455326,-13.588763250077793,-3.486344106501299,118.35545655353972,118.35545655353974,8.32818341449318,-6.934489828500922,12.122898092367851,129.9239046336785,,0.0,,,64.98,-0.2983290059204098,,0.0,0.0,20151018,226,2015-10-18T00:02:26Z,-17.0,99.99,99.99,3.7500008E7,0,0,0,0.0,0.0,0.0,0,0,0,0,0,0,,,,false,false,false,false,false,false,false,false,false,false,0,0,0,0,50,63,64,50,942,946,944,943,940,940,940,940,0.0,0.0,0.0,0.0,1515.3,1510.4,1511.1,1514.7,0.0,0.0,0.0,0.0,0,0,0,0,-45.0,2.6466734630901574E-9,-2.3062013837168105E-9,0,-12.683135,-12.622701,-0.040541124,0.23510492,-0.9392698,0.9690953,3.289844,-5.314601,-2.5725634,6.7591524,-171,-600,1194,1347.0,-0.03482756,0.039747026,0.027551161,0.05959741,0.052846806376323954,-0.05255715121535805,-13.464853899197086,-3.4341567285617196,116.65952602279445,116.65952602279447,-2.280915948594945,-0.4775251373783772,15.295632003852878,129.14021240597046,,0.0781849053727914,,,64.94,NONE,0.0,0.0,0.0,NONE,8.805289319215949E-10,-7.450629423951957E-10,6.198883E-5,15.235,15.235,5.441,1.3708193,0,1650,3.805,12.0,1.35,45,22.7,OK,141,0,0,0,0,0,65,98,0.0,0,0.0,589232.0,2.69E-43,0.0,-5.9807744E7,62,2.4414156E-5,-2.4414278E-5,9.4E-44,False,False,0,None,0.0,1.0842022E-19,
575057121,149.455,0.0,0.0,0,-14.4746275,-12.77777,-0.04638285,0.21403913,-0.9569567,0.9816976,2.9676175,1.8434128,0.009303551,3.4935672,-162,-579,1191,1334.0,-0.1440125,0.12520765,0.04522799,0.19611762,0.1908312158973805,-0.1908312158973805,-12.673118817310412,-3.8861446193616924,119.42571248953955,119.42571248953953,9.310895903500905,-5.57869623502961,11.447830551169252,129.3556918835027,,0.0,,,64.94,-2.1268144948120113,,0.0,0.0,20151018,227,2015-10-18T00:02:27Z,-17.0,99.99,99.99,3.7500008E7,0,0,0,0.0,0.0,0.0,0,0,0,0,0,0,,,,false,false,false,false,false,false,false,false,false,false,0,0,0,0,49,63,63,49,943,945,944,943,940,940,940,940,0.0,0.0,0.0,0.0,1515.3,1511.1,1511.1,1514.7,0.0,0.0,0.0,0.0,0,0,0,0,-45.0,-7.383699584073006E-10,-1.9488964497718436E-9,0,-14.157549,-12.620614,-0.0543323,0.22027096,-0.96188146,0.9882749,3.4553843,3.1209412,2.694065,5.3794,-159,-582,1188,1332.0,-0.029461043,-0.010886356,0.01960551,0.03702488,0.0314080536648245,-0.031035904593625794,-12.719870567968739,-3.617629504885586,117.90156789033975,117.90156789033972,-1.3095961436236636,0.6873264457841135,14.792739844501305,128.08224068376882,,0.07902609568646209,,,64.93,NONE,0.0,0.0,0.0,NONE,8.058352340004471E-11,-2.9181408805996256E-10,2.670288E-5,15.237,15.237,5.441,1.3664197,0,1649,3.805,12.0,1.351,45,22.7,OK,142,0,0,0,0,0,65,98,0.0,0,0.0,589232.0,2.69E-43,0.0,-5.9807744E7,62,2.4414156E-5,-2.4414278E-5,9.4E-44,False,False,0,None,0.0,1.0842022E-19,
578933564,150.462,0.0,0.0,0,-12.725412,-13.009736,-0.041741822,0.20874882,-0.95478606,0.9782305,-0.16157079,-0.8397877,-0.86777836,1.2183546,-165,-563,1197,1333.0,-0.12096001,0.15586786,0.030234417,0.19960018,0.19729701821589452,-0.19729701821589452,-12.446028059420087,-3.936901186523244,119.91986148379499,119.91986148379499,9.926882103700592,-4.708852072899616,11.319463018049083,130.94880852189675,,0.0,,,64.97,-0.3775993687744137,,0.0,0.0,20151018,228,2015-10-18T00:02:28Z,-17.0,99.99,99.99,3.7500008E7,0,0,0,0.0,0.0,0.0,0,0,0,0,0,0,,,,false,false,false,false,false,false,false,false,false,false,0,0,0,0,49,64,64,49,943,944,943,943,940,940,940,940,0.0,0.0,0.0,0.0,1514.7,1509.8,1511.1,1514.7,0.0,0.0,0.0,0.0,0,0,0,0,-45.0,1.9382880694716612E-10,-6.063843200764245E-11,0,-12.778258,-12.616717,-0.04427835,0.20605654,-0.95445573,0.9774485,-0.20279072,0.90846926,-0.5649925,1.0888788,-159,-563,1197,1332.0,-0.0027166603,0.008975762,0.0030246733,0.0098535875,0.0093778752038178,-0.009145454006613818,-12.416748789380561,-3.6043032446884333,118.50333467290086,118.50333467290085,-0.7492226386956526,1.1771055056730753,14.434180031657618,129.34889849573892,,0.0797299777426371,,,64.95,NONE,0.0,0.0,0.0,NONE,1.72143539888805E-10,-6.408531860168383E-11,5.722046E-6,15.237,15.237,5.443,1.3625197,0,1649,3.806,12.0,1.36,45,22.7,OK,143,0,0,0,0,0,65,98,0.0,0,0.0,589232.0,2.69E-43,0.0,-5.9807744E7,62,2.4414156E-5,-2.4414278E-5,9.4E-44,False,False,0,None,0.0,1.0842022E-19,
582969921,151.511,0.0,0.0,0,-12.97379,-12.875829,-0.1148477,0.19811137,-0.96794426,0.9946629,5.510964,2.3720424,-36.085762,36.58114,-102,-548,1200,1323.0,-0.17369479,0.22480354,-0.008565666,0.284218,0.28408890680127685,-0.28408890680127685,-10.103354042813804,-6.670437370299134,112.13057218960104,112.13057218960103,2.2093235788343937,-2.8275241721250723,9.583627696778215,127.19837965190699,,0.0,,,64.96,-0.6259771687622067,,0.0,0.0,20151018,229,2015-10-18T00:02:29Z,-17.0,99.99,99.99,3.7500012E7,0,0,0,0.0,0.0,0.0,0,0,0,0,0,0,,,,false,false,false,false,false,false,false,false,false,false,0,0,0,0,49,63,64,49,943,944,944,944,940,940,940,940,0.0,0.0,0.0,0.0,1514.7,1512.3,1510.4,1514.1,0.0,0.0,0.0,0.0,0,0,0,0,-45.0,5.094431449628185E-9,-3.1784310146538558E-9,0,-12.804682,-12.620406,-0.10948219,0.19548449,-0.9697608,0.9953072,5.108188,1.4954922,-37.269318,37.647472,-113,-548,1194,1318.0,-0.047838233,0.07520702,0.020271894,0.091408655,0.08913244232447262,-0.08851677393699857,-10.337866316942511,-6.243641481246019,111.6581574332285,111.6581574332285,-7.631603943846136,3.10896606569243,13.16869240702773,127.6678416460591,,0.08075678239253746,,,65.0,NONE,0.0,0.0,0.0,NONE,1.232044433609995E-9,-7.393069759700133E-10,5.4359436E-5,15.236,15.236,5.442,1.3594145,0,1648,3.806,12.0,1.349,45,22.7,OK,144,0,0,0,0,0,65,98,0.0,0,0.0,589232.0,2.69E-43,0.0,-5.9807744E7,62,2.4414156E-5,-2.4414278E-5,9.4E-44,False,False,0,None,0.0,1.0842022E-19,
586834213,152.516,0.0,0.0,0,-12.640858,-12.833614,-0.109521516,0.10805122,-0.98174983,0.99373174,0.44456634,0.4867831,0.6431376,0.9209902,-79,-480,1218,1311.0,-0.13625498,0.15005417,-0.021198308,0.20379166,0.202686147521215,-0.202686147521215,-6.21711998050584,-6.633963479572707,106.51005090186715,106.51005090186715,-3.918579829332902,0.8740540909300744,10.415847717106711,123.01601232431713,,0.0,,,65.01,-0.29304469653320275,,0.0,0.0,20151018,230,2015-10-18T00:02:30Z,-17.0,99.99,99.99,3.7500012E7,0,0,0,0.0,0.0,0.0,0,0,0,0,0,0,,,,false,false,false,false,false,false,false,false,false,false,0,0,0,0,49,63,63,50,943,944,943,943,940,940,940,940,0.0,0.0,0.0,0.0,1514.7,1509.8,1510.4,1514.7,0.0,0.0,0.0,0.0,0,0,0,0,-45.0,-4.71186050129251E-11,-5.804490084866378E-11,0,-12.931513,-12.617962,-0.107839145,0.105026096,-0.9801591,0.991651,-0.23844863,-0.23466033,0.24062788,0.4120983,-79,-480,1218,1311.0,-0.002420715,-0.0020761539,0.0011724061,0.0033977658,0.003189087056657341,-0.002523193854914567,-6.3616554080763095,-6.276945582059908,105.18350741804244,105.18350741804244,-14.640878530946184,6.892333556225008,14.18701338114997,122.35182923482454,,0.08202923697335049,,,65.0,NONE,0.0,0.0,0.0,NONE,-3.8819305269238333E-11,-8.546940142899545E-11,2.861023E-6,15.236,15.236,5.442,1.3594145,0,1648,3.804,12.0,1.349,45,22.7,OK,144,0,0,0,0,0,65,98,0.0,0,0.0,589232.0,2.69E-43,0.0,-5.9807744E7,62,2.4414156E-5,-2.4414278E-5,9.4E-44,False,False,0,None,0.0,1.0842022E-19,
590705520,153.522,0.0,0.0,0,-12.963221,-12.86742,-0.10554519,0.10618996,-0.98450845,0.9958278,-1.1768653,1.6443332,0.615723,2.1137545,-88,-486,1203,1300.0,-0.111455984,0.1389468,-0.0057299994,0.17821753,0.17812538105104078,-0.17812538105104078,-6.443126679160951,-6.1183640817073055,106.59316157235642,106.5931615723564,-3.892511294293799,0.9270316482587684,10.553576299016543,122.39007538175306,,0.0,,,65.01,-0.6154075963134762,,0.0,0.0,20151018,231,2015-10-18T00:02:31Z,-17.0,99.99,99.99,3.7500012E7,0,0,0,0.0,0.0,0.0,0,0,0,0,0,0,,,,false,false,false,false,false,false,false,false,false,false,0,0,0,0,51,65,64,50,943,944,944,944,940,940,940,940,0.0,0.0,0.0,0.0,1514.7,1511.1,1511.1,1514.1,0.0,0.0,0.0,0.0,0,0,0,0,-45.0,-9.343405183617712E-11,5.057218450387924E-10,0,-12.7095585,-12.607744,-0.097325206,0.113929205,-0.97969204,0.9910845,-0.5605396,1.5347561,0.800127,1.8193086,-91,-486,1200,1297.0,0.022567237,-0.0041480884,-0.0071518477,0.024034055,0.022945300995428016,-0.022882785357582897,-6.665260889567171,-5.6987123231921775,105.3431984575068,105.34319845750679,-14.534034042773133,7.067015034489511,14.503257860733344,121.98827917764501,,0.08224789721781753,,,64.99,NONE,0.0,0.0,0.0,NONE,4.6315446921505455E-11,3.5827541527574957E-10,9.536743E-7,15.238,15.238,5.44,1.356787,0,1648,3.805,12.0,1.348,45,22.7,OK,145,0,0,0,0,0,65,98,0.0,0,0.0,589232.0,2.69E-43,0.0,-5.9807744E7,62,2.4414156E-5,-2.4414278E-5,9.4E-44,False,False,0,None,0.0,1.0842022E-19,
