Tick#,offsetTime,IMU_ATTI(0):Longitude,IMU_ATTI(0):Latitude,IMU_ATTI(0):numSats,IMU_ATTI(0):barometer:Raw,IMU_ATTI(0):barometer:Smooth,IMU_ATTI(0):accel:X,IMU_ATTI(0):accel:Y,IMU_ATTI(0):accel:Z,IMU_ATTI(0):accel:Composite,IMU_ATTI(0):gyro:X,IMU_ATTI(0):gyro:Y,IMU_ATTI(0):gyro:Z,IMU_ATTI(0):gyro:Composite,IMU_ATTI(0):mag:X,IMU_ATTI(0):mag:Y,IMU_ATTI(0):mag:Z,IMU_ATTI(0):mag:Mod,IMU_ATTI(0):velN,IMU_ATTI(0):velE,IMU_ATTI(0):velD,IMU_ATTI(0):velComposite,IMU_ATTI(0):velH,IMU_ATTI(0):GPS-H,IMU_ATTI(0):roll,IMU_ATTI(0):pitch,IMU_ATTI(0):yaw,IMU_ATTI(0):yaw360,IMU_ATTI(0):totalGyro:Z,IMU_ATTI(0):totalGyro:X,IMU_ATTI(0):totalGyro:Y,IMU_ATTI(0):magYaw,IMU_ATTI(0):distanceHP,IMU_ATTI(0):distanceTravelled,IMU_ATTI(0):directionOfTravel[mag],IMU_ATTI(0):directionOfTravel[true],IMU_ATTI(0):temperature,General:relativeHeight,General:absoluteHeight,GPS(0):Long,GPS(0):Lat,GPS(0):Date,GPS(0):Time,GPS:dateTimeStamp,GPS(0):heightMSL,GPS(0):hDOP,GPS(0):pDOP,GPS(0):sAcc,GPS(0):numGPS,GPS(0):numGLNAS,GPS(0):numSV,GPS(0):velN,GPS(0):velE,GPS(0):velD,RC:Aileron,RC:Elevator,RC:Rudder,RC:Throttle,Controller:navHealth,Controller:ctrl_level,HP:Longitude,HP:Latitude,HP:rthHeight,BatBlackBox:tick,BatBlackBox:id,BatBlackBox:rsoc,BatBlackBox:index,BatBlackBox:rm,BatBlackBox:fcc,BatBlackBox:cell_min,BatBlackBox:cell_max,BatBlackBox:current,BatBlackBox:voltage,BatBlackBox:temp,BatBlackBox:flag,BatBlackBox:reserve,BatBlackBox:user_data,OA:avoidObst,OA:emergBrake,OA:radiusLimit,OA:airportLimit,OA:groundForceLanding,OA:horizNearBoundary,OA:vertLowLimit,OA:vertAirportLimit,OA:roofLimit,OA:hitGroundLimit,Motor:Speed:RFront,Motor:Speed:LFront,Motor:Speed:LBack,Motor:Speed:RBack,Motor:EscTemp:RFront,Motor:EscTemp:LFront,Motor:EscTemp:LBack,Motor:EscTemp:RBack,Motor:PPMrecv:RFront,Motor:PPMrecv:LFront,Motor:PPMrecv:LBack,Motor:PPMrecv:RBack,Motor:PPMsend:RFront,Motor:PPMsend:LFront,Motor:PPMsend:LBack,Motor:PPMsend:RBack,Motor:V_out:RFront,Motor:V_out:LFront,Motor:V_out:LBack,Motor:V_out:RBack,Motor:Volts:RFront,Motor:Volts:LFront,Motor:Volts:LBack,Motor:Volts:RBack,Motor:Current:RFront,Motor:Current:LFront,Motor:Current:LBack,Motor:Current:RBack,Motor:Status:RFront,Motor:Status:LFront,Motor:Status:LBack,Motor:Status:RBack,Motor:thrustAngle,IMU_ATTI(1):Longitude,IMU_ATTI(1):Latitude,IMU_ATTI(1):numSats,IMU_ATTI(1):barometer:Raw,IMU_ATTI(1):barometer:Smooth,IMU_ATTI(1):accel:X,IMU_ATTI(1):accel:Y,IMU_ATTI(1):accel:Z,IMU_ATTI(1):accel:Composite,IMU_ATTI(1):gyro:X,IMU_ATTI(1):gyro:Y,IMU_ATTI(1):gyro:Z,IMU_ATTI(1):gyro:Composite,IMU_ATTI(1):mag:X,IMU_ATTI(1):mag:Y,IMU_ATTI(1):mag:Z,IMU_ATTI(1):mag:Mod,IMU_ATTI(1):velN,IMU_ATTI(1):velE,IMU_ATTI(1):velD,IMU_ATTI(1):velComposite,IMU_ATTI(1):velH,IMU_ATTI(1):GPS-H,IMU_ATTI(1):roll,IMU_ATTI(1):pitch,IMU_ATTI(1):yaw,IMU_ATTI(1):yaw360,IMU_ATTI(1):totalGyro:Z,IMU_ATTI(1):totalGyro:X,IMU_ATTI(1):totalGyro:Y,IMU_ATTI(1):magYaw,IMU_ATTI(1):distanceHP,IMU_ATTI(1):distanceTravelled,IMU_ATTI(1):directionOfTravel[mag],IMU_ATTI(1):directionOfTravel[true],IMU_ATTI(1):temperature,IMUEX(0):err,IMUEX(0):rtk_Longitude,IMUEX(0):rtk_Latitude,IMUEX(0):rtk_Alti,IMUEX(1):err,IMUEX(1):rtk_Longitude,IMUEX(1):rtk_Latitude,IMUEX(1):rtk_Alti,MotorCtrl:Status,MotorCtrl:PWM:RFront,MotorCtrl:PWM:LFront,MotorCtrl:PWM:LBack,MotorCtrl:PWM:RBack,BattInfo:Voltage,BattInfo:BatVoltage,BattInfo:AdVoltage,BattInfo:AvgCurrent,BattInfo:R_time,BattInfo:R_CAP_MAH,BattInfo:LowCellVoltage,BattInfo:LowCellVolThreshold,BattInfo:BatCurrent,BattInfo:Remaining%,BattInfo:Temp,BattInfo:status,battery_info:BatDynCnt,battery_info:Vol1Protect,battery_info:Vol2Protect,battery_info:Cap1Protect,battery_info:Cap2Protect,battery_info:Batpresent,battery_info:sopPercentage,battery_info:sopValue,battery_info:sopScale,battery_info:sopFlg,BattInfo:WindHeading:WindDir,battery_info:home_dir,BattInfo:Wind:rangeMin,BattInfo:Wind:rangeMax,battery_info:cap_speed,battery_info:against_wind,battery_info:emergency_land_cap,battery_info:intel_bat_land_cap,battery_info:intel_bat_gh_cap,BattInfo:Smart:SmartGh,BattInfo:Smart:SmartLand,BattInfo:GoHome:CntDown,BattInfo:GoHome:GhCmd,BattInfo:GoHome:CapLevel,BattInfo:GoHome:LandCapLv,Attribute|Value,ConvertDatV3,3.6.6-Tablet
1257282245,.000,13.993215876910634,66.38579443888723,17,27.71265,27.75363,0.08433387,0.019392215,-0.9853311,0.9891237,0.28011474,-0.047115758,-0.0716216,0.29293996,324,-276,1505,1564.0,0.019839287,0.061998468,0.01415516,0.06661663,0.06509537120852246,-0.06509537120852246,-0.8337769343976357,4.559465709011417,31.385927482354212,31.38592748235419,-72.72339820051387,21.52118233938257,-69.2501045116496,29.83975426890817,3.5846608136109084,30.262954984564672,-168.35591476403044,-163.08049986105922,64.96,-0.20297270092773445,,13.9932135,66.3857956,20190521,160119,2019-05-21T16:01:19Z,67.405,0.67,1.56,8.82,10,7,17,-0.02,0.0,0.04,-9997,-9996,9992,-9998,5,5,13.993156951617106,66.38577248183664,50,2276297,20,42,225,1475,3589,3844,3845,-609,15384,36,2,14776,0,false,false,false,false,false,false,false,false,false,false,0,0,0,0,52,68,67,52,945,945,944,946,940,940,940,940,0.0,0.0,0.0,0.0,1512.9,1507.9,1507.9,1512.3,0.0,0.0,0.0,0.0,0,0,0,0,-45.0,13.993214874990125,66.38579405936842,0,27.673016,27.219122,0.086045,0.020775247,-0.98400384,0.98797715,0.41885772,-0.07031631,-0.26034215,0.4981608,327,-279,1502,1562.0,0.01231969,-0.01803726,-0.0030559557,0.022055756,0.021843019166271047,-0.021843019166271047,-1.4405552162684994,5.270298937849426,24.195174368462773,24.195174368462744,-74.76371242890998,18.1193843326442,-67.90619091885765,27.45270284952242,3.523242153181462,34.38639198390927,-33.58366325128407,-28.308248348312866,64.97,NONE,0.0,0.0,0.0,NONE,-9.867245010484908E-9,1.5913138564689767E-9,-7.6293945E-6,,,,,,15.22,15.22,5.428,1.5058888,0,1345,3.803,12.0,1.514,38,35.6,OK,313,0,0,0,0,0,65,100,0.0,0,0.0,4.719597E-26,2.69E-43,0.0,-5.9807744E7,62,7.748713E-8,-7.7487606E-8,4.4259722E-32,False,False,0,None,1.6634745E34,1.0842106E-19,Firmware Date| Oct 17 2018
1261135747,1.002,13.993210264267963,66.38579491250876,17,27.456081,27.692501,0.07695963,0.015879855,-0.98929256,0.9924086,0.55077547,0.1800129,0.12091665,0.59192824,327,-279,1482,1543.0,0.006766435,0.021257808,0.012207807,0.025430486,0.022308721421844462,0.232792057351541,-0.9545664099599157,4.692612492818793,31.453349480942347,31.453349480942336,-72.48131313721048,21.849060134080286,-69.28491682282979,29.6049273522234,3.4438215607525593,30.551959395842378,-73.76794473105967,-68.49252982808846,65.02,0.045013390380859164,,13.9932108,66.385795,20190521,160119,2019-05-21T16:01:19Z,67.336,0.67,1.56,8.74,10,7,17,0.0,0.0,0.02,0,0,0,0,5,5,13.993156951617106,66.38577248183664,50,2276297,20,42,225,1475,3589,3844,3845,-609,15384,36,2,14776,0,false,false,false,false,false,false,false,false,false,false,543,513,521,534,57,73,74,56,1353,1360,1357,1356,1342,1342,1342,1342,0.1,0.1,0.1,0.1,1501.2,1496.3,1496.9,1500.6,6.82,6.31,6.89,6.46,0,0,0,0,-91.33221985386967,13.993211708657595,66.38579400953792,0,27.456081,27.218128,0.08023406,0.01720965,-0.9889739,0.99237245,0.09008353,0.2066088,0.1292144,0.25980493,327,-282,1485,1546.0,6.6793564E-4,-0.008869654,-0.0040479135,0.009772538,0.008894767741516567,0.13203644427623393,-1.2392075903332944,5.321937523527982,24.218975598011653,24.21897559801164,-74.99056480068292,18.432005305581466,-67.79671317461391,28.30531966653375,3.417428882996327,34.6963342872242,-68.3091936547735,-63.03377875180229,65.02,NONE,0.0,0.0,0.0,NONE,-1.379436040152335E-9,4.390569862989532E-11,-2.861023E-5,1,22.5,22.5,22.5,22.5,15.217,15.217,5.383,1.5073384,0,1345,3.802,12.0,1.542,38,35.5,OK,314,0,0,0,0,0,65,100,0.0,0,0.0,5.0798856E-25,2.69E-43,0.0,-5.9807744E7,62,7.748713E-8,-7.7487606E-8,4.1187262E-32,False,False,0,None,1.4329205E34,1.0842106E-19,ACType|MavicEnterprise
1264997855,2.005,13.993208491219367,66.38579395382912,17,27.456081,27.690407,0.08434284,0.019774966,-0.984683,0.98848635,1.1631889,-0.8804386,0.6660198,1.6036718,332,-279,1497,1558.0,0.030792125,0.07508205,7.261038E-4,0.08115415,0.081150902667603,0.051021833503978986,-0.9543460189760833,4.6425510815165865,31.550806038246954,31.550806038246947,-72.28071102774746,21.239836633156187,-69.66945540085824,29.312757158224162,3.3122001468587823,30.714586684901256,-136.3660596959914,-131.09064479302018,65.01,0.045013390380859164,,13.9932085,66.385794,20190521,160120,2019-05-21T16:01:20Z,67.331,0.67,1.56,8.69,10,7,17,0.0,0.0,0.01,0,0,0,0,5,5,13.993156951617106,66.38577248183664,50,2276297,20,42,225,1475,3589,3844,3845,-609,15384,36,2,14776,0,false,false,false,false,false,false,false,false,false,false,1828,1804,1931,1936,56,73,72,56,1207,1210,1216,1216,1200,1201,1212,1210,0.0,0.0,0.0,0.0,1509.2,1505.5,1506.1,1509.8,0.45,0.1,0.66,0.15,0,0,0,0,-7.0349759104311715,13.993208368332962,66.3857930852445,0,27.456081,27.189152,0.08592509,0.017735947,-0.98428875,0.9881913,1.7611489,-1.071191,-0.026706412,2.0615065,332,-279,1505,1566.0,-0.010806424,-0.04305785,0.016536828,0.047373246,0.04439321454315458,0.135763592105356,-1.2624535328278372,5.291608713070266,24.293068622068734,24.293068622068745,-73.37390937210317,17.98565548263598,-68.34093085462095,27.610282623153562,3.2393983883410713,34.926762268871315,-157.90111279251477,-152.62569788954355,65.02,NONE,0.0,0.0,0.0,NONE,-2.077173990001755E-9,-1.1029968223208965E-10,2.670288E-5,2,10.0,10.16,11.27,11.02,15.137,15.137,5.416,1.5758214,0,1343,3.803,12.0,4.795,38,35.6,OK,315,0,0,0,0,0,65,100,0.0,0,0.0,1.3094839E-24,2.69E-43,0.0,-5.9807744E7,62,7.748713E-8,-7.7487606E-8,3.0469763E-32,False,False,0,None,8.3357534E33,1.0842106E-19,dateTime|2019-5-21 15:56:10 GMT
1268875179,3.013,13.993206216650607,66.38579230740223,16,27.597202,27.688381,0.08763856,0.019763563,-0.98431545,0.98840684,0.008763639,-1.9824108,0.6242066,2.0783799,332,-276,1502,1562.0,0.051106803,0.11205756,6.60319E-4,0.12316346,0.123161689990731,0.08447809382559608,-0.9940251484256024,4.642548784426858,31.559402437948286,31.55940243794828,-72.19093219161088,21.324109857433086,-69.80594288153304,28.891720652749125,3.11047808323803,30.931932717280624,-132.8084840813471,-127.53306917837588,65.02,0.18613430102539041,,13.9932061,66.3857927,20190521,160122,2019-05-21T16:01:22Z,67.308,0.7,1.63,8.65,10,6,16,-0.01,-0.01,0.0,0,0,0,0,5,5,13.993156951617106,66.38577248183664,50,2276297,20,42,225,1475,3589,3844,3845,-609,15384,36,2,14776,0,false,false,false,false,false,false,false,false,false,false,1791,1822,1932,1920,54,74,74,55,1207,1209,1218,1217,1200,1201,1211,1208,0.0,0.0,0.0,0.0,1509.8,1506.1,1505.5,1509.8,0.53,0.14,0.67,0.18,0,0,0,0,10.19932949871253,13.993205934408603,66.3857917529692,0,27.456081,27.137249,0.08470061,0.021130864,-0.9854631,0.98932207,0.058387484,0.666366,-0.6416296,0.9268987,335,-276,1502,1563.0,-0.018110411,-0.056166403,0.036589783,0.06943676,0.0590139954921214,0.12315708825453807,-1.2879040773543124,5.284909060763571,24.257409634046134,24.257409634046155,-74.13639618447174,18.285585216655594,-68.39562992278866,27.138563246343917,3.058111096229507,35.12085144460077,-149.6215570396411,-144.34614213666987,65.0,NONE,0.0,0.0,0.0,NONE,-3.063630979426127E-9,-3.9408042160051255E-10,8.9645386E-5,2,10.0,10.27,11.41,11.21,15.192,15.192,5.414,1.7680328,0,1342,3.777,12.0,2.555,38,35.5,OK,316,0,0,0,0,0,65,100,0.0,0,0.0,6.2519436E-25,2.69E-43,0.0,-5.9807744E7,62,7.748713E-8,-7.7487606E-8,2.1904542E-32,False,False,0,None,4.641978E33,1.0842106E-19,geoDeclination|528 degrees
1272924181,4.065,13.993203697458341,66.38579130936961,16,27.456081,27.689743,0.023791103,-0.019553188,-1.0451039,1.0455575,13.583206,-28.884542,16.23167,35.80904,349,-273,1497,1561.0,0.04045414,0.101717725,-0.030260945,0.1135727,0.1094670419333773,0.04050561397218726,-0.3996368218459344,2.2814634555753175,32.80738444283073,32.80738444283071,-69.64401734515631,21.681896200967316,-71.36078879522967,32.73669368726776,2.9526643336599,31.095460947531883,-137.54271615147562,-132.2673012485044,65.05,0.045013390380859164,,13.9932039,66.3857915,20190521,160123,2019-05-21T16:01:23Z,67.361,0.7,1.63,8.59,10,6,16,0.0,0.0,-0.01,0,0,495,10000,5,5,13.993156951617106,66.38577248183664,50,2276297,20,42,225,1475,3589,3844,3845,-609,15384,36,2,14776,0,false,false,false,false,false,false,false,false,false,false,4781,4912,4181,4424,54,71,71,54,1555,1554,1495,1456,1555,1566,1427,1447,0.0,0.0,0.0,0.0,1490.2,1486.5,1485.9,1490.2,4.35,4.57,2.92,2.58,0,0,0,0,-174.12260739335687,13.99320337835428,66.38579067768401,0,27.456081,27.090986,0.03503768,-0.01575278,-1.0487458,1.0494492,-1.9655472,-33.628178,0.9985788,33.70037,347,-273,1497,1560.0,-0.045344148,-0.07685536,0.021091383,0.09169343,0.08923473957269838,0.06765803652045736,-0.7115069033531715,3.2241117236288104,25.409212093090805,25.409212093090787,-74.12711862922046,19.105494497334476,-71.66945110786298,30.560383219642002,2.893107893013509,35.315418389279905,-142.28460952697247,-137.00919462400125,65.02,NONE,0.0,0.0,0.0,NONE,-3.175910556697068E-9,-4.0157651924894656E-10,1.1634827E-4,2,44.93,54.3,45.96,41.82,15.187,15.187,5.387,1.9890307,0,1342,3.796,12.0,2.033,38,35.6,OK,317,0,0,0,0,0,65,100,0.0,0,0.0,5.337496E-25,2.69E-43,0.0,1.05007105E-23,63,7.748713E-8,-7.7487606E-8,1.6703403E-32,False,False,0,None,2.690747E33,1.0842106E-19,geoInclination|7646 degrees
1276840803,5.083,13.993201699031363,66.38578998718381,15,28.368666,27.99037,-0.025745703,-9.4461534E-4,-0.923339,0.92369837,-0.72186327,-7.3028526,0.3544405,7.3469977,504,-242,1461,1564.0,0.038113404,0.1686043,-0.10945627,0.20459892,0.17285844282691828,-0.004015220447805001,0.40392287446935965,-2.1363732642182165,33.234768053735934,33.234768053735934,-66.48119539688275,22.79215788655153,-75.22416634120141,29.317993944874495,0.139088712168147,31.273400542124005,152.08228252635817,157.3576974293294,64.95,0.9575976951904295,,13.9932025,66.3857906,20190521,160123,2019-05-21T16:01:23Z,67.766,0.68,1.41,8.59,10,5,15,-0.09,0.01,-0.3,0,0,0,0,5,5,13.993203109451178,66.38579110317424,50,2276297,20,42,225,1475,3589,3844,3845,-609,15384,36,2,14776,0,false,false,false,false,false,false,true,false,false,false,5386,5406,4622,4989,54,70,70,54,1566,1572,1493,1535,1551,1560,1491,1525,0.0,0.0,0.0,0.0,1488.4,1482.8,1484.0,1487.7,4.23,3.74,3.1,3.19,0,0,0,0,-163.62622047049518,13.993201860248277,66.3857893814304,0,28.46643,27.524252,-0.025806358,-0.0016676402,-0.9198213,0.9201848,-5.070212,-4.321308,-3.6087496,7.5765314,501,-245,1458,1561.0,-0.07207812,-0.013981768,-0.1946154,0.20800456,0.07342169698152558,0.08298664946347041,0.15957622458155524,-1.4103693265176787,25.899279933356052,25.89927993335607,-71.86801397842149,20.960907910683414,-75.67159650008388,28.175117940827217,0.1993710776682566,35.52492377829983,-165.98109914839458,-160.70568424542336,64.95,NONE,0.0,0.0,0.0,NONE,-4.4591062092943605E-9,-4.997753334669434E-9,-0.0022335052,2,54.84,55.67,45.64,49.63,15.134,15.134,5.343,2.1719165,0,1341,3.796,12.0,3.384,38,35.5,OK,318,0,0,0,0,0,65,100,0.0,0,0.0,-2.0892173E-4,8.7E-44,0.0,1.05007105E-23,63,1.01917976E-7,-8.970212E-8,8.8590047E-35,False,False,0,None,2.6146164E29,1.2821053E-19,geoIntensity|5257921 nanoTesla
1280705984,6.088,13.993203047468128,66.38578943802854,18,28.962582,28.372105,-0.027502542,0.020939846,-1.4513496,1.4517612,6.4113216,5.645962,1.9318464,8.758651,470,-292,1461,1562.0,0.13867988,0.13094907,-1.644427,1.6554515,0.19073481445311874,-0.10547065714749074,-0.8360090460493415,-0.7310883970786042,33.542879776201104,33.54287977620112,-68.34876880219326,18.52616475461598,-73.21724970582856,30.953623223738393,0.18517633657216706,31.372889900042594,158.12179295599233,163.39720785896355,64.96,1.5515136345214842,,13.9932035,66.3857898,20190521,160124,2019-05-21T16:01:24Z,68.093,0.6,1.34,8.58,11,7,18,-0.08,-0.02,-0.38,0,0,1297,10000,5,5,13.993203109451178,66.38579110317424,50,2276297,20,42,225,1475,3589,3844,3845,-609,15384,36,2,14776,0,false,false,false,false,false,false,true,false,false,false,6978,7100,6032,6157,54,72,72,55,1753,1751,1635,1691,1742,1732,1642,1678,0.0,0.0,0.0,0.0,1462.0,1457.0,1457.7,1461.4,7.98,6.85,4.9,5.28,0,0,0,0,-179.90900624985264,13.993202889278407,66.38578875668325,0,29.089415,27.939125,-0.025534851,0.017438091,-1.4459705,1.4463011,3.4439552,4.4911942,-1.7360373,5.9199224,473,-295,1461,1563.0,0.016286965,-0.030350659,-1.6286452,1.6290094,0.034444559226188776,0.048406189376492645,-1.1334258055964197,-0.09209998068054659,26.14212242492558,26.14212242492556,-74.1099866565676,16.38930290719886,-73.46778581901471,29.47843630116975,0.26110213131503823,35.64240403428926,-171.1735472210307,-165.89813231805948,64.96,NONE,0.0,0.0,0.0,NONE,-5.95884085903574E-9,5.921914149647702E-10,-0.01493454,2,78.62,76.74,63.38,69.16,15.008,15.008,5.246,2.4520733,0,1339,3.754,12.0,7.996,38,35.6,OK,319,0,0,0,0,0,65,100,0.0,0,0.0,-1.48558053E11,2.65E-43,0.0,1.05007105E-23,63,1.9254367E-7,-1.1668319E-7,1.1855231E-34,False,False,0,None,4.268185E29,1.7192206E-19,mcID(SN)|298DG13001W644
1284559604,7.089,13.993203534699472,66.38578968607474,18,33.14765,31.79035,-0.04343846,0.013672004,-0.9515881,0.95267713,3.8578167,-3.5490406,-7.0666547,8.798639,504,-273,1455,1563.0,0.056710273,0.082444504,-4.052259,4.0534945,0.10006573330845443,-0.06502367686464991,-0.7502930639583583,-2.179218573263497,33.5337133981985,33.53371339819853,-68.09718033610659,16.70061835759142,-74.52380859112175,29.534582571829443,0.1587086304494525,31.452998863559127,-38.56104651653476,-33.28563161356355,64.97,5.736583672363281,,13.9932042,66.3857904,20190521,160125,2019-05-21T16:01:25Z,71.282,0.6,1.33,8.55,11,7,18,-0.12,0.02,-2.52,0,0,-2903,10000,5,5,13.993203109451178,66.38579110317424,50,2276297,20,42,225,1475,3589,3844,3845,-609,15384,36,2,14776,0,false,false,false,false,false,false,true,false,false,false,6095,6122,5480,5707,55,71,71,55,1659,1643,1573,1615,1644,1636,1569,1602,0.0,0.0,0.0,0.0,1476.7,1471.1,1471.1,1475.5,5.32,4.4,4.04,4.06,0,0,0,0,-169.01134890350602,13.993203009480856,66.3857891451015,0,33.129158,31.343576,-0.04321061,0.012162854,-0.9570098,0.95806205,4.843162,-2.267836,-5.4983473,7.670145,501,-276,1455,1563.0,-0.06364999,-0.063661836,-4.0814543,4.082447,0.09002305879507447,-0.04656918373264675,-0.9400062807861916,-1.5900237973797902,26.162230191880543,26.162230191880553,-74.73109594700676,15.481630925269405,-74.38809433694765,28.70749451883161,0.21777328285240374,35.79882304717176,-153.21707115293904,-147.94165624996782,64.94,NONE,0.0,0.0,0.0,NONE,-2.932635999791317E-9,-1.36107587778784E-9,-0.010253906,2,65.35,66.54,56.88,62.47,14.845,14.845,5.294,3.07352,0,1337,3.749,12.0,12.429,38,35.6,OK,320,0,0,0,0,0,65,100,0.0,0,0.0,-7.36198E21,2.66E-43,0.0,1.05007105E-23,63,7.889001E-6,-7.949022E-7,2.754081E-34,False,False,0,None,1.8790382E30,8.6682247E-19,mcVer|v3.4.1.6
1288421658,8.093,13.993203056814004,66.38578949051654,19,36.61457,35.818954,-0.05494027,-0.019561328,-1.0069048,1.0085922,11.737292,1.3095285,-43.696865,45.26472,513,78,1473,1561.0,-0.028235238,0.007490058,-4.028406,4.028512,0.029211805933364945,0.0011043983858911623,1.6102743351982374,-2.764822027657017,-15.24527069376185,344.7547293062382,-120.24118396881066,13.38992206410207,-75.59912739528902,-4.7383486806075155,0.17933468088505458,31.63380206072993,-157.10159367156186,-151.82617876859064,64.98,9.203502617675781,,13.9932016,66.385789,20190521,160127,2019-05-21T16:01:27Z,75.351,0.58,1.32,8.43,11,8,19,-0.19,-0.17,-3.59,0,0,-9998,10000,5,5,13.993203109451178,66.38579110317424,50,2276297,20,42,225,1475,3589,3844,3845,-609,15384,36,2,14776,0,false,false,false,false,false,false,true,false,false,false,5912,6226,5694,5734,54,72,72,55,1629,1670,1591,1595,1618,1668,1578,1579,0.0,0.0,0.0,0.0,1476.1,1470.5,1470.5,1474.3,4.63,4.52,4.44,3.84,0,0,0,0,158.897625855669,13.99320190769939,66.38578817601707,0,37.33284,35.700333,-0.050898943,-0.020854527,-0.97738034,0.9789269,-6.700692,-1.1138593,-67.54109,67.881805,493,112,1479,1563.0,-0.08157886,-0.0640788,-3.9940681,3.995415,0.10373621953940917,0.014229973816912572,1.5214563674759576,-2.5648488701900938,-28.058890175937044,331.94110982406295,-131.48268138486014,13.092159919660434,-75.09585260823235,-9.678782158822116,0.32985724309636766,36.081215005510096,-150.28382532214587,-145.00841041917465,65.0,NONE,0.0,0.0,0.0,NONE,-1.1086264285988871E-8,-5.609213310701588E-9,-0.029972076,2,63.18,68.47,56.57,57.49,14.906,14.906,5.291,4.122243,0,1333,3.691,12.0,11.813,38,35.6,OK,321,0,0,0,0,0,65,100,0.0,0,0.0,2.761592E-19,8.7E-44,0.0,1.05007105E-23,63,4.846081E-4,-6.2656195E-6,9.384973E-34,False,False,0,None,1.6911189E31,5.720358E-18,
1292299010,9.101,13.993199002379722,66.38578747423743,18,41.143764,40.12354,-0.014479329,-0.04154434,-1.1243203,1.1251807,-25.023703,-30.78295,-53.97819,66.98821,650,445,1328,1544.0,0.3934257,-0.73537123,-3.9627216,4.049533,0.8339991691045487,-0.5483129392467903,6.1005087696572895,-23.552296779823404,-80.1863384561849,279.8136615438151,-186.112214146907,8.03694622306725,-99.57425504192757,-80.70698466992623,0.4430507467041103,31.995133880762452,-74.43841180332196,-69.16299690035075,64.99,13.73269649584961,,13.9931986,66.385788,20190521,160127,2019-05-21T16:01:27Z,79.502,0.6,1.35,8.32,11,7,18,0.21,-0.33,-4.04,0,10000,-9998,10000,5,5,13.993203109451178,66.38579110317424,50,2276297,20,42,225,1475,3589,3844,3845,-609,15384,36,2,14776,0,false,false,false,false,false,false,false,false,false,false,6426,6839,5382,5598,56,74,73,56,1651,1698,1673,1675,1665,1703,1626,1633,0.0,0.0,0.0,0.0,1464.4,1459.5,1459.5,1465.0,4.94,6.23,4.91,5.44,0,0,0,0,175.07246091869925,13.993198409306883,66.3857870691308,0,41.178116,39.64545,-0.021863135,-0.04149833,-1.1369135,1.1378807,-29.665943,-31.249865,-58.867886,72.952385,642,442,1340,1550.0,0.20962232,-0.8523619,-3.934813,4.0315275,0.8777598385412928,-0.6807076738941256,5.7918229015093745,-23.62151316610255,-87.0220295320128,272.97797046798723,-192.05076526704173,8.017722946346499,-98.5593751422632,-83.23035841421901,0.49501498347977124,36.319784594468516,-87.99249019114262,-82.71707528817142,64.98,NONE,0.0,0.0,0.0,NONE,-2.454375138997684E-8,-1.606303129333781E-10,-0.02954483,2,69.83,73.7,60.62,62.64,14.895,14.895,5.263,5.402626,0,1330,3.717,12.0,10.697,38,35.6,OK,322,0,0,0,0,0,65,100,0.0,0,0.0,-1.544143E26,8.7E-44,0.0,1.05007105E-23,63,0.030143738,-4.927466E-5,3.1734832E-33,False,False,0,None,1.5370264E32,3.596608E-17,
1296242574,10.126,13.993135906749405,66.38579068129505,19,44.641594,43.52215,-0.05684494,-0.060703028,-0.6261475,0.63164616,-4.323566,0.85528266,2.778156,5.209883,607,321,1402,1561.0,-0.064163566,-4.196747,-2.3266926,4.7989893,4.197237223249067,-1.4331598677374582,2.246146113241173,-24.385445072516514,-99.2524058211928,260.7475941788072,-202.11004515647994,-2.7450875191799002,-102.08214129488103,-96.59876637025211,2.993713628083569,34.86692447821944,-96.33970486276465,-91.06428995979344,64.96,17.23052593310547,,13.9931528,66.3857898,20190521,160128,2019-05-21T16:01:28Z,83.215,0.58,1.32,8.24,11,8,19,0.2,-3.41,-3.75,0,10000,0,4752,5,5,13.993203109451178,66.38579110317424,50,2276297,20,42,225,1475,3589,3844,3845,-609,15384,36,2,14776,0,false,false,false,false,false,false,false,false,false,false,4774,5015,4623,4567,54,72,73,56,1486,1526,1478,1462,1472,1517,1480,1448,0.0,0.0,0.0,0.0,1487.7,1482.8,1482.8,1488.4,3.01,2.37,2.48,2.04,0,0,0,0,153.62657278909626,13.993136312737253,66.38578887237824,0,44.549114,43.05266,-0.054958727,-0.058783792,-0.62745804,0.63259745,1.4403079,0.75140613,-0.889652,1.8521821,607,321,1402,1561.0,-0.3987401,-4.25984,-2.3252113,4.86948,4.278461076954156,-1.5727066945756025,1.968344567607114,-24.25685874336238,-103.73322927773336,256.26677072226664,-207.14680721733353,-1.2909552517175846,-100.84103409933032,-95.60556672769272,2.985585063523402,39.12011233480307,-97.46091755833568,-92.18550265536447,64.92,NONE,0.0,0.0,0.0,NONE,-2.3683195855320669E-7,-8.692235926771687E-9,-0.0059814453,2,46.02,48.87,43.83,42.38,14.854,14.854,5.309,6.677455,0,1327,3.716,12.0,10.992,37,35.7,OK,323,0,0,0,0,0,65,100,0.0,0,0.0,-28.650879,8.8E-44,0.0,1.05007105E-23,63,1.0982056,-2.927576E-4,2.6711602E-31,False,False,0,None,3.8552804E35,1.7737295E-16,
1300274485,11.173,13.993015768090725,66.38578376996458,19,44.888832,44.261753,-0.14423862,-0.0705148,-1.0752456,1.0871661,18.514538,6.9857674,17.006516,26.092348,593,291,1411,1557.0,-0.92113936,-6.646381,-0.27857172,6.715689,6.709908847331829,-1.550780443870095,1.5395499411560223,-23.852955457588365,-100.40062171985723,259.5993782801428,-207.13457751913086,-8.58804557179332,-102.94641365602548,-97.03093113748986,8.384315082723154,40.27775752370389,-105.97827456259809,-100.70285965962688,64.97,17.477764092285156,,13.993014,66.3857842,20190521,160130,2019-05-21T16:01:30Z,84.811,0.58,1.32,8.2,11,8,19,-0.75,-6.38,-1.68,0,10000,0,2893,5,5,13.993203109451178,66.38579110317424,50,2276297,20,42,225,1475,3589,3844,3845,-609,15384,36,2,14776,0,false,false,false,false,false,false,false,false,false,false,5428,5749,5839,5573,55,74,74,55,1566,1622,1615,1584,1551,1588,1618,1593,0.0,0.0,0.0,0.0,1474.9,1471.1,1471.1,1476.7,4.09,3.74,4.4,3.6,0,0,0,0,68.18176355979625,13.993016925140273,66.38578343800891,0,44.904686,43.807316,-0.14204365,-0.07396905,-1.0696048,1.0815276,21.09124,7.2780643,17.886374,28.596031,593,288,1411,1557.0,-1.1512045,-6.6269693,-0.23426098,6.730295,6.726216837899255,-1.618748142527842,1.2859627246670235,-23.700742178700985,-103.12715591410078,256.8728440858992,-210.70394541592793,-6.153020233137631,-100.1481049263223,-95.93392843344388,8.336716473786993,44.475694662552755,-102.08040282426974,-96.80498792129853,65.0,NONE,0.0,0.0,0.0,NONE,-1.0014248430668183E-6,-6.512376162005133E-8,-7.286072E-4,2,55.95,60.35,60.95,57.53,14.974,14.974,5.292,7.759449,0,1324,3.699,12.0,7.193,37,35.7,OK,324,0,0,0,0,0,65,100,0.0,0,0.0,-0.050037384,8.8E-44,0.0,1.05007105E-23,63,2.5599365,-4.370083E-4,1.1727714E-27,False,False,0,None,-2.5470575E-37,2.495444E-16,
1304128869,12.175,13.992836297308175,66.3857693791204,19,44.631294,44.609955,-0.19678268,-0.08984073,-1.0184908,1.0412099,14.655701,-1.4739299,11.892703,18.931414,601,325,1399,1556.0,-2.0856333,-9.235598,-0.4228117,9.4776,9.468164205528522,-1.3297159355612713,2.5575020302036,-24.739555593410046,-101.15575234114317,258.84424765885683,-208.87788642173913,-9.17615147988481,-105.72240475186507,-99.76200126326046,16.516175884994993,48.43664591594686,-109.64913492208323,-104.37372001911203,64.92,17.22022625048828,,13.9928341,66.3857677,20190521,160131,2019-05-21T16:01:31Z,85.248,0.58,1.32,8.23,11,8,19,-2.16,-8.98,-0.83,0,10000,-784,2972,5,5,13.993203109451178,66.38579110317424,50,2276297,20,42,225,1475,3589,3844,3845,-609,15384,36,2,14776,0,false,false,false,false,false,false,false,false,false,false,5486,5744,6022,5833,55,74,74,55,1590,1612,1629,1619,1574,1609,1627,1601,0.0,0.0,0.0,0.0,1473.0,1468.7,1468.1,1473.0,4.39,3.94,4.85,4.25,0,0,0,0,35.57234996899052,13.992837528601308,66.38576834009176,0,44.837395,44.073784,-0.19657987,-0.090400174,-1.0226473,1.0452863,13.874515,-0.6617366,7.801058,15.930993,601,321,1399,1556.0,-2.1356516,-9.203091,-0.34114724,9.453796,9.447638920098015,-1.2966526377073748,2.606564206139318,-24.43824922730998,-103.12878622228747,256.8712137777125,-211.64029301396337,-5.359650161260331,-101.88809415698557,-98.20619737677484,16.47927331389393,52.65005319344813,-110.56490466856465,-105.28948976559344,64.89,NONE,0.0,0.0,0.0,NONE,-1.5399368925644251E-6,-1.4265700177194568E-7,-0.0025253296,2,57.93,60.08,62.55,61.82,14.92,14.92,5.278,8.514826,0,1322,3.744,12.0,8.719,37,35.7,OK,325,0,0,0,0,0,65,100,0.0,0,0.0,-2.0255102E-6,8.8E-44,0.0,1.05007105E-23,63,3.3605957,-4.8587666E-4,1.9794581E-22,False,False,0,None,-1.15053625E-32,2.8912456E-16,
1307984058,13.177,13.992604093678677,66.38574287100003,19,44.95785,44.88529,-0.31338367,-0.08768762,-1.5254194,1.5597445,4.05559,86.4716,3.9805396,86.65813,536,355,1402,1542.0,-2.9445426,-11.449113,-0.8291509,11.850739,11.821696904429386,-1.0879386068842987,3.7739376326773857,-18.54213195733965,-100.7435604176603,259.2564395823397,-211.30372801645387,-7.295751802438886,-101.37480214598936,-77.95927644702584,27.21509809886349,59.195556321691434,-110.16628918201357,-104.89087427904236,64.87,17.54678340991211,,13.9926014,66.3857426,20190521,160132,2019-05-21T16:01:32Z,85.604,0.58,1.32,8.27,11,8,19,-2.88,-11.22,-0.53,0,6879,0,9994,5,5,13.993203109451178,66.38579110317424,50,2276297,20,42,225,1475,3589,3844,3845,-609,15384,36,2,14776,0,false,false,false,false,false,false,false,false,false,false,6829,7077,7140,6987,55,74,74,56,1735,1769,1735,1735,1725,1721,1728,1744,0.0,0.0,0.0,0.0,1452.8,1446.0,1446.0,1451.5,7.0,6.93,6.39,5.48,0,0,0,0,61.139865343416204,13.992605497871397,66.38574264061795,0,44.89972,44.44302,-0.3059837,-0.08534825,-1.5083498,1.5414375,-3.3765495,75.80028,1.2329733,75.88546,553,352,1402,1547.0,-2.9163475,-11.440976,-0.7954221,11.833584,11.806820750538714,-1.1047191381214443,4.07728541161269,-19.084562044325903,-103.23277869848269,256.76722130151734,-213.6116794255699,-3.294320947765361,-98.18777662165571,-77.18747381580323,27.158853157762024,63.37498152668491,-112.20440670518998,-106.92899180221877,64.89,NONE,0.0,0.0,0.0,NONE,-6.105420662152204E-7,-6.205679026336352E-8,-6.2561035E-4,2,71.59,73.27,74.24,74.77,14.876,14.876,5.224,9.00856,0,1319,3.744,12.0,9.89,37,35.7,OK,326,0,0,0,0,0,65,100,0.0,0,0.0,-4.2388137E-10,8.8E-44,0.0,1.05007105E-23,63,4.9139404,-6.173143E-4,8.804719E-20,False,False,0,None,-2.6251388E-30,3.4333467E-16,
1311845488,14.181,13.992402082577227,66.38571921611505,19,46.764545,47.52929,-0.09058124,-0.061758604,-0.62964237,0.6391155,-1.0982279,4.069139,-0.88378936,4.3064,-637,220,1381,1536.0,-2.4790053,-6.8162518,-2.4324288,7.650063,7.253051378763184,2.088191815512621,0.8563614065998056,22.086508838499228,-101.7525181715718,258.2474818284282,-210.24014993206018,-10.719361393370598,-48.79484439424391,-109.30158068742394,36.56388044715224,68.57581782915406,-106.78530851266086,-101.50989360968966,64.93,19.353477440673828,,13.992398,66.3857212,20190521,160133,2019-05-21T16:01:33Z,88.303,0.58,1.32,8.25,11,8,19,-2.06,-7.09,-2.16,0,0,0,0,5,5,13.993203109451178,66.38579110317424,50,2276297,20,42,225,1475,3589,3844,3845,-609,15384,36,2,14776,0,false,false,false,false,false,false,false,false,false,false,3653,3649,3852,3965,56,73,73,56,1377,1393,1384,1408,1353,1375,1413,1407,0.0,0.0,0.0,0.0,1490.8,1485.9,1484.6,1489.0,2.24,1.91,1.26,1.54,0,0,0,0,-12.799457355309528,13.992388282608774,66.38571890898793,0,47.03736,47.126656,-0.07798056,-0.057733078,-0.6058019,0.61352265,-11.006521,3.849328,-1.6145699,11.771477,-649,217,1369,1530.0,-2.1122887,-6.4676347,-1.9672006,7.0825095,6.803826926961825,3.189156200408937,1.3326444691452852,22.750374830917625,-104.29844291684994,255.70155708315008,-212.64486936390867,-6.717326611618654,-46.3609855258352,-109.97565125282951,37.17129514772568,73.40628785825561,-113.01305337252448,-107.73763846955327,64.87,NONE,0.0,0.0,0.0,NONE,-3.805081998923767E-7,-4.8231867614844956E-8,-0.006225586,2,30.01,32.15,34.79,33.26,14.811,14.811,5.343,9.440691,0,1316,3.719,12.0,13.285,37,35.7,OK,327,0,0,0,0,0,65,100,0.0,0,0.0,-2.0722979E-11,8.8E-44,0.0,1.4640026E-27,64,61.08496,-0.0021571673,1.1651753E-19,False,False,0,None,-3.3609403E-30,1.0526317E-15,
1315722947,15.188,13.992282954601855,66.38570512228726,19,49.63245,48.01932,-0.042168517,-0.07921465,-1.1776125,1.1810269,-1.1734948,-7.6827383,-0.17652752,7.7738485,-675,260,1337,1520.0,-1.068335,-2.4259906,0.033916265,2.6510224,2.650805559617431,2.8395399684759117,3.375895136999725,23.46955178205695,-102.71588339857959,257.2841166014204,-208.15668936048974,-11.060950162224861,-47.254857821960655,-114.26492153612968,42.085977960848496,74.1318858628655,-119.79203998934052,-114.51662508636932,65.06,22.221382103759765,,13.9922881,66.3857068,20190521,160134,2019-05-21T16:01:34Z,88.651,0.58,1.32,8.19,11,8,19,-1.13,-3.42,-0.83,0,0,0,0,5,5,13.993203109451178,66.38579110317424,50,2276297,20,42,225,1475,3589,3844,3845,-609,15384,36,2,14776,0,false,false,false,false,false,false,false,false,false,false,5570,6245,5631,5456,55,74,74,55,1605,1681,1613,1558,1590,1672,1602,1561,0.0,0.0,0.0,0.0,1469.3,1465.6,1466.3,1469.3,4.52,5.24,4.92,2.96,0,0,0,0,130.57908267499369,13.992282768738407,66.38570550915632,0,49.719646,47.367287,-0.044789962,-0.07923013,-1.1787206,1.1822292,-6.399756,-9.16144,-7.9685125,13.72538,-680,257,1334,1519.0,-1.0731833,-2.5343037,0.14112654,2.755782,2.7521659817487336,2.1403467888313994,3.297885150639597,23.7378212219003,-104.31012211798077,255.68987788201923,-211.28391015826892,-8.692856476271206,-45.43314747879493,-114.08938222990898,42.084290388484966,78.3429402586317,-118.68965347692247,-113.41423857395127,65.02,NONE,0.0,0.0,0.0,NONE,-6.875320742598471E-7,-1.031459379758569E-7,0.0011558533,2,59.85,69.55,61.11,53.42,14.933,14.933,5.279,9.836295,0,1312,3.712,12.0,7.201,37,35.8,OK,328,0,0,0,0,0,65,100,0.0,0,0.0,-2.8388403E-12,8.8E-44,0.0,1.4640026E-27,64,109.31641,-0.002937571,1.7797705E-19,False,False,0,None,-4.9539733E-30,1.3687037E-15,
1319762388,16.238,13.992268239786469,66.38570077737721,19,48.68407,47.860504,0.03367826,-0.070506856,-0.985575,0.98866755,7.394755,-10.85136,3.5183675,13.594606,-171,312,1473,1515.0,-0.22889613,-0.0709997,-0.09101905,0.2563569,0.2396547411499198,0.5359464550509719,3.696203135773029,3.298664088568054,-102.4257972358366,257.5742027641634,-205.63902922701067,-9.66349191230119,-67.46729210456118,-111.44013145783734,42.835234665325416,75.07514813774394,50.18507007081728,55.46048497378849,65.13,21.273002587158203,,13.9922683,66.3857018,20190521,160135,2019-05-21T16:01:35Z,88.385,0.58,1.32,8.09,11,8,19,-0.12,-0.02,-0.16,0,0,0,0,5,5,13.993203109451178,66.38579110317424,50,2276297,20,42,225,1475,3589,3844,3845,-609,15384,36,2,14776,0,false,false,false,false,false,false,false,false,false,false,5664,6012,4800,4307,56,74,74,56,1610,1654,1507,1451,1600,1633,1495,1451,0.0,0.0,0.0,0.0,1476.7,1473.6,1472.4,1476.1,4.54,4.52,3.34,1.86,0,0,0,0,161.8733783198436,13.992267619693733,66.38570099448121,0,48.591587,47.305367,0.03384951,-0.07023932,-0.9839744,0.98705876,4.932031,-6.8842115,0.12367765,8.46951,-176,312,1473,1515.0,-0.16330872,-0.022552846,-0.055625103,0.17399,0.1648586347829257,0.6362492250411659,3.538893964644805,3.7953617753233537,-104.1409328374603,255.8590671625397,-209.81810487940297,-8.267413324221184,-65.66578482611983,-109.25618942301438,42.85643479482655,79.26768489509645,179.5261104680877,-175.19847462894109,65.13,NONE,0.0,0.0,0.0,NONE,-5.731570935368409E-9,-4.352004819141747E-9,-1.7166138E-4,2,59.67,64.84,47.55,40.47,14.905,14.905,5.297,10.045929,0,1308,3.675,12.0,9.463,37,35.8,OK,329,0,0,0,0,0,65,100,0.0,0,0.0,-5.919709E-13,8.8E-44,0.0,1.4640026E-27,64,98.53906,-0.0027731813,2.0000983E-19,False,False,0,None,-5.525108E-30,1.3021337E-15,
1323691137,17.259,13.992273902232823,66.3857007571324,19,48.56274,47.666214,0.029536348,-0.07691217,-0.9961502,0.9995515,2.0598335,-2.2886927,0.122097686,3.0815477,-96,325,1482,1520.0,-0.11081137,0.10070319,-0.0312545,0.15296122,0.14973406712419682,0.09729045967740899,4.143181829198603,0.677119222718113,-102.24369790660732,257.75630209339266,-206.17146207966329,-9.964026393423469,-70.23403344457367,-109.82221667472292,42.59062049595245,75.38203171776374,110.31324341930303,115.58865832227424,65.13,21.151672325927734,,13.9922731,66.385701,20190521,160136,2019-05-21T16:01:36Z,88.223,0.58,1.32,8.01,11,8,19,-0.09,0.17,-0.01,0,0,0,0,5,5,13.993203109451178,66.38579110317424,50,2276297,20,42,225,1475,3589,3844,3845,-609,15384,36,2,14776,0,false,false,false,false,false,false,false,false,false,false,5693,6048,4864,4289,57,74,74,57,1610,1640,1510,1454,1602,1637,1500,1440,0.0,0.0,0.0,0.0,1476.7,1472.4,1471.8,1476.7,4.44,4.42,3.42,2.14,0,0,0,0,160.23405675721085,13.992274122199246,66.38570072369835,0,48.488754,47.301414,0.029512756,-0.077705376,-1.000144,1.0035921,-3.5375698,-5.931768,-4.0539255,8.008407,-93,325,1482,1520.0,-0.14982928,0.08316126,-0.08766369,0.19248255,0.17136104641430805,0.11382845733572428,3.9161029101838642,1.0636473969644755,-104.06555481895488,255.93444518104513,-210.30037040611248,-8.729685073874718,-68.24068704645151,-106.27823523809197,42.58197652734058,79.59011083761098,113.0038288117714,118.2792437147426,65.14,NONE,0.0,0.0,0.0,NONE,1.146314158261949E-8,-1.0503066735756463E-8,-6.866455E-4,2,59.82,64.97,47.89,40.11,14.888,14.888,5.292,10.06424,0,1306,3.743,12.0,8.274,37,35.8,OK,330,0,0,0,0,0,65,100,0.0,0,0.0,-3.7998077E-13,8.8E-44,0.0,1.4640026E-27,64,98.96875,-0.0027797378,1.9606914E-19,False,False,0,None,-5.4229372E-30,1.30479E-15,
1327554046,18.263,13.99227748352141,66.3856994788234,19,48.990067,47.553,0.02613975,-0.086471,-0.9862445,0.990373,1.8591621,0.1561767,2.5638287,3.1708188,-108,337,1476,1517.0,-0.14308599,0.101524726,0.06926843,0.18862392,0.17544477896883792,0.03737343916994426,4.636335228941814,1.2929399234369285,-102.15584127045592,257.84415872954406,-203.75438794276516,-6.780220288533144,-68.66253086210479,-108.90156206366918,42.46949548499301,75.60346627114812,125.90293041470063,131.17834531767184,65.12,21.578998528320312,,13.9922769,66.3856998,20190521,160137,2019-05-21T16:01:37Z,88.057,0.58,1.32,7.95,11,8,19,-0.11,0.13,0.01,0,0,0,0,5,5,13.993203109451178,66.38579110317424,50,2276297,20,42,225,1475,3589,3844,3845,-609,15384,36,2,14776,0,false,false,false,false,false,false,false,false,false,false,5640,6026,4855,4286,56,75,75,57,1590,1650,1519,1449,1580,1642,1526,1435,0.0,0.0,0.0,0.0,1476.1,1472.4,1471.1,1476.1,4.17,4.4,3.64,2.16,0,0,0,0,159.28248867118785,13.99227813652032,66.38569953260247,0,49.064053,47.33822,0.026280366,-0.0856123,-0.9864971,0.9905537,6.258801,-0.95260155,3.866544,7.418235,-108,331,1473,1513.0,-0.1604473,0.069636144,-0.06859102,0.18787564,0.17490719607984903,0.04673236594789501,4.480824054127483,1.4780540762128453,-103.99455562939116,256.00544437060887,-208.63312114649113,-5.996878832992345,-67.01336883250347,-107.90112254958866,42.43982427504769,79.81745532314612,117.07210517525374,122.34752007822495,65.14,NONE,0.0,0.0,0.0,NONE,3.421833158263777E-9,-3.7137678686430056E-9,-1.9836426E-4,2,58.33,65.32,49.07,40.08,14.895,14.895,5.29,9.957131,0,1304,3.708,12.0,8.328,37,35.9,OK,331,0,0,0,0,0,65,100,0.0,0,0.0,-1.5609042E-13,8.8E-44,0.0,1.4640026E-27,64,102.802734,-0.00283821,1.9175788E-19,False,False,0,None,-5.311137E-30,1.3284798E-15,
1331407276,19.265,13.992281687241102,66.38569837214588,19,48.595123,47.482376,0.017304836,-0.0844051,-0.98331755,0.98708516,-3.728245,-7.668138,-5.6775246,10.243751,-88,340,1476,1517.0,-0.13981459,0.09616327,0.0830257,0.18891469,0.16969234485980889,0.054046217825907544,4.778809213817283,1.073401867855126,-102.05001561169225,257.94998438830777,-203.9289941277002,-5.435295601379156,-69.648418691747,-105.50941757190532,42.31756122071728,75.83801212658008,97.7300496765202,103.0054645794914,65.03,21.184055291015625,,13.9922806,66.3856985,20190521,160138,2019-05-21T16:01:38Z,87.857,0.58,1.32,7.9,11,8,19,-0.11,0.12,0.03,0,0,0,0,5,5,13.993203109451178,66.38579110317424,50,2276297,20,42,225,1475,3589,3844,3845,-609,15384,36,2,14776,0,false,false,false,false,false,false,false,false,false,false,5583,6101,4764,4262,57,75,75,57,1602,1650,1502,1465,1579,1638,1511,1454,0.0,0.0,0.0,0.0,1475.5,1471.1,1470.5,1476.7,4.54,4.59,3.18,2.38,0,0,0,0,159.00583575062737,13.992281775295437,66.38569812682844,0,48.74574,47.344467,0.016746292,-0.08441843,-0.9839398,0.9876965,-4.325862,-1.8061972,-3.7952762,6.031546,-88,337,1479,1519.0,-0.14207993,0.0596449,-0.07129786,0.16978694,0.15409160190199808,0.07076070911523794,4.5843581935865965,1.196814578076408,-103.91346653185639,256.0865334681436,-209.0161695775253,-5.3759044103370455,-68.13391478515389,-104.57933852830276,42.320413028073816,80.05365535610117,124.684777457605,129.9601923605762,65.03,NONE,0.0,0.0,0.0,NONE,9.495586413987323E-9,-9.410782003330673E-9,-4.9209595E-4,2,59.53,64.48,48.44,41.36,14.891,14.891,5.288,9.754209,0,1301,3.717,12.0,8.215,37,35.9,OK,332,0,0,0,0,0,65,100,0.0,0,0.0,-7.757857E-14,8.8E-44,0.0,1.4640026E-27,64,103.22656,-0.0028446473,1.897561E-19,False,False,0,None,-5.2592332E-30,1.3310819E-15,
1335269671,20.269,13.992284125466961,66.38569734347735,19,49.07493,47.39893,0.033843692,-0.07049512,-1.0010748,1.0041244,-8.230331,-2.433182,-4.034494,9.483452,-99,328,1476,1515.0,-0.06579305,0.020897092,0.098330885,0.12014315,0.06903197930811168,0.08809626938571628,4.28923044524096,1.3870445073325446,-102.0755496611534,257.9244503388466,-203.75364967918605,-4.756256562206416,-69.4475335465176,-106.14997954144735,42.240325866567964,75.99817534448185,148.7800627430094,154.05547764598063,64.97,21.663860283691406,,13.9922832,66.3856975,20190521,160139,2019-05-21T16:01:39Z,87.749,0.58,1.32,7.81,11,8,19,-0.05,0.07,-0.01,0,0,0,0,5,5,13.993203109451178,66.38579110317424,50,2276297,20,42,225,1475,3589,3844,3845,-609,15384,36,2,14776,0,false,false,false,false,false,false,false,false,false,false,5660,6105,4889,4400,57,76,75,57,1603,1656,1513,1464,1596,1644,1503,1461,0.0,0.0,0.0,0.0,1475.5,1470.5,1471.8,1474.9,4.41,4.6,3.4,2.09,0,0,0,0,159.332454952192,13.992284161423758,66.385696966385,0,49.239433,47.325924,0.03279713,-0.07158299,-0.9911249,0.9942476,-2.7754743,3.361193,-2.8522866,5.2092624,-99,328,1479,1518.0,-0.065749496,-0.023890581,-0.074134715,0.10192994,0.06995538915319038,0.09658008565757586,4.110834217885685,1.6043685959650553,-103.89932314739865,256.10067685260134,-208.8895453733628,-5.338315670462304,-67.08002174322367,-104.45429401509062,42.24914323994169,80.23049978014744,136.9368638685984,142.21227877156963,65.01,NONE,0.0,0.0,0.0,NONE,-1.0265498476620684E-9,-4.848887235368209E-9,-4.7302246E-4,2,59.71,65.86,48.68,41.86,14.891,14.891,5.287,9.504892,0,1299,3.716,12.0,8.325,37,35.9,OK,333,0,0,0,0,0,65,100,0.0,0,0.0,-4.2421795E-14,8.8E-44,0.0,1.4640026E-27,64,101.50391,-0.0028184212,1.894517E-19,False,False,0,None,-5.251337E-30,1.3204567E-15,
1339147022,21.276,13.992285605665616,66.38569723461913,19,49.146347,47.611282,0.020546136,-0.07866273,-0.9900333,0.993366,-6.2462325,-0.8695381,-4.822485,7.9390097,-96,331,1485,1524.0,-0.056775108,0.041430637,-0.0059704175,0.07053763,0.07028449679741482,-0.00376385149305071,4.582211700273692,1.0371920170096642,-102.16229965795864,257.83770034204133,-204.05023976110832,-3.5509729097701186,-69.82035635198133,-108.01308657783188,42.179431389091604,76.11062876677033,11.243587562341698,16.519002465312905,65.0,21.735279045898437,,13.9922846,66.3856972,20190521,160140,2019-05-21T16:01:40Z,87.763,0.58,1.32,7.74,11,8,19,-0.05,0.07,-0.04,0,0,0,0,5,5,13.993203109451178,66.38579110317424,50,2276297,20,42,225,1475,3589,3844,3845,-609,15384,36,2,14776,0,false,false,false,false,false,false,false,false,false,false,5615,6044,4992,4446,56,75,75,57,1604,1656,1527,1470,1596,1637,1508,1464,0.0,0.0,0.0,0.0,1474.3,1470.5,1470.5,1474.9,4.29,4.54,3.78,1.99,0,0,0,0,156.2989366450737,13.992285467023388,66.38569684146233,0,49.06972,47.33728,0.02128554,-0.0788156,-0.99089736,0.99425477,-4.785304,-0.5813104,-0.7193833,4.873866,-93,334,1485,1524.0,-0.06311404,0.0019030654,-0.07880039,0.10097775,0.06314272391543657,-0.0038096858708316014,4.504851444636561,1.1043880961548962,-103.96419226770205,256.03580773229794,-208.63291293139395,-4.440564603581898,-67.39441227158457,-106.46674094538885,42.19625301001437,80.31710054797983,131.0928141166759,136.36822901964712,65.0,NONE,0.0,0.0,0.0,NONE,1.7109163873213663E-10,-1.4178283324160306E-9,-1.9454956E-4,2,58.05,65.05,50.05,41.49,14.89,14.89,5.292,9.249284,0,1297,3.715,12.0,8.389,37,35.9,OK,334,0,0,0,0,0,65,100,0.0,0,0.0,-3.748564E-14,8.8E-44,0.0,1.4640026E-27,64,102.59375,-0.0028349913,1.881646E-19,False,False,0,None,-5.2180183E-30,1.3271517E-15,
1343219813,22.335,13.99228722376407,66.38569678401565,19,48.975243,47.725468,0.018932812,-0.0771716,-0.9906549,0.9938365,-15.866036,0.042397227,-8.916394,18.199862,-76,325,1482,1519.0,-0.027049463,0.02231349,-0.011551616,0.0369189,0.03506515874467699,0.04786232788817981,4.238057774606434,0.5527411730658435,-102.24358104930505,257.756418950695,-205.28772981563696,-4.543318527669607,-70.33072437330858,-105.99361902899771,42.12205103404598,76.19952538868247,142.53042437581746,147.80583927878868,64.97,21.564174614746094,,13.9922862,66.3856967,20190521,160141,2019-05-21T16:01:41Z,87.789,0.58,1.32,7.69,11,8,19,-0.01,0.06,-0.07,0,0,0,0,5,5,13.993203109451178,66.38579110317424,50,2276297,20,42,225,1475,3589,3844,3845,-609,15384,36,2,14776,0,false,false,false,false,false,false,false,false,false,false,5632,5985,4954,4392,58,74,75,58,1593,1651,1525,1469,1584,1631,1514,1465,0.0,0.0,0.0,0.0,1474.9,1470.5,1470.5,1475.5,4.2,4.5,3.4,2.04,0,0,0,0,158.0551884070199,13.99228718230174,66.38569640417305,0,48.91711,47.3681,0.019984966,-0.07295002,-0.9908158,0.99369866,-10.818626,1.4103808,-6.0390935,12.470064,-76,325,1485,1522.0,-0.027638055,-0.021840105,-0.07164763,0.079838805,0.03522573333376902,0.050332026055501564,4.145977595920956,0.5972522269268357,-104.01667370597305,255.98332629402694,-209.87575391979777,-6.107171561914582,-68.03135366587135,-105.54702329350219,42.13437573076158,80.41095522472793,129.2682953023389,134.54371020531013,64.95,NONE,0.0,0.0,0.0,NONE,-2.5663745378801496E-10,-5.440005969009892E-10,-1.7929077E-4,2,58.01,65.02,49.83,41.46,14.885,14.885,5.285,9.01417,0,1294,3.713,12.0,8.35,37,36.0,OK,335,0,0,0,0,0,65,100,0.0,0,0.0,-2.7229954E-14,8.8E-44,0.0,1.4640026E-27,64,105.583984,-0.0028806485,1.8595107E-19,False,False,0,None,-5.1606256E-30,1.3456644E-15,
1347122683,23.349,13.992286702105893,66.38569655054238,19,49.42365,47.808186,0.020440228,-0.07909614,-0.991214,0.99457484,-7.6169953,-1.9089109,-3.4222975,8.565902,-91,340,1482,1523.0,-0.0347077,0.011537522,0.015235476,0.03962144,0.03657511208563756,-0.0022268501308923203,4.693312558912947,1.0972025339658924,-102.24821963408247,257.7517803659175,-205.43526030731192,-4.06360875820884,-69.44186861354007,-105.94447493936818,42.15102361064161,76.2807776423645,-97.31662391741547,-92.04120901444426,64.98,22.012580834228515,,13.992286,66.3856967,20190521,160142,2019-05-21T16:01:42Z,87.743,0.58,1.32,7.6,11,8,19,-0.03,0.01,-0.08,0,0,0,0,5,5,13.993203109451178,66.38579110317424,50,2276297,20,42,225,1475,3589,3844,3845,-609,15384,36,2,14776,0,false,false,false,false,false,false,false,false,false,false,5640,6038,4956,4425,57,75,75,57,1598,1665,1521,1465,1597,1637,1505,1464,0.0,0.0,0.0,0.0,1474.9,1468.1,1469.9,1474.3,4.35,4.74,3.5,1.77,0,0,0,0,157.97959399672612,13.992286556106661,66.38569630457845,0,49.53727,47.409363,0.021426162,-0.0766199,-0.9859529,0.9891576,-1.1706867,-2.647196,1.5190234,3.2688816,-91,340,1479,1520.0,-0.036752954,-0.033189878,-0.047208935,0.06841806,0.049521183956335556,-0.019935188021436127,4.594174257042303,1.1367497772841832,-103.9522123087818,256.0477876912182,-209.91362891930896,-5.975862228157975,-67.58924482832293,-105.51454913630299,42.164150629455854,80.48030035518345,52.86549967840317,58.140914581374375,65.0,NONE,0.0,0.0,0.0,NONE,-5.389386442796942E-9,-2.480128686194597E-9,-3.4332275E-4,2,58.97,66.42,49.2,40.32,14.884,14.884,5.289,8.809781,0,1292,3.713,12.0,8.299,36,35.9,OK,336,0,0,0,0,0,65,100,0.0,0,13.009271,-2.6871839E-14,0.22705553,16.541622,3.4745674E-12,64,109.60156,-0.002941922,1.8471691E-19,False,False,0,None,-5.128655E-30,1.3704926E-15,
1350977177,24.351,13.992286579005514,66.38569659473183,19,49.166412,47.846188,0.02173139,-0.08194943,-0.9786088,0.9822745,-7.9342737,-3.6656764,-5.2703347,10.206189,-91,331,1482,1521.0,-0.019891927,0.008755123,0.059784785,0.06361259,0.021733406004114834,-0.014383709037899556,4.5585895728252686,1.3804909292918344,-102.32835869749802,257.671641302502,-204.92636259683314,-3.199755166903784,-69.81456466656107,-104.4693470767716,42.15510825087016,76.32778399312782,-169.05737666481468,-163.78196176184346,64.99,21.755344353515625,,13.9922855,66.3856965,20190521,160143,2019-05-21T16:01:43Z,87.653,0.58,1.32,7.52,11,8,19,-0.01,0.0,-0.06,0,0,0,0,5,5,13.993203109451178,66.38579110317424,50,2276297,20,42,225,1475,3589,3844,3845,-609,15384,36,2,14776,0,false,false,false,false,false,false,false,false,false,false,5625,6016,4895,4388,57,75,76,56,1600,1653,1521,1471,1595,1631,1507,1464,0.0,0.0,0.0,0.0,1474.3,1469.9,1470.5,1475.5,4.19,4.48,3.47,2.25,0,0,0,0,159.15160479199363,13.992286235138911,66.38569628581692,0,49.176983,47.451992,0.020396784,-0.08226316,-0.98234576,0.9859952,-10.785805,1.6501356,-6.121512,12.511173,-91,331,1482,1521.0,-0.015953552,-0.044288162,-0.032318782,0.057100445,0.04707395284275465,-0.03265139566531199,4.433840083115977,1.3573555641684227,-103.97747500334428,256.0225249966557,-209.31865895501326,-5.513203806203446,-67.74747838106296,-104.41303270955429,42.17851482826304,80.53161142018477,-36.046752685715845,-30.771337782744634,64.99,NONE,0.0,0.0,0.0,NONE,-7.528031800303944E-9,-1.0922846486046606E-9,-2.4032593E-4,2,58.54,65.56,49.22,41.26,14.881,14.881,5.284,8.6381855,537,1290,3.712,12.0,8.274,36,36.0,OK,337,0,0,0,0,0,65,100,0.0,0,2.0437624E-6,-2.6964647E-14,3.5670606E-8,16.541622,3.4745674E-12,64,113.73828,-0.003005103,1.8321145E-19,False,False,0,None,-5.089655E-30,1.3960527E-15,
1354832089,25.353,13.992285767689324,66.38569623730791,19,49.0481,47.839603,0.02515277,-0.07975914,-0.9821815,0.9857356,1.9339151,2.110953,-3.0317607,4.169859,-96,328,1482,1520.0,-0.0010046443,0.008038459,0.100553006,0.100878805,0.008100996234130556,0.045515412625896465,4.295765696958776,1.3756408153485495,-102.36263434821691,257.63736565178306,-203.9492854234335,-2.2579015036916665,-69.4111975314751,-105.49569975454133,42.20002339706396,76.38619735274177,-178.76262104320267,-173.48720614023145,65.02,21.637031517822265,,13.9922852,66.3856961,20190521,160144,2019-05-21T16:01:44Z,87.5,0.58,1.32,7.48,11,8,19,0.01,0.01,-0.04,0,0,0,0,5,5,13.993203109451178,66.38579110317424,50,2276297,20,42,225,1475,3589,3844,3845,-609,15384,36,2,14776,0,false,false,false,false,false,false,false,false,false,false,5634,6015,4856,4374,58,75,75,58,1592,1647,1514,1455,1592,1640,1501,1456,0.0,0.0,0.0,0.0,1473.6,1469.9,1471.1,1474.9,4.12,4.5,3.54,2.14,0,0,0,0,160.3656842079661,13.992285655908463,66.38569574052035,0,49.042812,47.486786,0.025257424,-0.07945109,-0.9830758,0.9866045,1.5579486,-3.0172215,-2.365869,4.138619,-96,325,1479,1517.0,0.00222904,-0.041980762,-0.018358672,0.04587367,0.042039898171898016,0.02373187925526324,4.261843146297511,1.3562011901626085,-103.90823030703135,256.0917696929687,-207.90749665833627,-4.128854458989482,-67.16249850581833,-105.77118848694762,42.218685238013094,80.62074372696934,177.07196776235583,-177.65261733467295,65.01,NONE,0.0,0.0,0.0,NONE,-6.6725734600027685E-9,5.996856853703022E-11,-1.487732E-4,2,59.73,65.47,47.48,41.68,14.882,14.882,5.284,8.500341,545,1288,3.711,12.0,8.322,36,36.0,OK,338,0,0,0,0,0,65,100,0.0,0,1.6262304E-9,-2.2528959E-14,2.8383183E-11,16.541622,3.4745674E-12,64,117.11133,-0.0030565418,1.8240412E-19,False,False,0,None,-5.0686624E-30,1.4168965E-15,
1358693692,26.356,13.99228595092839,66.38569562574251,19,49.02167,47.714516,0.023658771,-0.08108321,-0.98468643,0.98830235,1.766691,0.42196974,0.13846543,1.8216553,-105,328,1479,1518.0,-0.017827552,0.020718329,0.15951994,0.16184463,0.027332595269960163,0.040911837237272056,4.524468237504035,1.697033892719707,-102.41084491110196,257.58915508889805,-204.60040651295066,-1.582188153164651,-69.32669688440055,-106.0552970022958,42.20917419448471,76.45816490597578,171.25407851278692,176.52949341575814,65.02,21.610603295166015,,13.9922853,66.3856956,20190521,160145,2019-05-21T16:01:45Z,87.442,0.58,1.32,7.47,11,8,19,-0.02,0.02,-0.03,0,0,0,0,5,5,13.993203109451178,66.38579110317424,50,2276297,20,42,225,1475,3589,3844,3845,-609,15384,36,2,14776,0,false,false,false,false,false,false,false,false,false,false,5615,6031,4893,4402,58,76,76,59,1600,1651,1521,1469,1589,1639,1511,1459,0.0,0.0,0.0,0.0,1473.0,1468.7,1469.9,1474.3,4.16,4.52,3.54,2.33,0,0,0,0,158.90372074450445,13.992285927944028,66.38569529782961,0,49.19344,47.50896,0.024016948,-0.08281968,-0.9879206,0.99167687,-9.893961,-4.541415,-5.7998443,12.335035,-105,337,1488,1529.0,-0.015060028,-0.022420308,0.003993049,0.027302364,0.02700878831982228,0.023503077740712447,4.3695472692690265,1.558162948306745,-103.93951350476716,256.06048649523285,-209.12340697680168,-4.231368098429231,-67.13241508091848,-106.01786806358848,42.21935096585033,80.71677643160169,178.04692685377069,-176.6776582432581,64.97,NONE,0.0,0.0,0.0,NONE,-6.159298461123154E-9,-9.123789330398621E-10,-4.5776367E-5,2,58.04,65.59,49.53,41.57,14.881,14.881,5.282,8.395359,551,1285,3.711,12.0,8.258,36,36.0,OK,339,0,0,0,0,0,65,100,0.0,0,5.3024934E-10,-1.8725578E-14,9.254652E-12,16.541622,3.4745674E-12,64,119.171875,-0.003088013,1.815273E-19,False,False,0,None,-5.0459365E-30,1.4296359E-15,
1362571036,27.364,13.992286770628066,66.38569512865672,19,49.32609,47.77989,0.02708533,-0.07870396,-0.9879883,0.99148816,10.818595,8.074481,8.579491,15.995214,-102,346,1491,1534.0,0.0027827644,0.022482868,0.10925346,0.11157751,0.022654428182721783,0.043082762804947564,4.906460246337317,1.5450567525287449,-102.4988094275684,257.5011905724316,-204.17866272953455,-1.2758402187526607,-69.86963538311245,-105.71368184804993,42.1877863409243,76.54026968560797,71.47171549369044,76.74713039666165,65.04,21.91502376635742,,13.992286,66.3856954,20190521,160146,2019-05-21T16:01:46Z,87.403,0.58,1.32,7.51,11,8,19,-0.01,0.03,-0.02,0,0,0,0,5,5,13.993203109451178,66.38579110317424,50,2276297,20,42,225,1475,3589,3844,3845,-609,15384,36,2,14776,0,false,false,false,false,false,false,false,false,false,false,5635,5992,4941,4379,57,77,75,58,1601,1655,1526,1461,1595,1641,1499,1452,0.0,0.0,0.0,0.0,1474.9,1469.9,1469.9,1474.9,4.24,4.44,3.5,2.0,0,0,0,0,158.27999476686398,13.992286706667226,66.38569485408088,0,49.011654,47.514874,0.027192876,-0.07851807,-0.9870693,0.99056065,17.1927,7.907455,12.047457,22.433413,-99,346,1491,1533.0,-0.005900397,-0.01858055,0.0049806014,0.020121083,0.019494911005490747,0.040358267481169774,4.815475491710513,1.4793972936903077,-103.90706010270853,256.09293989729144,-208.65636569563648,-3.3804516490431267,-66.99242000222827,-105.24648943379066,42.19827596609794,80.81360983062702,153.3896242040677,158.66503910703892,65.03,NONE,0.0,0.0,0.0,NONE,-1.1976413445605765E-9,-3.8122875546928275E-10,1.1444092E-5,2,58.65,63.53,48.89,43.43,14.879,14.879,5.285,8.31858,555,1283,3.711,12.0,8.273,36,36.0,OK,340,0,0,0,0,0,65,100,0.0,0,3.6754492E-11,-1.3959372E-14,6.414903E-13,16.541622,3.4745674E-12,64,119.79297,-0.0030974902,1.8098798E-19,False,False,0,None,-5.0319735E-30,1.4334848E-15,
1366567377,28.403,13.992287300840818,66.38569548421118,19,49.026802,47.871784,0.022399116,-0.082081646,-0.97611064,0.9798118,-10.245594,-2.592211,-11.662483,15.738655,-105,328,1494,1533.0,0.013787577,0.01096314,0.054248825,0.05703703,0.017614984940292813,0.026724694760652232,4.211319293287553,1.7778691880732245,-102.59064649433508,257.4093535056649,-203.5678224089319,-1.050108060219616,-69.24214881537078,-104.93203642807623,42.1549486704221,76.60801135120825,-1.3669140314012318,3.908500871569976,65.0,21.61573406298828,,13.9922863,66.3856955,20190521,160147,2019-05-21T16:01:47Z,87.426,0.58,1.32,7.57,11,8,19,0.03,0.01,-0.03,0,0,0,0,5,5,13.993203109451178,66.38579110317424,50,2276297,20,42,225,1475,3589,3844,3845,-609,15384,36,2,14776,0,false,false,false,false,false,false,false,false,false,false,5587,6010,4968,4379,59,75,75,58,1594,1652,1531,1459,1597,1641,1504,1462,0.0,0.0,0.0,0.0,1473.0,1469.3,1468.1,1473.6,4.1,4.51,3.72,2.13,0,0,0,0,155.78284383316225,13.992287115747125,66.38569513445866,0,49.045296,47.518158,0.021806782,-0.08118407,-0.9763893,0.9800012,-10.782612,-5.513706,-9.99224,15.700654,-102,328,1494,1532.0,0.0060727205,-0.03528096,0.011999755,0.03775736,0.03579977924840612,-0.0010320074955409986,4.146954597628826,1.7364038538640438,-103.95883525387663,256.0411647461234,-207.75322246977183,-2.875490928598993,-66.37082462368993,-104.35748178044271,42.17275089009484,80.88097192903689,-7.918477122601201,-2.643062219629994,65.02,NONE,0.0,0.0,0.0,NONE,-7.100302311527864E-9,2.3559080386701286E-10,2.2888184E-5,2,57.72,65.94,50.37,40.84,14.875,14.875,5.285,8.265856,557,1281,3.711,12.0,8.297,36,36.0,OK,341,0,0,0,0,0,65,100,0.0,0,4.9166404E-12,-1.5288657E-14,8.1823864E-14,16.541622,3.4745674E-12,64,120.140625,-0.0031027354,1.8045859E-19,False,False,0,None,-5.0182994E-30,1.435599E-15,
1370450331,29.412,13.992287859369222,66.38569555686584,19,49.338234,48.010292,0.009361716,-0.080841824,-0.9891048,0.99244714,8.740942,5.661967,8.044576,13.1596775,-79,349,1485,1527.0,0.004719232,0.040717863,-0.006730656,0.041539345,0.040990431461795596,-0.015070945185990496,4.947046335066879,0.7505466596385966,-102.55435008966782,257.4456499103322,-203.89838593514594,-1.877794869244602,-70.98311821760788,-105.08919489822216,42.12883726045708,76.65065045662418,-167.89664568592826,-162.62123078295704,65.0,21.927165947753906,,13.9922869,66.3856954,20190521,160148,2019-05-21T16:01:48Z,87.537,0.58,1.32,7.57,11,8,19,-0.02,0.06,-0.02,0,0,0,0,5,5,13.993203109451178,66.38579110317424,50,2276297,20,42,225,1475,3589,3844,3845,-609,15384,36,2,14776,0,false,false,false,false,false,false,false,false,false,false,5555,5983,4983,4495,58,76,76,57,1593,1647,1535,1464,1587,1637,1518,1455,0.0,0.0,0.0,0.0,1473.0,1468.7,1469.9,1473.0,4.3,4.18,3.75,2.2,0,0,0,0,156.02718932142375,13.992287629962783,66.38569520122059,0,49.56547,47.521984,0.009868373,-0.07895647,-0.9905265,0.9937174,10.920663,10.190433,8.802816,17.337687,-79,346,1482,1523.0,-0.0032945285,0.0061509716,0.0056309835,0.008966401,0.0069777051480943595,0.01688100384345196,4.840991004546663,0.7272429345645878,-103.86312857353101,256.136871426469,-208.42820495196315,-3.396707371238064,-67.51262833865945,-105.24592199573945,42.14871353898051,80.92684537626707,51.82784106350608,57.103255966477285,65.04,NONE,0.0,0.0,0.0,NONE,0.0,-2.2274039621736827E-10,5.340576E-5,2,57.53,63.72,50.99,43.5,14.87,14.87,5.278,8.2341,558,1278,3.71,12.0,8.299,36,36.0,OK,342,0,0,0,0,0,65,100,0.0,0,8.654898E-15,-1.547991E-14,1.510573E-16,16.541622,3.4745674E-12,64,120.4668,-0.0031077422,1.8002845E-19,False,False,0,None,-5.007129E-30,1.4376319E-15,
1374324079,30.419,13.99228890739059,66.38569530476968,19,49.324066,48.10261,-0.004777072,-0.07852153,-0.99592894,0.999031,8.157453,5.0168185,8.016317,12.488949,-65,343,1491,1531.0,0.010225856,0.036057416,-0.011898043,0.039322626,0.037479398887575996,0.01660550874860419,4.756264585719311,0.2222999155914438,-102.51605770911783,257.48394229088217,-203.22620864918827,-0.9373540787410163,-71.20670668481338,-105.16171782166043,42.09075230922621,76.71255279819131,108.76815399117636,114.04356889414757,64.99,21.912998162109375,,13.9922879,66.3856952,20190521,160149,2019-05-21T16:01:49Z,87.545,0.58,1.32,7.54,11,8,19,0.01,0.04,-0.02,0,0,0,0,5,5,13.993203109451178,66.38579110317424,50,2276297,20,42,225,1475,3589,3844,3845,-609,15384,36,2,14776,0,false,false,false,false,false,false,false,false,false,false,5508,6041,4999,4575,57,76,75,58,1588,1655,1534,1485,1578,1636,1522,1477,0.0,0.0,0.0,0.0,1471.8,1467.5,1467.5,1471.8,4.19,4.52,3.66,2.45,0,0,0,0,154.14716861734493,13.992288558647726,66.38569495441224,0,49.107395,47.52596,-0.0033367644,-0.08068123,-0.99433583,0.9976093,9.489993,9.891877,7.735932,15.740198,-65,346,1491,1531.0,0.008503432,0.0019532617,0.011615573,0.014527393,0.008724883570391018,0.04058287345545317,4.666065844086333,0.19975721757738468,-103.77885004298302,256.22114995701696,-207.54677757731395,-1.6275540408227869,-67.5722387609513,-104.95621273133827,42.11565362785936,80.99176797679853,82.88146138000901,88.15687628298022,64.99,NONE,0.0,0.0,0.0,NONE,-8.554581035195303E-10,6.725046573407462E-10,1.02996826E-4,2,57.23,64.34,50.85,45.3,14.871,14.871,5.279,8.219752,558,1276,3.709,12.0,8.341,36,36.0,OK,343,0,0,0,0,0,65,100,0.0,0,3.1215145E-25,-1.3328367E-14,5.448095E-27,16.541622,3.4745674E-12,64,120.9375,-0.0031149543,1.7929723E-19,False,False,0,None,-4.9881586E-30,1.4405592E-15,
