Tick#,offsetTime,IMU_ATTI(0):Longitude,IMU_ATTI(0):Latitude,IMU_ATTI(0):numSats,IMU_ATTI(0):barometer:Raw,IMU_ATTI(0):barometer:Smooth,IMU_ATTI(0):accel:X,IMU_ATTI(0):accel:Y,IMU_ATTI(0):accel:Z,IMU_ATTI(0):accel:Composite,IMU_ATTI(0):gyro:X,IMU_ATTI(0):gyro:Y,IMU_ATTI(0):gyro:Z,IMU_ATTI(0):gyro:Composite,IMU_ATTI(0):mag:X,IMU_ATTI(0):mag:Y,IMU_ATTI(0):mag:Z,IMU_ATTI(0):mag:Mod,IMU_ATTI(0):velN,IMU_ATTI(0):velE,IMU_ATTI(0):velD,IMU_ATTI(0):velComposite,IMU_ATTI(0):velH,IMU_ATTI(0):GPS-H,IMU_ATTI(0):roll,IMU_ATTI(0):pitch,IMU_ATTI(0):yaw,IMU_ATTI(0):yaw360,IMU_ATTI(0):totalGyro:Z,IMU_ATTI(0):totalGyro:X,IMU_ATTI(0):totalGyro:Y,IMU_ATTI(0):magYaw,IMU_ATTI(0):distanceHP,IMU_ATTI(0):distanceTravelled,IMU_ATTI(0):directionOfTravel[mag],IMU_ATTI(0):directionOfTravel[true],IMU_ATTI(0):temperature,General:relativeHeight,General:absoluteHeight,GPS(0):Long,GPS(0):Lat,GPS(0):Date,GPS(0):Time,GPS:dateTimeStamp,GPS(0):heightMSL,GPS(0):hDOP,GPS(0):pDOP,GPS(0):sAcc,GPS(0):numGPS,GPS(0):numGLNAS,GPS(0):numSV,GPS(0):velN,GPS(0):velE,GPS(0):velD,RC:Aileron,RC:Elevator,RC:Rudder,RC:Throttle,Controller:navHealth,Controller:ctrl_level,HP:Longitude,HP:Latitude,HP:rthHeight,BatBlackBox:tick,BatBlackBox:id,BatBlackBox:rsoc,BatBlackBox:index,BatBlackBox:rm,BatBlackBox:fcc,BatBlackBox:cell_min,BatBlackBox:cell_max,BatBlackBox:current,BatBlackBox:voltage,BatBlackBox:temp,BatBlackBox:flag,BatBlackBox:reserve,BatBlackBox:user_data,OA:avoidObst,OA:emergBrake,OA:radiusLimit,OA:airportLimit,OA:groundForceLanding,OA:horizNearBoundary,OA:vertLowLimit,OA:vertAirportLimit,OA:roofLimit,OA:hitGroundLimit,Motor:Speed:RFront,Motor:Speed:LFront,Motor:Speed:LBack,Motor:Speed:RBack,Motor:EscTemp:RFront,Motor:EscTemp:LFront,Motor:EscTemp:LBack,Motor:EscTemp:RBack,Motor:PPMrecv:RFront,Motor:PPMrecv:LFront,Motor:PPMrecv:LBack,Motor:PPMrecv:RBack,Motor:PPMsend:RFront,Motor:PPMsend:LFront,Motor:PPMsend:LBack,Motor:PPMsend:RBack,Motor:V_out:RFront,Motor:V_out:LFront,Motor:V_out:LBack,Motor:V_out:RBack,Motor:Volts:RFront,Motor:Volts:LFront,Motor:Volts:LBack,Motor:Volts:RBack,Motor:Current:RFront,Motor:Current:LFront,Motor:Current:LBack,Motor:Current:RBack,Motor:Status:RFront,Motor:Status:LFront,Motor:Status:LBack,Motor:Status:RBack,Motor:thrustAngle,IMU_ATTI(1):Longitude,IMU_ATTI(1):Latitude,IMU_ATTI(1):numSats,IMU_ATTI(1):barometer:Raw,IMU_ATTI(1):barometer:Smooth,IMU_ATTI(1):accel:X,IMU_ATTI(1):accel:Y,IMU_ATTI(1):accel:Z,IMU_ATTI(1):accel:Composite,IMU_ATTI(1):gyro:X,IMU_ATTI(1):gyro:Y,IMU_ATTI(1):gyro:Z,IMU_ATTI(1):gyro:Composite,IMU_ATTI(1):mag:X,IMU_ATTI(1):mag:Y,IMU_ATTI(1):mag:Z,IMU_ATTI(1):mag:Mod,IMU_ATTI(1):velN,IMU_ATTI(1):velE,IMU_ATTI(1):velD,IMU_ATTI(1):velComposite,IMU_ATTI(1):velH,IMU_ATTI(1):GPS-H,IMU_ATTI(1):roll,IMU_ATTI(1):pitch,IMU_ATTI(1):yaw,IMU_ATTI(1):yaw360,IMU_ATTI(1):totalGyro:Z,IMU_ATTI(1):totalGyro:X,IMU_ATTI(1):totalGyro:Y,IMU_ATTI(1):magYaw,IMU_ATTI(1):distanceHP,IMU_ATTI(1):distanceTravelled,IMU_ATTI(1):directionOfTravel[mag],IMU_ATTI(1):directionOfTravel[true],IMU_ATTI(1):temperature,IMUEX(0):err,IMUEX(0):rtk_Longitude,IMUEX(0):rtk_Latitude,IMUEX(0):rtk_Alti,IMUEX(1):err,IMUEX(1):rtk_Longitude,IMUEX(1):rtk_Latitude,IMUEX(1):rtk_Alti,MotorCtrl:Status,MotorCtrl:PWM:RFront,MotorCtrl:PWM:LFront,MotorCtrl:PWM:LBack,MotorCtrl:PWM:RBack,BattInfo:Voltage,BattInfo:BatVoltage,BattInfo:AdVoltage,BattInfo:AvgCurrent,BattInfo:R_time,BattInfo:R_CAP_MAH,BattInfo:LowCellVoltage,BattInfo:LowCellVolThreshold,BattInfo:BatCurrent,BattInfo:Remaining%,BattInfo:Temp,BattInfo:status,battery_info:BatDynCnt,battery_info:Vol1Protect,battery_info:Vol2Protect,battery_info:Cap1Protect,battery_info:Cap2Protect,battery_info:Batpresent,battery_info:sopPercentage,battery_info:sopValue,battery_info:sopScale,battery_info:sopFlg,BattInfo:WindHeading:WindDir,battery_info:home_dir,BattInfo:Wind:rangeMin,BattInfo:Wind:rangeMax,battery_info:cap_speed,battery_info:against_wind,battery_info:emergency_land_cap,battery_info:intel_bat_land_cap,battery_info:intel_bat_gh_cap,BattInfo:Smart:SmartGh,BattInfo:Smart:SmartLand,BattInfo:GoHome:CntDown,BattInfo:GoHome:GhCmd,BattInfo:GoHome:CapLevel,BattInfo:GoHome:LandCapLv,Attribute|Value,ConvertDatV3,3.6.6-Tablet
85319188,.000,10.46530357666408,63.40469494790564,16,110.945724,110.78409,0.0962834,-0.036181092,-0.9923422,0.99765855,0.038607273,-0.04746255,-0.11302789,0.1285244,272,-187,1447,1484.0,5.2959914E-4,-0.011134284,0.010015041,0.014985119,0.011146871782625363,-0.011146871782625363,2.104406066482259,5.493700836464588,35.649357396768984,35.649357396769005,-0.14409962923326,0.5955233472378499,-0.4508018201050986,30.43392332095768,0.4007388041189238,0.8589148914580408,-79.55854982338461,-76.37238558912382,57.6,,,10.4653042,63.4046952,20190425,163130,2019-04-25T16:31:30Z,158.107,0.75,1.42,8.42,8,8,16,-0.03,0.0,0.01,-9998,-9998,9997,-9993,5,5,10.465308682558137,63.40469773416995,40,103,146,65,4,1468,2278,3990,4019,5,16061,191,26886,16239,0,false,false,false,false,false,false,false,false,false,false,0,0,0,0,55,72,72,55,945,945,944,946,940,940,940,940,0.0,0.0,0.0,0.0,1722.6,1718.9,1718.3,1722.6,0.0,0.0,0.0,0.0,0,0,0,0,-45.0,10.465303551843338,63.404694470676155,0,110.988,110.78018,0.09604098,-0.037679877,-0.99197763,0.9973281,-0.031350147,0.15752721,0.09244648,0.18532136,275,-184,1453,1490.0,0.0012151113,-0.0017192351,5.2411907E-4,0.0021695544,0.002105294536758921,-0.002105294536758921,2.113068403283208,5.520230690884499,31.364016188314608,31.364016188314622,-0.15348566870151245,0.6001462393287942,-0.4709673966452273,29.911133767564245,0.44375501230099007,7103232.10164207,-12.822455429805402,-9.636291195544622,57.53,NONE,0.0,0.0,0.0,NONE,-6.023517571378673E-11,-3.604729430931647E-12,7.6293945E-6,,,,,,17.338,17.338,6.193,1.2554615,0,3670,4.332,12.0,1.269,99,23.8,OK,20,0,0,0,0,0,65,100,0.0,0,0.0,3.517016E-9,8.8E-44,0.0,-5.9807744E7,62,0.0013671815,-0.0013671893,1.9040304E-31,False,False,0,None,4.785025E29,1.0842106E-19,Firmware Date| Oct 17 2018
89173513,1.002,10.465302678535858,63.40469487231449,16,110.881516,110.76384,0.09527379,-0.039299224,-0.9919285,0.99726814,-0.014884713,-0.09567718,0.80137855,0.80720705,281,-193,1447,1486.0,9.6680905E-4,-0.009548457,0.0062150816,0.01143394,0.009597278727520898,0.03581694631475003,2.1236602463168035,5.498596243337913,35.643419678815825,35.6434196788158,-0.003325603910247169,0.4836747510961642,-0.454664455780553,30.552393259231817,0.4365743694262582,0.9198885771866615,-35.51097623196649,-32.32481199770571,57.94,,,10.4653035,63.4046951,20190425,163131,2019-04-25T16:31:31Z,158.096,0.75,1.42,8.22,8,8,16,-0.01,-0.01,0.02,0,0,0,0,5,5,10.465308682558137,63.40469773416995,40,105,114,99,5,2140,2140,3990,4020,0,16065,-12,2278,77,0,false,false,false,false,false,false,false,false,false,false,476,461,461,467,59,75,75,59,1211,1220,1216,1215,1202,1202,1202,1202,0.1,0.1,0.1,0.1,1696.8,1691.4,1691.4,1696.2,7.67,7.02,7.86,7.45,0,0,0,0,-113.19859051364818,10.465302780608155,63.40469438560064,0,110.881516,110.78166,0.096775815,-0.03486119,-0.9894666,0.99479896,0.06844179,-0.14723359,-0.1783833,0.24121071,283,-190,1459,1498.0,-0.0023211804,-0.0023338408,-0.0015413258,0.0036346081,0.003291609217148196,0.036181121365791005,2.127915645893803,5.537829247416013,31.391393766227697,31.39139376622768,-1.066298122251808,0.7465309152874147,0.042183573980280886,30.058504749623697,0.4742986803760951,7103232.157155952,-99.86962308256948,-96.68345884830869,57.91,NONE,0.0,0.0,0.0,NONE,-8.105585479818298E-11,-4.836005446943661E-11,-7.6293945E-6,1,22.5,22.5,22.5,22.5,17.256,17.256,6.097,1.2649703,0,3670,4.332,12.0,2.042,99,23.8,OK,21,0,0,0,0,0,65,100,0.0,0,0.0,0.12443924,8.8E-44,0.0,-5.9807744E7,62,0.0013671815,-0.0013671893,1.9925708E-31,False,False,0,None,5.2164666E29,1.0842106E-19,ACType|MavicEnterprise
93204822,2.049,10.46530239560644,63.404694985893165,16,110.881516,110.76498,0.0960005,-0.040160015,-0.99154276,0.9969884,2.2852173,-2.2591698,-1.1894838,3.4265053,278,-190,1450,1488.0,0.003121758,-0.007574227,0.0032171756,0.008801392,0.008192331267485855,0.009863501532621775,2.129619153327192,5.487538839603696,35.64510433857891,35.6451043385789,-2.6071590054771776,-0.13289120437753782,-0.6003410513833211,30.451028577476873,0.4374199818491358,0.978211440115243,-67.4076066283405,-64.22144239407972,58.2,,,10.4653032,63.4046952,20190425,163132,2019-04-25T16:31:32Z,158.112,0.75,1.42,8.08,8,8,16,-0.02,0.01,0.0,0,0,0,0,5,5,10.465308682558137,63.40469773416995,40,106,114,99,6,2140,2140,3989,4018,3,16013,-12,2249,1,0,false,false,false,false,false,false,false,false,false,false,2169,2088,2182,2234,60,77,77,60,1206,1207,1214,1221,1201,1200,1202,1203,0.0,0.0,0.0,0.0,1717.7,1712.8,1714.0,1717.1,0.64,0.26,0.86,0.42,0,0,0,0,-39.91173980246242,10.465302547685988,63.40469442851879,0,110.881516,110.779884,0.0959135,-0.037754662,-0.9923455,0.99768454,1.1027607,0.7722407,2.0575645,2.4588633,278,-190,1450,1488.0,-0.0036196986,-0.0034209862,0.0026850395,0.0056581623,0.004980498537624328,0.006987067077440929,2.1286971646921273,5.553842214970885,31.411426220834045,31.411426220834073,-3.1940584765676308,0.9046774808314394,-0.4674988135761619,30.350507774371337,0.4778868323037369,7103232.226225949,94.16735614022747,97.35352037448826,58.17,NONE,0.0,0.0,0.0,NONE,-1.6927013798120893E-10,-5.847881338753546E-11,7.6293945E-6,2,10.3,10.0,10.22,10.4,17.154,17.154,6.173,1.3799028,0,3669,4.294,12.0,5.126,99,23.8,OK,22,0,0,0,0,0,65,100,0.0,0,0.0,15272.25,8.8E-44,0.0,-5.9807744E7,62,0.0013671815,-0.0013671893,2.0259135E-31,False,False,0,None,5.308345E29,1.0842106E-19,dateTime|2019-4-25 16:31:18 GMT
97124064,3.068,10.465302539370725,63.4046946994348,17,110.881516,110.76684,0.09804712,-0.037081532,-0.9906712,0.99620163,4.176778,-0.40854776,-2.3117886,4.7913203,278,-190,1450,1488.0,0.0021581277,-0.0032909021,-0.0024575274,0.004639719,0.003935422778539498,0.028115434220668548,2.137725553987057,5.516786139848922,35.628313725729434,35.62831372572941,-2.1639883148142567,0.854392161744108,-0.9913937357865429,30.428800372707208,0.45540146702738127,1.0143099247145662,-169.11427158789462,-165.92810735363383,58.49,,,10.465303,63.404695,20190425,163133,2019-04-25T16:31:33Z,158.103,0.64,1.16,7.95,8,9,17,-0.01,0.0,0.0,0,0,0,0,5,5,10.465308682558137,63.40469773416995,40,131,48,99,7,2140,2140,3989,4017,0,16009,-12,66,0,0,false,false,false,false,false,false,false,false,false,false,2158,2076,2187,2229,59,77,77,60,1207,1206,1214,1213,1201,1200,1207,1209,0.0,0.0,0.0,0.0,1717.1,1712.2,1712.2,1716.5,0.67,0.3,0.91,0.39,0,0,0,0,-34.26733544334422,10.465302468496992,63.40469413792048,0,110.881516,110.77871,0.09499761,-0.037864145,-0.9926929,0.9979466,-2.8155596,1.2936736,1.1200283,3.294758,278,-190,1450,1488.0,-0.005297241,-0.0030160754,-0.0012680853,0.0062261955,0.006095692866651953,0.025862717541105598,2.115674835063097,5.577827788146873,31.385701609775467,31.38570160977548,-3.324508587089928,-0.42849008776192193,-0.655008236035353,30.28125859408353,0.5055670153186111,7103232.28360187,172.99784884645135,176.18401308071213,58.5,NONE,0.0,0.0,0.0,NONE,-1.2036530732903423E-10,-1.281639745447141E-10,0.0,2,10.28,10.0,11.09,11.51,17.159,17.159,6.171,1.6273842,0,3668,4.267,12.0,1.878,99,23.8,OK,23,0,0,0,0,0,65,100,0.0,0,0.0,0.81274414,8.8E-44,0.0,-5.9807744E7,62,0.0013671815,-0.0013671893,2.075446E-31,False,False,0,None,5.444615E29,1.0842106E-19,geoDeclination|319 degrees
100986354,4.072,10.46530231083639,63.40469464916474,17,110.881516,110.769455,0.098195635,-0.034824792,-0.9876496,0.99312985,-0.81987023,2.5771525,-0.45873535,2.7430532,281,-190,1444,1483.0,-0.0015823579,-0.0015942932,-0.008506072,0.008797663,0.0022462474048706035,0.010381476632063655,2.1388684430713094,5.520557047926541,35.61270510630076,35.61270510630078,-1.419572792909842,2.0890572024959524,-0.0361040725613358,30.258808762496567,0.46720637161720385,1.0461887208033163,-121.4692892598709,-118.28312502561012,58.8,,,10.4653028,63.4046949,20190425,163134,2019-04-25T16:31:34Z,158.107,0.64,1.16,7.79,8,9,17,0.0,0.01,-0.01,0,0,0,0,5,5,10.465308682558137,63.40469773416995,40,0,0,0,8,0,0,0,0,0,0,19,1,0,0,false,false,false,false,false,false,false,false,false,false,2169,2093,2183,2222,59,77,76,60,1210,1207,1210,1221,1200,1201,1205,1206,0.0,0.0,0.0,0.0,1715.9,1712.8,1712.2,1715.9,0.7,0.3,0.89,0.41,0,0,0,0,-38.80609503284904,10.465302234290887,63.40469403930524,0,110.881516,110.78369,0.09513374,-0.038800973,-0.99395305,0.999249,1.3354021,-3.8051407,1.3471334,4.2517247,278,-190,1444,1482.0,-0.008135522,-0.0046169306,-0.009087524,0.013041697,0.009354291087194303,0.006590615312208897,2.1293144902904997,5.549357122016265,31.362533890654305,31.362533890654277,-3.509197510831379,-0.36664794183722693,-1.300192968644712,30.370710881381275,0.5213800286154491,7103232.325545912,-59.26196294270471,-56.07579870844393,58.82,NONE,0.0,0.0,0.0,NONE,-1.6286971451680557E-10,-1.9385852127638918E-10,-1.5258789E-5,2,10.28,10.0,10.81,11.17,17.281,17.281,6.172,1.8718116,0,3667,4.318,12.0,1.895,99,23.8,OK,24,0,0,0,0,0,65,100,0.0,0,0.0,0.009636879,8.8E-44,0.0,-5.9807744E7,62,0.0013671815,-0.0013671893,2.213511E-31,False,False,0,None,5.8249915E29,1.0842106E-19,geoInclination|7478 degrees
104842504,5.074,10.465302107340548,63.40469455719062,17,110.881516,110.82462,-0.010409911,-4.2882096E-4,-1.3330761,1.3331169,-0.9890233,18.362497,6.8892074,19.637226,516,-213,1392,1499.0,0.05161483,0.059184156,-0.5037809,0.50986475,0.07852932492578552,-0.06416602125932763,0.32918562641655225,-2.830780628122706,34.822762980105566,34.82276298010555,-1.669315240526222,1.5026830766532764,-7.592025802058978,26.32349550139707,0.48159297079595725,1.0806072788561873,78.96393490378239,82.15009913804317,59.11,,,10.4653025,63.4046948,20190425,163135,2019-04-25T16:31:35Z,158.104,0.64,1.16,7.69,8,9,17,0.02,-0.01,-0.01,0,0,0,10000,5,5,10.465308682558137,63.40469773416995,40,1,114,67,9,2286,3415,3988,4018,0,16052,-12,3850,47,0,false,true,false,false,false,false,true,false,false,false,6105,5959,4396,4543,57,75,74,58,1580,1599,1488,1513,1568,1532,1491,1522,0.0,0.0,0.0,0.0,1661.9,1656.4,1658.2,1661.9,5.92,6.59,3.88,3.78,0,0,0,0,-174.64360699176538,10.465302098920358,63.404694012423015,0,110.881516,110.89033,-0.0016324542,-0.015552971,-1.2816335,1.281729,-20.12885,17.15846,-3.4741223,26.676825,505,-222,1405,1509.0,0.07019635,0.057909332,-0.74536294,0.7508974,0.09100010211514413,-0.08364424702634694,-0.47424905281382645,-0.8990976236898377,30.513425146356226,30.513425146356212,-4.34271739332555,-0.9904193570859025,-8.655098228286295,23.54072279702716,0.5278957776345025,7103232.377225758,8.565362077816774,11.751526312077553,59.18,NONE,0.0,0.0,0.0,NONE,-2.663323000900463E-10,-1.7339511948001797E-10,-3.0517578E-5,2,58.53,57.61,47.53,47.05,17.234,17.234,5.989,2.0333102,0,3667,4.318,12.0,2.055,99,23.8,OK,25,0,0,0,0,0,65,100,0.0,0,0.0,4.5830006E-10,2.69E-43,0.0,-5.9807744E7,62,0.0015288889,-0.001448043,1.1022717E-31,False,False,0,None,1.7688035E29,1.1611384E-19,geoIntensity|5185038 nanoTesla
108739543,6.087,10.465300565067755,63.404695304863814,18,114.40508,113.17895,-0.04762686,-0.06935725,-0.94471073,0.94844985,11.868084,100.63022,4.0493007,101.40852,217,-144,1465,1487.0,-0.049835466,-0.2893878,-3.7994785,3.8108091,0.2936475265610182,-0.18191564743112876,4.233665192789871,14.67535783468437,34.45390238494049,34.45390238494048,-4.1402668759961445,2.670871995204116,13.080020575820551,23.55972059842866,0.12159114133007268,1.2165327010587852,-1.280863881991206,1.905300352269574,59.41,,,10.4653022,63.4046954,20190425,163136,2019-04-25T16:31:36Z,159.348,0.64,1.16,7.58,8,9,17,-0.12,-0.29,-1.37,0,-9998,0,1691,5,5,10.465302057166024,63.40469443911564,40,0,0,0,10,0,0,0,0,0,0,19,1,0,0,false,false,false,false,false,false,true,false,false,false,6444,6955,5495,5284,59,75,75,58,1532,1583,1559,1514,1531,1586,1524,1484,0.0,0.0,0.0,0.0,1669.9,1661.9,1663.7,1668.7,2.69,3.86,4.8,4.34,0,0,0,0,164.59325659699672,10.46530061012789,63.40469485482525,0,113.744545,113.26951,-0.059431084,-0.06328891,-1.0105232,1.0142459,3.098398,110.84192,0.51660603,110.88641,329,-149,1447,1491.0,-0.0470753,-0.2738546,-3.9039257,3.9138024,0.2778712615354952,-0.15993929951011054,4.118320306285488,12.343450946672325,30.31706364560628,30.317063645606254,-5.536394231887388,3.1758346389812164,6.288979182196006,21.917732636854026,0.08558999598361311,7103232.562256264,-66.0361589537614,-62.84999471950062,59.42,NONE,0.0,0.0,0.0,NONE,-1.2729976809653098E-8,-2.947531857032643E-10,-0.009765625,2,51.34,58.67,49.72,44.37,16.863,16.863,5.932,2.2698746,0,3666,4.317,12.0,8.75,99,23.9,OK,26,0,0,0,0,0,65,100,0.0,0,0.0,1.3140234E-17,9.0E-44,0.0,-5.9807744E7,62,0.017852783,-0.004966052,2.479831E-31,False,False,0,None,6.778689E29,3.477418E-19,
112588275,7.087,10.465275228633134,63.40468695023041,18,115.769356,115.63831,0.004276829,-0.029980674,-0.6842602,0.68493,-0.8789704,0.15523708,-3.2429419,3.3635337,921,-100,1216,1528.0,-0.9667372,-1.413157,-0.4613632,1.7732595,1.7121896560023184,-0.1461490381337085,4.522068597414845,-21.1704112823587,37.82447365616014,37.82447365616014,-4.699532663821336,2.6742499046420667,-20.12907123104229,24.765411486198566,1.5738762946639933,2.81418799098275,-130.4247983170166,-127.23863408275584,59.69,,,10.4652799,63.4046893,20190425,163137,2019-04-25T16:31:37Z,162.856,0.59,1.03,7.44,8,10,18,-1.07,-1.62,-2.38,0,0,0,0,5,5,10.465302057166024,63.40469443911564,40,1,114,26,11,957,3728,3784,3784,0,15164,25,3850,32,0,false,false,false,false,false,false,true,false,false,false,4625,4974,3747,3541,60,75,75,60,1409,1444,1350,1323,1410,1448,1317,1295,0.0,0.0,0.0,0.0,1698.1,1692.6,1692.6,1696.8,2.3,3.13,2.03,1.38,0,0,0,0,166.49582776966014,10.465276905328187,63.4046864678877,0,115.77535,115.82591,0.0020000965,-0.042840146,-0.6597675,0.66115993,-1.8319266,-7.6521297,-10.315559,12.973889,896,-100,1231,1525.0,-1.0994568,-1.2692152,-0.6405626,1.7972293,1.679199999659058,-0.1755435376197343,4.349935959090692,-21.642410829535535,36.26419683984759,36.264196839847614,-3.50405921457864,4.040570688643949,-11.790520155331006,26.75798076717772,1.5340501454337576,7103234.084926042,-116.68778682731073,-113.50162259304994,59.67,NONE,0.0,0.0,0.0,NONE,-6.759616587626377E-8,-3.678389880109724E-8,-0.0039367676,2,36.61,37.99,24.68,27.39,16.86,16.86,6.089,2.8307436,0,3663,4.177,12.0,9.897,99,23.9,OK,27,0,0,0,0,0,65,100,0.0,0,0.0,4.311959E36,8.8E-44,0.0,-5.9807744E7,62,0.2482605,-0.01864112,3.302032E-30,False,False,0,None,6.343576E31,1.0847118E-18,
116446333,8.090,10.465253509529225,63.40468051980552,18,115.97767,115.681465,0.033025663,-0.06299097,-1.0317448,1.0341934,4.219008,-67.378784,8.055546,67.98965,-26,-97,1484,1487.0,-1.5821487,-1.6992154,0.093179174,2.3236198,2.321750901449716,-1.0289934505313567,5.137112547204948,12.365581268768425,39.353469203321616,39.353469203321595,-6.140891318636715,3.945974419263744,14.14714101886744,38.42671989452105,2.86985907301892,4.1300765315300545,-136.19443794402983,-133.00827370976904,60.0,,,10.4652596,63.4046827,20190425,163138,2019-04-25T16:31:38Z,163.015,0.59,1.03,7.34,8,10,18,-0.76,-0.83,-0.53,0,-4301,0,0,5,5,10.465302057166024,63.40469443911564,40,1,114,26,11,957,3728,3784,3784,0,15164,25,3850,32,0,false,false,false,false,false,false,true,false,false,false,5815,6089,5298,4691,58,75,75,58,1555,1617,1449,1397,1542,1584,1447,1398,0.0,0.0,0.0,0.0,1671.7,1666.2,1665.6,1672.3,5.04,5.17,3.08,0.82,0,0,0,0,155.29510040330118,10.465254791951118,63.404680587338504,0,116.40014,115.966995,0.03658185,-0.072104864,-1.0349185,1.0380721,-6.698859,-72.86606,-5.025594,73.34571,-115,-100,1475,1482.0,-1.4093015,-1.331288,-0.021468097,1.9387933,1.938674386257472,-0.6617378112077377,5.101486480640318,13.705191658255197,38.03598290435538,38.035982904355365,-8.509894203039707,2.965345363216711,25.676910480993666,44.57020287823275,2.8121901271449916,7103235.456903448,-142.77005139337314,-139.58388715911235,59.97,NONE,0.0,0.0,0.0,NONE,-3.075846803978855E-8,-4.015173846128814E-9,4.5776367E-5,2,51.46,57.03,36.29,28.97,16.909,16.909,5.995,3.6615136,0,3661,4.177,12.0,6.234,98,23.9,OK,28,0,0,0,0,0,65,100,0.0,0,0.0,-2.6183878E-38,8.8E-44,0.0,3.3654391E38,63,0.29946136,-0.020295745,2.1839376E-29,False,False,0,None,1.5108018E33,1.1634329E-18,
120296037,9.090,10.465219468726026,63.40466454562484,18,115.81949,115.53178,0.025173688,-0.07165594,-1.0039557,1.0068244,-3.2891266,-25.709013,-4.041513,26.231766,470,-121,1420,1500.0,-1.6944239,-1.7160044,-0.008249074,2.4115994,2.411585255874255,0.042052250854154316,3.4480713992455803,-1.572128184672975,44.43592041156402,44.43592041156404,-7.724983316444122,2.1198615329858743,-0.16835921415803745,25.55891022388756,5.286935563283806,6.585757501866434,-138.55897620945623,-135.37281197519545,60.36,,,10.4652258,63.4046673,20190425,163139,2019-04-25T16:31:39Z,162.818,0.59,1.03,7.25,8,10,18,-1.77,-1.72,0.01,0,-1429,0,0,5,5,10.465302057166024,63.40469443911564,40,26,16,26,13,957,3728,3756,3762,-1215,14990,25,0,15074,0,false,false,false,false,false,false,true,false,false,false,5926,6173,4558,3820,58,75,75,58,1562,1594,1437,1350,1547,1588,1419,1345,0.0,0.0,0.0,0.0,1671.7,1667.4,1668.0,1672.3,4.62,4.9,3.28,1.29,0,0,0,0,165.17309680462782,10.46522030464309,63.404664534789895,0,116.29211,115.72081,0.025170391,-0.06664267,-0.9882881,0.99085224,12.212963,-18.70197,9.7275915,24.362803,456,-123,1423,1499.0,-1.8445121,-1.641422,-0.0020401836,2.4691083,2.469107396777732,0.00618724135892279,3.5024899985037856,-1.5609763378976194,39.97970105621928,39.979701056219255,-11.133046884392813,-1.1618184464983008,10.762019056845139,26.67827694587804,5.255403877446954,7103237.93617192,-139.8326322575785,-136.6464680233177,60.36,NONE,0.0,0.0,0.0,NONE,-3.075846803978855E-8,-4.015173846128814E-9,4.5776367E-5,2,49.37,56.12,38.38,30.22,16.914,16.914,6.015,4.4991727,0,3657,4.205,12.0,7.46,98,24.0,OK,29,0,0,0,0,0,65,100,0.0,0,0.0,3.3547133E22,8.8E-44,0.0,3.3654391E38,63,0.2284584,-0.017403727,1.1871435E-27,False,False,0,None,1.330445E36,1.0258695E-18,
124387872,10.154,10.465191286362293,63.40465165887465,18,115.9716,115.55292,0.009763932,-0.07068018,-1.0006616,1.0032022,-0.67128164,-103.392265,2.771528,103.43159,482,-123,1420,1504.0,-1.5243453,-1.4922023,-0.056701787,2.1338959,2.1331422432113967,-0.24741421452962453,3.204583050962707,-6.9229117249599295,44.63581883004399,44.635818830044,-8.796046766858108,1.4539310915876018,-3.406042808423602,33.246858041485915,7.2825225914038825,8.591453262892074,-138.19137879239022,-135.00521455812944,60.63,,,10.4651938,63.4046528,20190425,163140,2019-04-25T16:31:40Z,162.794,0.59,1.03,7.17,8,10,18,-1.47,-1.51,-0.02,0,0,0,0,5,5,10.465302057166024,63.40469443911564,40,26,20,26,14,957,3728,3756,3762,-1215,14990,25,2,15074,0,false,false,false,false,false,false,true,false,false,false,5950,6353,4577,4232,59,77,76,59,1558,1614,1438,1392,1547,1594,1444,1394,0.0,0.0,0.0,0.0,1668.0,1663.1,1664.4,1667.4,5.07,5.19,3.25,1.52,0,0,0,0,167.91644225425907,10.465186499628173,63.40464919463814,0,116.099594,115.76909,0.0038867884,-0.07329187,-1.0798031,1.0822946,8.035489,-6.0460973,4.339594,10.952463,812,-109,1283,1522.0,-1.09911,-1.0756012,-0.053299863,1.5387661,1.5378428627370195,0.7153339686501812,3.58824714507381,-17.05462693737007,40.69784522045725,40.697845220457225,-6.6594874955033,2.842926680035075,-6.819214145622068,25.14928617846659,7.642108713158327,7103240.333977637,-135.35447501840426,-132.16831078414347,60.68,NONE,0.0,0.0,0.0,NONE,-7.846166021679525E-8,-3.8837799594498206E-8,-8.392334E-5,2,52.76,58.86,41.05,34.6,16.877,16.877,5.996,5.244797,0,3655,4.224,12.0,7.219,98,24.0,OK,30,0,0,0,0,0,65,100,0.0,0,0.0,1.05495942E17,8.8E-44,0.0,3.3654391E38,63,0.23636627,-0.01789773,3.5252823E-26,False,False,0,None,NaN,1.0493482E-18,
128249150,11.157,10.465176047238046,63.40464616947787,18,116.234695,115.62497,-0.036328897,-0.06509162,-0.98766094,0.99047,-10.810181,16.236872,-8.258042,21.182335,568,-77,1392,1505.0,-0.12486701,-0.24222761,-0.101778276,0.29090342,0.2725178648840925,0.6977470836529143,4.4808558466418145,-3.519702600093738,43.45206203962547,43.452062039625446,-10.7253729821775,-1.3342338510725948,-1.3238319395060647,21.047063138442507,8.255707672209597,9.58284223592315,-112.33788770337831,-109.15172346911753,60.9,,,10.4651777,63.4046471,20190425,163141,2019-04-25T16:31:41Z,162.778,0.59,1.03,7.1,8,10,18,-0.11,-0.32,-0.04,0,0,0,0,5,5,10.465302057166024,63.40469443911564,40,54,17,26,15,946,3728,3775,3775,0,15101,25,0,15103,0,false,false,false,false,false,false,true,false,false,false,5451,5950,5081,4751,59,77,76,59,1498,1565,1484,1454,1484,1547,1485,1448,0.0,0.0,0.0,0.0,1671.1,1666.8,1666.2,1671.1,3.62,4.34,3.88,2.67,0,0,0,0,152.14972848468292,10.46517565678395,63.404646068192704,0,116.309235,115.79589,-0.03747056,-0.061099272,-0.97896534,0.9815856,-0.84681946,7.177144,5.8237777,9.281426,559,-83,1399,1508.0,0.021501651,-0.104353234,-0.055818606,0.12028148,0.10654537939461632,0.5332249097112375,4.3088054794755735,-3.7129399534988528,40.315528349622426,40.31552834962241,-9.367052361562923,5.194595112443276,6.039400893556765,21.877251732913262,8.277799331210309,7103240.983981441,-101.42990582988631,-98.24374159562552,60.91,NONE,0.0,0.0,0.0,NONE,-4.056792373964005E-8,-5.529899522572538E-9,-5.264282E-4,2,46.51,53.08,44.42,40.22,16.852,16.852,6.007,5.8950553,0,3653,4.218,12.0,7.648,98,24.0,OK,31,0,0,0,0,0,65,100,0.0,0,0.0,2.28782861E18,8.8E-44,0.0,3.3654391E38,63,0.24039459,-0.0181495,1.164367E-25,False,False,0,None,-1.4164908E-38,1.0613125E-18,
132163915,12.175,10.465173942088603,63.40464669349161,18,116.0759,115.637566,-0.038777288,-0.04976487,-0.99938554,1.001375,6.942449,2.3955908,6.3459797,9.706077,525,-112,1405,1504.0,0.022975039,-0.06089861,-0.027509088,0.07066288,0.06508834606907032,0.052762426328338136,3.453778350475805,-2.549897680721996,43.27041657387634,43.27041657387633,-11.329550252963534,-4.3792371501107565,1.1522691647153682,23.017542540278658,8.298212238244284,9.74226975503502,9.957115487170922,13.143279721431702,61.26,,,10.4651752,63.4046471,20190425,163142,2019-04-25T16:31:42Z,162.758,0.59,1.03,7.02,8,10,18,0.05,-0.07,-0.01,0,0,0,0,5,5,10.465302057166024,63.40469443911564,40,54,17,26,15,946,3728,3775,3775,0,15101,25,0,15103,0,false,false,false,false,false,false,true,false,false,false,5343,5717,5212,4883,59,75,76,59,1502,1543,1489,1464,1491,1531,1484,1455,0.0,0.0,0.0,0.0,1669.9,1665.6,1666.8,1669.9,3.81,4.11,4.16,2.76,0,0,0,0,143.92675895219827,10.465174432356202,63.40464632593742,0,115.91206,115.83753,-0.040784415,-0.048418127,-0.9923586,0.9943759,-4.0115867,-2.1027303,-1.1914983,4.6833715,525,-112,1411,1509.0,0.013458648,-0.035498794,-0.014563467,0.040661953,0.03796445288007028,0.028236034414025647,3.5960618781326987,-2.8233119347150906,40.04829416789628,40.0482941678963,-13.976840808959919,0.2858697137386857,5.27330304569888,23.741928103577006,8.305736383164884,7103241.076780631,-89.01798000111422,-85.83181576685344,61.23,NONE,0.0,0.0,0.0,NONE,-5.865126650544899E-9,1.3706954487478045E-9,-1.6021729E-4,2,47.22,51.5,44.4,40.61,16.832,16.832,6.0,6.434583,0,3651,4.206,12.0,7.164,98,24.1,OK,32,0,0,0,0,0,65,100,0.0,0,0.0,5.0651985E19,8.8E-44,0.0,3.3654391E38,63,0.25125122,-0.018789416,1.2722516E-25,False,False,0,None,-1.5215994E-38,1.0917528E-18,
136012000,13.175,10.46517522129246,63.40464739546822,18,116.299736,115.63684,-0.040571757,-0.063623816,-0.9975813,1.0004312,-4.1358895,-4.708939,-6.0528297,8.713004,525,-106,1414,1512.0,0.06318821,0.013965158,-0.0343469,0.07326312,0.06471302272440167,0.03601338203634241,3.7278794954359644,-2.5599922994768805,43.34788807467494,43.34788807467493,-12.285653313361479,-4.897384918616119,-1.1357170896749453,23.179047021535183,8.199354571476931,9.846089936330564,24.82650630238469,28.01267053664547,61.49,,,10.465176,63.4046477,20190425,163143,2019-04-25T16:31:43Z,162.743,0.59,1.03,6.96,8,10,18,0.08,0.04,0.01,0,0,0,0,5,5,10.465302057166024,63.40469443911564,40,93,16,26,17,946,3728,3781,3781,0,15124,25,2,0,0,false,false,false,false,false,false,true,false,false,false,5331,5828,5128,4813,60,76,77,60,1508,1565,1486,1452,1492,1542,1474,1442,0.0,0.0,0.0,0.0,1669.3,1665.6,1665.6,1669.3,3.85,4.19,4.02,2.49,0,0,0,0,146.3099324740202,10.465175729834586,63.40464706412912,0,116.3736,115.83321,-0.043923672,-0.06798941,-1.0050085,1.0082628,2.6543436,-1.3599193,-5.522,6.2759385,519,-106,1408,1504.0,0.043026816,-0.0016953573,-0.011225539,0.04449937,0.04306020405499177,0.061377408742450644,3.818577818206856,-2.6702361555092726,40.145784492216286,40.14578449221631,-15.540893602971412,-1.326039748130652,3.9141931660669123,23.757429109586802,8.203486356441681,7103241.195270294,37.35217109020672,40.538335324467496,61.48,NONE,0.0,0.0,0.0,NONE,4.592595161195962E-10,8.352675396751649E-10,-3.0517578E-5,2,46.49,53.37,43.73,39.82,16.854,16.854,5.996,6.434583,0,3651,4.203,12.0,7.164,98,24.1,OK,32,0,0,0,0,0,65,100,0.0,0,0.0,8.341567E19,8.8E-44,0.0,3.3654391E38,63,0.24988174,-0.018742686,1.142342E-25,False,False,0,None,-1.3950027E-38,1.0895558E-18,
139861449,14.175,10.465176539236587,63.40464817597165,18,116.57629,115.67464,-0.031893674,-0.075160906,-1.0018638,1.0051854,0.6847442,12.51744,4.3284945,13.262392,519,-86,1435,1528.0,0.070228204,0.048380665,-0.060469393,0.10454299,0.08528006568518284,0.02346643609956095,4.679046884959556,-1.9130995200997458,43.18510167600308,43.18510167600306,-6.9371733145926875,1.567865311132394,0.37746427280494355,23.283769087578836,8.093502552656028,9.959919401830549,31.18713961572488,34.37330384998566,61.76,,,10.465177,63.4046484,20190425,163144,2019-04-25T16:31:44Z,162.7,0.59,1.03,6.89,8,10,18,0.07,0.04,0.03,0,0,0,0,5,5,10.465302057166024,63.40469443911564,40,96,48,26,18,946,3728,3781,3782,0,15155,25,212,15141,0,false,false,false,false,false,false,true,false,false,false,5461,5865,5198,4720,59,76,77,59,1517,1558,1493,1443,1503,1547,1485,1428,0.0,0.0,0.0,0.0,1667.4,1663.7,1664.4,1666.2,3.92,4.32,4.29,2.32,0,0,0,0,147.9361293506897,10.465176675770655,63.40464772489845,0,116.83317,115.82467,-0.033327393,-0.07441943,-1.0108707,1.0141541,-8.961195,4.374661,-7.491127,12.472276,519,-89,1438,1531.0,0.052679524,0.028644685,-0.01749997,0.062465183,0.05996374067780828,0.02726541951888778,4.5373125631639315,-2.3781737267302256,39.88626575772267,39.88626575772264,-13.826694552481124,0.17900467877498494,5.9009168086601385,23.787041362932715,8.120249267018773,7103241.287358184,1.0597222084529432,4.245886442713723,61.7,NONE,0.0,0.0,0.0,NONE,3.91327393367559E-9,3.512407095033373E-9,-1.1444092E-4,2,47.81,54.13,45.84,39.11,16.842,16.842,5.987,7.143162,0,3647,4.208,12.0,7.287,98,24.1,OK,34,0,0,0,0,0,65,100,0.0,0,0.0,4.7721943E20,8.8E-44,0.0,3.3654391E38,63,0.24803925,-0.018627292,9.445073E-26,False,False,0,None,-1.1151197E-38,1.0840501E-18,
143748869,15.186,10.465177502442707,63.40464851047034,18,116.5261,115.69974,-0.039757628,-0.06747448,-1.008029,1.0110667,3.1266658,2.4472742,4.971214,6.3622446,508,-106,1432,1523.0,-0.021321075,-0.0036107108,-0.058047798,0.061944913,0.021624649724826382,0.038439143321443874,4.055350790770661,-2.0881365803983836,43.41119110039562,43.41119110039563,-3.473055996782078,5.082341066969042,3.9455842731843176,24.421408849140647,8.032844480567597,10.026395931240774,102.38920061612035,105.57536485038113,62.11,,,10.4651784,63.404649,20190425,163145,2019-04-25T16:31:45Z,162.701,0.59,1.03,6.82,8,10,18,-0.01,0.02,0.04,0,0,0,0,5,5,10.465302057166024,63.40469443911564,40,97,17,26,19,946,3728,3781,3782,0,15157,25,2,15157,0,false,false,false,false,false,false,true,false,false,false,5391,5817,5235,4868,58,77,75,59,1512,1565,1487,1457,1490,1542,1486,1455,0.0,0.0,0.0,0.0,1668.0,1663.1,1663.1,1666.2,4.07,4.48,3.85,2.42,0,0,0,0,144.33499846313822,10.465177971746874,63.40464812994911,0,116.55244,115.80815,-0.034949787,-0.06838001,-0.999533,1.0024787,14.078705,0.8900872,10.303319,17.468845,508,-106,1432,1523.0,-0.027282286,0.009750395,-0.017149454,0.03366745,0.028972285948638748,0.048904533617934495,4.048351433354369,-2.065840994370538,40.07738663170543,40.07738663170545,-10.536414489052698,0.8962371052887156,8.27052325360777,24.376922157602344,8.041852764597234,7103241.372222771,83.43246529160525,86.61862952586604,62.11,NONE,0.0,0.0,0.0,NONE,3.320063753000769E-9,-1.1308237492883951E-9,-1.1444092E-4,2,47.87,52.7,44.71,40.91,16.823,16.823,5.982,7.3420305,0,3645,4.204,12.0,7.337,98,24.1,OK,35,0,0,0,0,0,65,100,0.0,0,0.0,4.0145087E20,8.8E-44,0.0,3.3654391E38,63,0.24525452,-0.018453723,8.578746E-26,False,False,0,None,-9.463002E-39,1.0757915E-18,
147812160,16.242,10.46517817776146,63.40464874294049,18,116.33632,115.696014,-0.040996596,-0.06399514,-0.9998414,1.0027257,-9.808061,-10.40081,-4.545081,15.001089,505,-112,1429,1519.0,-0.01905857,0.0024161595,-0.054930426,0.058192942,0.019211114634152537,0.020945754992930006,3.7335784787770834,-1.9201727996879152,43.459287608340844,43.459287608340844,-5.593094568325014,3.000782437534869,2.7494277835076413,24.132135516924198,7.990461497318271,10.079474348872273,103.87417728700015,107.06034152126094,62.45,,,10.4651786,63.404649,20190425,163146,2019-04-25T16:31:46Z,162.662,0.59,1.03,6.77,8,10,18,-0.02,0.0,0.05,0,0,0,0,5,5,10.465302057166024,63.40469443911564,40,97,17,26,19,946,3728,3781,3782,0,15157,25,2,15157,0,false,false,false,false,false,false,true,false,false,false,5373,5835,5110,4869,60,78,77,60,1489,1559,1487,1461,1487,1547,1482,1454,0.0,0.0,0.0,0.0,1665.6,1661.9,1661.9,1666.2,3.55,4.28,3.88,2.63,0,0,0,0,150.23002199878758,10.465178203891861,63.40464838120876,0,116.24679,115.7835,-0.0388605,-0.06376308,-1.0129559,1.0157045,1.39187,0.38017923,-2.756167,3.1109958,505,-115,1432,1522.0,-0.0307464,0.008160791,-0.022958934,0.039230756,0.03181099814378703,-0.0031806992402300185,3.7093048044746686,-1.9948423360028797,40.07089400804156,40.07089400804159,-9.130256930245354,2.704046466199727,9.204992093639943,24.494812646295447,8.015098866448696,7103241.431027722,-17.662644585207165,-14.476480350946384,62.42,NONE,0.0,0.0,0.0,NONE,1.7222232877878585E-9,-1.871855986378265E-9,-1.8310547E-4,2,46.14,53.63,45.64,40.26,16.82,16.82,5.989,7.3420305,0,3645,4.198,12.0,7.337,98,24.1,OK,35,0,0,0,0,0,65,100,0.0,0,0.0,3.779601E20,8.8E-44,0.0,3.3654391E38,63,0.24136734,-0.018210536,8.3400366E-26,False,False,0,None,-8.998085E-39,1.0642507E-18,
151674305,17.245,10.465178044787331,63.40464861775874,18,115.94057,115.68874,-0.03777573,-0.06254379,-1.0041214,1.0067763,3.200759,0.044284385,1.9305333,3.7381516,508,-121,1429,1521.0,-0.03938955,0.010597914,-0.074543834,0.084974326,0.04079034791509057,-0.02543460760962673,3.4852517199397015,-1.9444602037361403,43.39713137765689,43.397131377656876,-6.58398273327838,1.5190346725665869,3.3983047977682133,24.31534972595234,8.004424431702192,10.110776461594181,130.63224066072712,133.8184048949879,62.72,,,10.4651786,63.404649,20190425,163147,2019-04-25T16:31:47Z,162.624,0.59,1.03,6.74,8,10,18,-0.03,0.02,0.04,0,0,0,0,5,5,10.465302057166024,63.40469443911564,40,0,48,0,21,0,0,0,0,0,0,19,212,0,0,false,false,false,false,false,false,true,false,false,false,5335,5783,5184,4866,60,76,75,60,1499,1546,1491,1459,1492,1539,1482,1446,0.0,0.0,0.0,0.0,1667.4,1662.5,1662.5,1665.6,3.52,4.04,4.24,2.74,0,0,0,0,144.35083224178115,10.465178104644451,63.40464818708104,0,116.03107,115.77104,-0.039339766,-0.06312355,-1.0012566,1.0040153,-15.369189,-1.7015469,-13.14053,20.292381,505,-123,1432,1523.0,-0.03277432,0.013185459,-0.038082965,0.0519454,0.03532722080331389,-0.013265844639719759,3.362639884262988,-1.9431209266578033,40.0731953589015,40.0731953589015,-8.370231473118297,3.666347533171273,10.577422577246667,24.370136955290167,8.032703402284628,7103241.483092182,-135.05917782795686,-131.87301359369607,62.77,NONE,0.0,0.0,0.0,NONE,2.2771619064793113E-9,-1.867572567475981E-9,-2.746582E-4,2,46.53,52.3,45.04,40.88,16.81,16.81,5.983,7.5333705,0,3641,4.197,12.0,7.269,98,24.3,OK,37,0,0,0,0,0,65,100,0.0,0,0.0,3.7268188E20,8.8E-44,0.0,3.3654391E38,63,0.2379837,-0.017999297,8.4252335E-26,False,False,0,None,-9.16382E-39,1.0541922E-18,
155587681,18.262,10.46517774400249,63.40464836268253,18,116.396355,115.695755,-0.049324073,-0.059804164,-1.0078474,1.0108244,8.42568,-2.1496005,4.2455735,9.676661,508,-118,1420,1512.0,-0.0541895,-0.007918802,-0.08186482,0.09849395,0.054765035381898,-0.023230455815363323,3.6406472170231465,-2.202595424031228,43.55923243673953,43.559232436739535,-8.464893909815002,-2.179709066524963,1.8498275070175878,24.63395705763122,8.034036152733506,10.15344002866192,-174.940256833162,-171.75409259890122,63.07,,,10.4651785,63.4046488,20190425,163148,2019-04-25T16:31:48Z,162.527,0.59,1.03,6.69,8,10,18,-0.04,0.0,0.03,0,0,0,0,5,5,10.465302057166024,63.40469443911564,40,0,48,0,22,0,0,0,0,0,0,19,212,0,0,false,false,false,false,false,false,true,false,false,false,5266,5783,5081,4961,60,78,77,60,1483,1559,1480,1471,1471,1535,1484,1472,0.0,0.0,0.0,0.0,1666.2,1661.9,1661.9,1664.4,3.54,4.3,3.62,2.76,0,0,0,0,147.68370065954014,10.465177845824261,63.4046479301116,0,116.12935,115.759,-0.04377299,-0.05423658,-0.99343294,0.9958748,-6.474444,-7.5511475,-6.0630436,11.64898,508,-121,1426,1518.0,-0.03389115,-0.009111106,-0.042585544,0.055182885,0.03509447677499634,-0.004276314108620623,3.557687356682368,-2.2072450483981503,40.21569484298091,40.215694842980895,-12.380459605731176,1.4248654514736514,8.07724834871518,24.78904548105918,8.060906690879346,7103241.535068749,-54.681825730074166,-51.49566149581339,63.11,NONE,0.0,0.0,0.0,NONE,3.253088411165094E-10,-1.7090859083399644E-9,-2.975464E-4,2,43.57,51.86,45.88,43.62,16.808,16.808,5.983,7.554673,0,3639,4.195,12.0,7.256,98,24.3,OK,38,0,0,0,0,0,65,100,0.0,0,-4.7591023E25,2.0343771E20,-8.306245E23,-1.2587411E24,-3.365452E38,63,0.23572159,-0.017857676,8.742829E-26,False,False,0,None,-9.782633E-39,1.0474424E-18,
159436205,19.263,10.465177230667619,63.40464825662523,18,116.43467,115.70261,-0.042449202,-0.06405293,-1.0080234,1.010948,13.476899,0.3152495,14.954542,20.133667,510,-118,1438,1530.0,-0.031116784,-0.0072482587,-0.09385079,0.099140115,0.031949827460094,-0.0038118443598964546,3.840110669460722,-2.267614986983314,43.438894415550436,43.43889441555041,-4.320587026036017,2.297415519206184,4.062551013383394,25.283601702258117,8.061243501380691,10.208097767088715,-62.797329346592356,-59.61116511233158,63.43,,,10.4651776,63.4046485,20190425,163149,2019-04-25T16:31:49Z,162.385,0.59,1.03,6.64,8,10,18,0.0,-0.01,0.03,0,0,0,0,5,5,10.465302057166024,63.40469443911564,40,0,48,0,23,0,0,0,0,0,0,19,212,0,0,false,false,false,false,false,false,true,false,false,false,5308,5791,5168,4910,61,77,77,60,1497,1550,1488,1468,1491,1542,1482,1453,0.0,0.0,0.0,0.0,1665.0,1661.9,1661.3,1663.7,3.56,4.29,3.96,2.9,0,0,0,0,144.02939145743008,10.465177065393046,63.404647622246905,0,115.97225,115.74748,-0.03977584,-0.06503852,-1.0059327,1.0088174,-4.7148843,-2.4548094,-1.5479265,5.536452,510,-118,1438,1530.0,-0.009700836,-0.0032443474,-0.047918543,0.04899815,0.010228978593105655,0.041540612637746915,3.6823316882233508,-2.3332762135513674,40.121033661096966,40.12103366109699,-12.066750238085879,0.037901982036724846,6.786262740664201,24.957335958700146,8.112670284098826,7103241.612634153,-151.20035810631566,-148.01419387205488,63.38,NONE,0.0,0.0,0.0,NONE,-5.740744208318376E-10,-6.724974639599572E-10,-3.6621094E-4,2,46.47,53.47,46.01,41.16,16.805,16.805,5.987,7.5448246,0,3637,4.194,12.0,7.267,98,24.3,OK,39,0,0,0,0,0,65,100,0.0,0,-3.24686E24,1.8834164E20,-5.666868E22,-1.2587411E24,-3.365452E38,63,0.23356247,-0.017722731,9.331635E-26,False,False,0,None,-1.0930218E-38,1.0410102E-18,
163285396,20.263,10.465176217899982,63.40464778088834,18,116.22195,115.72388,-0.04341268,-0.07663842,-1.0069304,1.0107754,0.14704907,-9.470431,-28.273514,29.817818,519,-121,1444,1539.0,-0.05682772,0.0098330015,-0.092605636,0.109095745,0.05767215717050794,0.015375786954188411,3.9414605394396287,-2.670631017114862,42.46141203523867,42.46141203523865,-5.195320545353267,2.3567912136984934,3.742173822872518,25.96527744920717,8.133809373016248,10.283889821985937,-159.36787877971605,-156.18171454545526,63.68,,,10.4651767,63.4046481,20190425,163150,2019-04-25T16:31:50Z,162.271,0.59,1.03,6.62,8,10,18,-0.02,-0.02,0.02,0,0,-7024,0,5,5,10.465302057166024,63.40469443911564,40,0,48,0,24,0,0,0,0,0,0,19,212,0,0,false,false,false,false,false,false,true,false,false,false,5096,5858,4942,5202,61,77,77,61,1469,1562,1456,1508,1458,1556,1456,1496,0.0,0.0,0.0,0.0,1663.7,1661.3,1660.7,1663.7,3.0,4.6,3.04,3.9,0,0,0,0,148.21130724971388,10.465176070718307,63.404647229352506,0,116.050255,115.746765,-0.04274799,-0.07024856,-1.0001824,1.0035572,-3.815207,-12.955346,-16.91041,21.641598,516,-121,1447,1541.0,-0.026143009,-4.8632576E-4,-0.054472316,0.0604229,0.026147531238607434,0.03986023229239965,3.7095455039349376,-2.750559907289742,39.64698396034568,39.646983960345665,-13.240703820913337,-0.27656864187349917,6.276737713398533,25.64632099026873,8.178681047773308,7103241.694135833,-151.1446063455804,-147.9584421113196,63.65,NONE,0.0,0.0,0.0,NONE,-6.984572058490687E-10,-1.3107275414721715E-9,-4.272461E-4,2,42.48,54.19,41.72,46.41,16.796,16.796,5.984,7.515707,0,3635,4.193,12.0,7.254,98,24.3,OK,40,0,0,0,0,0,65,100,0.0,0,-4.208443E23,1.6897617E20,-7.345154E21,-1.2587411E24,-3.365452E38,63,0.23343277,-0.017714625,1.00881523E-25,False,False,0,None,-1.2404249E-38,1.0406396E-18,
167163289,21.271,10.465175550828723,63.40464717516905,18,116.17689,115.736046,-0.024503559,-0.07156799,-1.0197453,1.0225474,-10.190148,4.954854,-66.86075,67.81408,571,60,1414,1526.0,-0.014069908,0.0089691635,-0.08062398,0.082332455,0.016685569564127863,0.057823878758265765,4.279265738986958,-1.7499777388472693,14.311889828765935,14.311889828765914,-38.570986764406285,-0.6259331086086433,0.5448325829018278,4.948632445957344,8.202402734581291,10.36075162624379,-148.5515743707332,-145.3654101364724,63.98,,,10.4651757,63.4046478,20190425,163151,2019-04-25T16:31:51Z,162.166,0.59,1.03,6.61,8,10,18,-0.01,-0.04,0.01,0,0,-9998,0,5,5,10.465302057166024,63.40469443911564,40,0,16,20,25,717,3716,3761,3762,0,15045,23,1,17548,0,false,false,false,false,false,false,true,false,false,false,5448,6063,4989,4801,61,78,79,61,1513,1574,1472,1445,1501,1575,1469,1425,0.0,0.0,0.0,0.0,1663.1,1659.4,1659.4,1660.7,3.98,4.41,3.81,2.58,0,0,0,0,154.98675175535433,10.465175311164167,63.40464682908638,0,116.25359,115.74667,-0.02847608,-0.08007883,-1.0228767,1.0264016,8.73823,7.959697,-56.963894,58.177303,571,40,1417,1528.0,-0.0030560114,0.00680718,-0.04547088,0.046079036,0.007461695825634603,0.05048388002827443,4.215351034811236,-1.9784430098679708,12.691765586771064,12.691765586771055,-37.34907779557687,0.826353078248151,4.428140580543077,7.021632424108118,8.236248729964641,7103241.767782754,-36.25176227449299,-33.06559804023221,63.95,NONE,0.0,0.0,0.0,NONE,1.1194450898814749E-9,-4.069252171042435E-10,-3.3569336E-4,2,47.39,57.13,44.39,38.23,16.794,16.794,5.973,7.515707,0,3635,4.191,12.0,7.254,98,24.3,OK,40,0,0,0,0,0,65,100,0.0,0,-2.8302816E21,1.1142411E20,-4.939801E19,-1.2587411E24,-3.365452E38,63,0.23341751,-0.017713672,1.1154576E-25,False,False,0,None,-1.3688511E-38,1.0406132E-18,
171051341,22.281,10.465174404005788,63.4046477007461,18,115.664154,115.72623,0.034265675,-0.06354152,-1.0014668,1.0040654,3.432369,-3.7469099,1.2054415,5.222411,393,300,1435,1517.0,0.009634737,0.018868104,-0.07706232,0.07992143,0.021185690492440557,0.05966467758512234,3.132260907898468,3.373537845503432,-22.00639107892358,337.99360892107643,-73.76385119558373,-2.2163523482744423,3.960343227009264,-24.845411439184268,8.20919298414501,10.450935126547853,-85.90598358335012,-82.71981934908933,64.26,,,10.465174,63.4046482,20190425,163152,2019-04-25T16:31:52Z,162.086,0.59,1.03,6.59,8,10,18,0.09,0.0,0.0,0,0,0,0,5,5,10.465302057166024,63.40469443911564,40,0,16,20,25,717,3716,3761,3762,0,15045,23,1,17548,0,false,false,false,false,false,false,true,false,false,false,5803,6024,4675,4177,61,78,79,61,1551,1587,1451,1396,1544,1570,1431,1387,0.0,0.0,0.0,0.0,1665.0,1657.6,1658.8,1662.5,4.36,4.6,3.58,1.98,0,0,0,0,166.4132506125706,10.465174228168515,63.404647350062874,0,115.793526,115.74753,0.032572266,-0.056819122,-1.0006626,1.0028036,-1.7537253,0.40628922,-3.0279524,3.522658,395,300,1435,1518.0,0.04466065,0.02471237,-0.060289014,0.078993924,0.05104189473501815,0.027272041765381644,3.158666526329832,3.1474077173912742,-25.071658302581366,334.92834169741866,-78.22619434537174,-0.3638947492910013,8.52530215437654,-24.94567713483879,8.240692058435757,7103241.851676639,-64.92020240383528,-61.7340381695745,64.25,NONE,0.0,0.0,0.0,NONE,9.280869689542883E-10,1.8290217653066895E-9,-1.8310547E-4,2,52.81,56.39,38.86,33.08,16.782,16.782,5.971,7.476912,0,3633,4.19,12.0,7.286,98,24.4,OK,41,0,0,0,0,0,65,100,0.0,0,-2.78290911E17,3.4052435E21,-4.8571264E15,-1.2587411E24,-3.365452E38,63,0.23358917,-0.017724162,1.1268803E-25,False,False,0,None,-1.3799718E-38,1.0410896E-18,
175076296,23.327,10.465173890144685,63.40464782170366,18,115.529854,115.7107,0.040245827,-0.048907414,-1.0080967,1.0100844,9.477982,-2.4668388,9.477225,13.628471,410,312,1423,1513.0,-0.033411548,0.02721012,-0.08691628,0.09701115,0.043089699122725915,-0.015461796616260525,3.150181040811758,2.3205815023516037,-23.59949877164053,336.4005012283595,-74.33355056758249,-1.433242623282995,2.311276812498617,-26.50480449367687,8.220522518915852,10.509464538780263,162.09599819164748,165.28216242590827,64.5,,,10.4651736,63.4046482,20190425,163153,2019-04-25T16:31:53Z,162.011,0.59,1.03,6.57,8,10,18,-0.05,0.0,0.0,0,0,0,0,5,5,10.465302057166024,63.40469443911564,40,1,114,20,26,717,3716,3760,3762,0,15045,23,3850,17536,0,false,false,false,false,false,false,true,false,false,false,5859,6031,4664,4258,61,79,79,60,1552,1580,1434,1401,1533,1571,1440,1390,0.0,0.0,0.0,0.0,1662.5,1658.2,1658.8,1662.5,4.54,4.44,3.25,2.22,0,0,0,0,168.97992565776832,10.465173839828207,63.40464738135734,0,115.39573,115.743645,0.04191759,-0.0501697,-1.0051548,1.0072787,-4.4847393,-2.0117452,-7.9985957,9.38816,407,309,1426,1514.0,-0.019918311,0.026912631,-0.061850633,0.07033157,0.03348176979385032,-0.014704348960317661,3.0439086677165563,2.2592031940762647,-26.7438715633811,333.2561284366189,-81.50983449201985,-1.9178519620672576,7.005006448134664,-26.67466647192084,8.253422396556068,7103241.918114191,-137.56920816565375,-134.38304393139296,64.49,NONE,0.0,0.0,0.0,NONE,4.16203952228617E-9,-1.666251679367282E-9,-4.5776367E-4,2,52.44,56.4,38.93,33.97,16.78,16.78,5.97,7.4367547,0,3631,4.188,12.0,7.321,98,24.3,OK,42,0,0,0,0,0,65,100,0.0,0,-1.95413917E17,6.570391E21,-2.65719292E15,-1.2587411E24,-3.365452E38,63,0.23284912,-0.017677909,1.1479586E-25,False,False,0,None,-1.4004913E-38,1.0388926E-18,
178937396,24.331,10.465166177118915,63.404646087664844,18,115.82763,115.69417,0.034241162,-0.04600698,-1.0042502,1.0058864,-143.05173,-0.51475227,-4.398151,143.12025,401,286,1417,1500.0,-0.28433076,-0.4679321,-0.10499096,0.5575191,0.5475439884421146,-0.11938182186493007,-7.055545338677639,2.269370087313689,-23.21006019535889,336.7899398046411,-72.60370839452807,-12.672576274141303,2.441846310326986,-45.18246513465623,8.640603569913116,10.947317521739135,-122.286856302865,-119.10069206860422,64.56,,,10.4651679,63.4046469,20190425,163154,2019-04-25T16:31:54Z,162.006,0.59,1.03,6.57,8,10,18,-0.35,-0.72,-0.01,-9856,0,0,0,5,5,10.465302057166024,63.40469443911564,40,2,18,20,27,718,3716,3837,3848,3551,15373,23,1,15468,0,false,false,false,false,false,false,true,false,false,false,5622,5997,4561,4452,61,78,78,61,1535,1584,1435,1409,1516,1576,1437,1384,0.0,0.0,0.0,0.0,1665.0,1660.7,1660.7,1665.6,3.82,4.94,3.81,1.25,0,0,0,0,169.47860845627795,10.465165818554729,63.4046454345285,0,115.72604,115.7536,0.035028167,-0.0060582273,-0.9992489,0.999881,-10.668805,-10.978965,1.6993818,15.402888,418,60,1429,1490.0,-0.42062297,-0.7376903,-0.058633067,0.85120416,0.8491823723800289,-0.39655034409085504,-14.724964655130107,1.4988206666276682,-26.342046669016906,333.6579533309831,-82.72547377197141,-16.446167798394725,5.787849690518855,-42.88191264362167,8.699886785200212,7103242.380065172,-121.80165869183034,-118.61549445756955,64.57,NONE,0.0,0.0,0.0,NONE,-1.0178338988672935E-7,-2.52807644988782E-8,-3.8909912E-4,2,48.91,57.63,40.79,32.52,16.777,16.777,5.967,7.4012384,0,3629,4.187,12.0,7.333,98,24.3,OK,43,0,0,0,0,0,65,100,0.0,0,-3.38524271E17,1.1840791E23,-2.65719292E15,-1.2587411E24,-3.365452E38,63,0.23522568,-0.017826682,2.0188295E-25,False,False,0,None,-2.2489652E-38,1.0459865E-18,
182851924,25.348,10.465144882495547,63.40464150765633,18,115.63674,115.69238,0.036246266,-0.027544875,-0.9886969,0.9897444,-143.88763,-5.8719635,10.85055,144.4156,395,315,1405,1493.0,-0.47848055,-0.92730695,-0.09979193,1.0482367,1.0434758243109064,0.11249107334767561,-7.505754743477136,2.397020343826618,-23.034766678366132,336.9652333216339,-71.4979912140155,-2.0173481736396734,1.0437024258606071,-47.69864234221757,9.790815102381742,12.123903674161099,-116.31312892342177,-113.12696468916099,64.65,,,10.4651492,63.4046429,20190425,163155,2019-04-25T16:31:55Z,162.042,0.59,1.03,6.54,8,10,18,-0.55,-1.23,-0.04,-9804,0,0,0,5,5,10.465302057166024,63.40469443911564,40,7,19,20,28,721,3716,3769,3771,0,15082,23,1,15113,0,false,false,false,false,false,false,true,false,false,false,5991,5832,4308,4815,60,77,77,61,1523,1623,1470,1398,1540,1576,1401,1432,0.0,0.0,0.0,0.0,1659.4,1653.3,1654.6,1658.2,3.02,5.26,4.17,1.26,0,0,0,0,-166.14364849830145,10.465145219047871,63.40464120208049,0,115.64502,115.78427,0.035914026,-0.044357073,-1.006919,1.0085353,-178.81606,-9.097699,-11.354604,179.40701,387,465,1365,1493.0,-0.44943464,-0.8939501,-0.08241408,1.0039573,1.0005689433000762,0.10846165809482877,-3.4765805349702736,2.313630259851089,-26.329652814333052,333.67034718566697,-86.25726488214913,-2.688099654770566,4.1612983400593295,-51.1481615857484,9.797923324080196,7103243.510161046,-116.96341236186231,-113.77724812760152,64.65,NONE,0.0,0.0,0.0,NONE,-1.4903925559733032E-7,-3.314084617749782E-8,-3.3569336E-4,2,53.0,56.43,33.96,38.69,16.727,16.727,5.941,7.379705,1768,3626,4.185,12.0,7.68,98,24.4,OK,44,0,0,0,0,0,65,100,0.0,0,-1.00407977E17,1.6302458E27,-1.75245819E15,-1.2587411E24,-3.365452E38,63,0.24053192,-0.01815856,1.1094606E-24,False,False,0,None,-9.2175574E-38,1.0617625E-18,
186699983,26.348,10.465130506612411,63.40463822968976,18,115.93963,115.68266,0.018006777,-0.07383832,-0.9933855,0.99628866,-2.5082226,8.342387,15.303572,17.609257,470,349,1395,1512.0,-0.16624841,-0.083469726,-0.04939368,0.192472,0.18602615494866198,0.6170139458295354,7.17367678045202,0.51847997403925,-8.759791626261011,351.240208373739,-54.59361435657062,11.836292585870268,1.455857516980398,-19.611710967439898,10.582735221956208,12.930276651470626,-140.52376956797312,-137.33760533371233,64.7,,,10.4651306,63.4046389,20190425,163156,2019-04-25T16:31:56Z,162.048,0.59,1.03,6.51,8,10,18,-0.31,-0.54,-0.04,0,0,8515,0,5,5,10.465302057166024,63.40469443911564,40,23,16,20,29,721,3716,3763,3765,0,15057,23,1,17516,0,false,false,false,false,false,false,true,false,false,false,5379,6198,4512,4936,60,78,77,60,1523,1605,1439,1451,1513,1587,1441,1426,0.0,0.0,0.0,0.0,1660.0,1657.6,1655.8,1659.4,3.66,5.32,2.53,3.33,0,0,0,0,169.48925029859302,10.465130016388057,63.40463796240341,0,116.0238,115.7942,0.017955502,-0.08464462,-0.99252015,0.9962848,-12.9696,6.303293,6.290092,15.732364,464,369,1392,1512.0,-0.11173681,-0.11872113,-0.048862197,0.17019792,0.1630331856391686,0.6750471010253509,7.1586684052142795,0.4791193930020017,-12.284930741924454,347.7150692580756,-74.13318239048184,6.813006451477245,3.6690404120194757,-22.038573350643407,10.619985591761653,7103244.351699701,-121.00755914530401,-117.82139491104323,64.7,NONE,0.0,0.0,0.0,NONE,-2.2159265499715265E-8,-5.302878063920283E-9,-1.373291E-4,2,47.69,57.78,38.42,40.75,16.688,16.688,5.965,7.3862224,1766,3624,4.173,12.0,7.838,98,24.4,OK,45,0,0,0,0,0,65,100,0.0,0,-2.81330528E17,8.761375E29,-1.75063713E15,-1.2587411E24,-3.365452E38,63,0.24099731,-0.018187648,4.396847E-24,False,False,0,None,-3.1291223E-37,1.063139E-18,
190549451,27.349,10.465129805460434,63.404638509006986,18,116.162506,115.69563,0.013359765,-0.06261657,-1.0012149,1.0032599,9.49846,-10.830301,6.681653,15.879567,447,228,1423,1508.0,-0.027391309,0.06236825,-0.047107212,0.08282012,0.06811815344458878,-0.021418013292590465,3.7936948610686794,1.8096296209929748,-7.845689394501942,352.15431060549804,-49.79876367965553,11.646236588276238,7.206045904473691,-15.162105546661024,10.592656226605376,13.044030831774005,48.73037332020689,51.916537554467666,64.76,,,10.4651297,63.4046388,20190425,163157,2019-04-25T16:31:57Z,162.062,0.59,1.03,6.5,8,10,18,0.09,0.04,-0.05,0,0,0,0,5,5,10.465302057166024,63.40469443911564,40,23,18,20,30,722,3716,3840,3852,3537,15387,23,1,15479,0,false,false,false,false,false,false,true,false,false,false,5664,5965,4916,4636,61,79,79,60,1538,1570,1464,1435,1525,1566,1459,1428,0.0,0.0,0.0,0.0,1660.7,1657.0,1657.0,1660.0,4.21,4.43,3.54,2.31,0,0,0,0,164.3720795339412,10.465129974997536,63.40463803240267,0,116.07522,115.835075,0.009302663,-0.055774633,-1.0012898,1.0028852,3.0644932,-10.130382,4.2702284,11.412739,444,228,1423,1507.0,0.04276575,0.060557608,-0.024687348,0.07813833,0.07413590977972735,-0.06608794543230215,3.674038476789299,1.910949714136783,-11.047422532693659,348.95257746730636,-75.19949655319246,1.1391717750255492,3.0866911519106353,-15.501536176315675,10.617047166626355,7103244.4939184645,51.38588035853461,54.572044592795386,64.75,NONE,0.0,0.0,0.0,NONE,8.735496057850978E-9,4.587546335207941E-9,-2.5177002E-4,2,50.49,55.27,41.94,38.58,16.747,16.747,5.966,7.42077,1756,3620,4.159,12.0,7.701,97,24.4,OK,46,0,0,0,0,0,65,100,0.0,0,-7.1410676E17,1.1864542E30,-1.75063713E15,-1.2587411E24,-3.365452E38,63,0.24954987,-0.018722182,4.536999E-24,False,False,0,None,-3.197425E-37,1.0885764E-18,
194455989,28.364,10.465130816151845,63.40463864373142,18,116.49412,115.71346,0.017758358,-0.07322753,-0.9973052,1.0001476,-6.966134,1.357289,-5.171531,8.781457,482,237,1414,1512.0,-0.01770458,0.018341674,-0.038092505,0.045835666,0.02549253127776407,0.026212426015006545,3.9838301522941526,0.6070392058173754,-7.980652021062671,352.01934797893733,-49.601081264042186,13.360312934056466,6.827098607426222,-15.53573704028766,10.543147007034415,13.124709487321267,-162.8315287511184,-159.64536451685763,64.88,,,10.4651307,63.4046388,20190425,163159,2019-04-25T16:31:59Z,162.065,0.59,1.03,6.48,8,10,18,-0.06,0.03,-0.03,0,0,0,0,5,5,10.465302057166024,63.40469443911564,40,34,82,20,31,733,3716,3807,3867,2864,15163,23,1,15482,0,false,false,false,false,false,false,true,false,false,false,5676,6028,4889,4519,61,78,78,61,1530,1588,1463,1417,1522,1577,1459,1410,0.0,0.0,0.0,0.0,1659.4,1655.8,1655.8,1659.4,4.1,4.61,3.49,2.27,0,0,0,0,162.54372751399598,10.46513073832141,63.404637949707435,0,116.41988,115.86017,0.020877281,-0.06766791,-0.99975044,1.0022553,-6.830293,2.9682238,-5.605469,9.321188,482,237,1414,1512.0,-0.015446039,0.015399911,-0.019665359,0.029367732,0.021811404875840205,0.016695156178641937,3.862932845477298,0.6526121057688152,-11.108692570373295,348.8913074296267,-75.7562003043156,-0.2568010099816245,2.411798541151702,-15.823285760371096,10.591862475519596,7103244.57301917,152.86035120546575,156.04651543972653,64.9,NONE,0.0,0.0,0.0,NONE,4.429939385914973E-9,-8.524012303384365E-10,-1.373291E-4,2,50.29,57.52,42.93,36.15,16.744,16.744,5.96,7.4642735,1744,3618,4.178,12.0,7.506,97,24.5,OK,47,0,0,0,0,0,65,100,0.0,0,-1.77652595E17,4.8873724E29,-1.75063713E15,-1.2587411E24,1.4640086E-27,64,0.2589035,-0.019028312,4.3073837E-24,False,False,0,None,-3.0855579E-37,1.1031348E-18,
198411177,29.392,10.465131436206633,63.404638598968745,18,116.25115,115.73259,0.01959438,-0.06689235,-0.9985506,1.0009804,-7.306641,-5.140592,-5.1503663,10.312078,470,239,1414,1509.0,0.011575751,0.010178039,-0.019243037,0.024655323,0.015413970540181302,0.015001715412270647,4.155868287466241,0.6361241832753866,-8.0621120530256,351.9378879469744,-50.074974222301265,12.866568065190913,5.91752415583587,-15.627943204937404,10.521142791478793,13.185547744507474,80.50156144703216,83.68772568129295,64.98,,,10.4651314,63.4046389,20190425,163200,2019-04-25T16:32:00Z,162.144,0.59,1.03,6.47,8,10,18,0.0,0.01,-0.03,0,0,0,0,5,5,10.465302057166024,63.40469443911564,40,35,83,20,32,733,3716,3780,3780,0,15123,23,1,15157,0,false,false,false,false,false,false,true,false,false,false,5684,6025,4901,4526,62,78,79,62,1537,1583,1466,1415,1531,1571,1451,1417,0.0,0.0,0.0,0.0,1659.4,1657.0,1655.8,1659.4,4.15,4.42,3.68,2.16,0,0,0,0,162.58023644572347,10.465131461488978,63.404638013478625,0,116.20086,115.87836,0.01598238,-0.07133779,-1.0048642,1.00752,10.57051,0.28953427,5.7424827,12.033105,470,242,1411,1506.0,0.010431252,0.0010620828,-0.008026484,0.013204677,0.010485182409582156,0.0252090451006022,4.06119406444517,0.7003391045882962,-11.082527653145124,348.9174723468549,-74.73141128646432,1.5476907113107563,2.279872305519457,-16.185514359012124,10.55868276314727,7103244.6260905685,36.84116743593037,40.02733167019115,65.0,NONE,0.0,0.0,0.0,NONE,4.7839518051628077E-11,5.953958321277683E-10,-4.5776367E-5,2,51.73,56.92,41.21,36.69,16.744,16.744,5.963,7.4964504,1736,3616,4.178,12.0,7.357,97,24.5,OK,48,0,0,0,0,0,65,100,0.0,0,-6.2733577E16,2.593061E29,-1.09491165E15,-1.2587411E24,1.4640086E-27,64,0.26571655,-0.019240981,4.0884716E-24,False,False,0,None,-2.978914E-37,1.1132462E-18,
202282425,30.398,10.465132079951449,63.40463889679161,18,116.321365,115.76103,0.021195246,-0.07450093,-1.0095277,1.0124948,-1.9154816,5.0768414,-3.8496287,6.6530466,479,245,1408,1507.0,0.05753158,-0.0124072395,-0.021325024,0.06259856,0.058854247229585675,-0.013051622613351598,4.461783312012861,0.43013005872084786,-8.172407175976003,351.827592824024,-48.914043577442136,14.83171908004513,4.774388762879705,-15.383300224528325,10.475731505377894,13.235452802215926,11.869172401755074,15.055336636015854,64.94,,,10.465132,63.4046391,20190425,163201,2019-04-25T16:32:01Z,162.27,0.59,1.03,6.48,8,10,18,0.01,0.0,-0.06,0,0,0,0,5,5,10.465302057166024,63.40469443911564,40,35,19,20,33,733,3716,3780,3780,0,15123,23,1,15157,0,false,false,false,false,false,false,true,false,false,false,5674,6090,4818,4361,61,78,78,62,1531,1582,1471,1405,1533,1579,1449,1390,0.0,0.0,0.0,0.0,1660.0,1655.8,1656.4,1658.2,4.04,4.33,3.85,2.16,0,0,0,0,161.33926925544068,10.465132133449341,63.40463821963842,0,116.15752,115.899994,0.021366302,-0.07193164,-1.0131909,1.0159658,20.735447,5.83996,12.640829,24.97708,479,248,1408,1507.0,0.037507925,-0.025785001,-0.012112356,0.047100104,0.04551604957690283,-0.005210980860527917,4.302687953993182,0.36257479003347787,-11.080410067632467,348.91958993236756,-75.26909493960235,1.1198835245592895,0.9534805593246451,-16.188095666910677,10.518156684717521,7103244.692715015,11.549327005561944,14.735491239822723,64.97,NONE,0.0,0.0,0.0,NONE,-3.86543307559172E-9,3.2297011194528367E-9,-1.0681152E-4,2,51.43,57.42,41.11,33.75,16.742,16.742,5.966,7.5086555,1732,3614,4.178,12.0,7.346,97,24.5,OK,49,0,0,0,0,0,65,100,0.0,0,-2.26382057E16,2.3508407E29,-3.95113335E14,-1.2587411E24,1.4640086E-27,64,0.2735443,-0.019486075,3.7924153E-24,False,False,0,None,-2.8346748E-37,1.1249194E-18,
