Tick#,offsetTime,IMU_ATTI(0):Longitude,IMU_ATTI(0):Latitude,IMU_ATTI(0):numSats,IMU_ATTI(0):barometer:Raw,IMU_ATTI(0):barometer:Smooth,IMU_ATTI(0):accel:X,IMU_ATTI(0):accel:Y,IMU_ATTI(0):accel:Z,IMU_ATTI(0):accel:Composite,IMU_ATTI(0):gyro:X,IMU_ATTI(0):gyro:Y,IMU_ATTI(0):gyro:Z,IMU_ATTI(0):gyro:Composite,IMU_ATTI(0):mag:X,IMU_ATTI(0):mag:Y,IMU_ATTI(0):mag:Z,IMU_ATTI(0):mag:Mod,IMU_ATTI(0):velN,IMU_ATTI(0):velE,IMU_ATTI(0):velD,IMU_ATTI(0):velComposite,IMU_ATTI(0):velH,IMU_ATTI(0):GPS-H,IMU_ATTI(0):roll,IMU_ATTI(0):pitch,IMU_ATTI(0):yaw,IMU_ATTI(0):yaw360,IMU_ATTI(0):totalGyro:Z,IMU_ATTI(0):totalGyro:X,IMU_ATTI(0):totalGyro:Y,IMU_ATTI(0):magYaw,IMU_ATTI(0):distanceHP,IMU_ATTI(0):distanceTravelled,IMU_ATTI(0):directionOfTravel[mag],IMU_ATTI(0):directionOfTravel[true],IMU_ATTI(0):temperature,General:relativeHeight,General:absoluteHeight,GPS(0):Long,GPS(0):Lat,GPS(0):Date,GPS(0):Time,GPS:dateTimeStamp,GPS(0):heightMSL,GPS(0):hDOP,GPS(0):pDOP,GPS(0):sAcc,GPS(0):numGPS,GPS(0):numGLNAS,GPS(0):numSV,GPS(0):velN,GPS(0):velE,GPS(0):velD,RC:Aileron,RC:Elevator,RC:Rudder,RC:Throttle,Controller:navHealth,Controller:ctrl_level,HP:Longitude,HP:Latitude,HP:rthHeight,BatBlackBox:tick,BatBlackBox:id,BatBlackBox:rsoc,BatBlackBox:index,BatBlackBox:rm,BatBlackBox:fcc,BatBlackBox:cell_min,BatBlackBox:cell_max,BatBlackBox:current,BatBlackBox:voltage,BatBlackBox:temp,BatBlackBox:flag,BatBlackBox:reserve,BatBlackBox:user_data,OA:avoidObst,OA:emergBrake,OA:radiusLimit,OA:airportLimit,OA:groundForceLanding,OA:horizNearBoundary,OA:vertLowLimit,OA:vertAirportLimit,OA:roofLimit,OA:hitGroundLimit,Motor:Speed:RFront,Motor:Speed:LFront,Motor:Speed:LBack,Motor:Speed:RBack,Motor:EscTemp:RFront,Motor:EscTemp:LFront,Motor:EscTemp:LBack,Motor:EscTemp:RBack,Motor:PPMrecv:RFront,Motor:PPMrecv:LFront,Motor:PPMrecv:LBack,Motor:PPMrecv:RBack,Motor:PPMsend:RFront,Motor:PPMsend:LFront,Motor:PPMsend:LBack,Motor:PPMsend:RBack,Motor:V_out:RFront,Motor:V_out:LFront,Motor:V_out:LBack,Motor:V_out:RBack,Motor:Volts:RFront,Motor:Volts:LFront,Motor:Volts:LBack,Motor:Volts:RBack,Motor:Current:RFront,Motor:Current:LFront,Motor:Current:LBack,Motor:Current:RBack,Motor:Status:RFront,Motor:Status:LFront,Motor:Status:LBack,Motor:Status:RBack,Motor:thrustAngle,IMU_ATTI(1):Longitude,IMU_ATTI(1):Latitude,IMU_ATTI(1):numSats,IMU_ATTI(1):barometer:Raw,IMU_ATTI(1):barometer:Smooth,IMU_ATTI(1):accel:X,IMU_ATTI(1):accel:Y,IMU_ATTI(1):accel:Z,IMU_ATTI(1):accel:Composite,IMU_ATTI(1):gyro:X,IMU_ATTI(1):gyro:Y,IMU_ATTI(1):gyro:Z,IMU_ATTI(1):gyro:Composite,IMU_ATTI(1):mag:X,IMU_ATTI(1):mag:Y,IMU_ATTI(1):mag:Z,IMU_ATTI(1):mag:Mod,IMU_ATTI(1):velN,IMU_ATTI(1):velE,IMU_ATTI(1):velD,IMU_ATTI(1):velComposite,IMU_ATTI(1):velH,IMU_ATTI(1):GPS-H,IMU_ATTI(1):roll,IMU_ATTI(1):pitch,IMU_ATTI(1):yaw,IMU_ATTI(1):yaw360,IMU_ATTI(1):totalGyro:Z,IMU_ATTI(1):totalGyro:X,IMU_ATTI(1):totalGyro:Y,IMU_ATTI(1):magYaw,IMU_ATTI(1):distanceHP,IMU_ATTI(1):distanceTravelled,IMU_ATTI(1):directionOfTravel[mag],IMU_ATTI(1):directionOfTravel[true],IMU_ATTI(1):temperature,IMUEX(0):err,IMUEX(0):rtk_Longitude,IMUEX(0):rtk_Latitude,IMUEX(0):rtk_Alti,IMUEX(1):err,IMUEX(1):rtk_Longitude,IMUEX(1):rtk_Latitude,IMUEX(1):rtk_Alti,MotorCtrl:Status,MotorCtrl:PWM:RFront,MotorCtrl:PWM:LFront,MotorCtrl:PWM:LBack,MotorCtrl:PWM:RBack,BattInfo:Voltage,BattInfo:BatVoltage,BattInfo:AdVoltage,BattInfo:AvgCurrent,BattInfo:R_time,BattInfo:R_CAP_MAH,BattInfo:LowCellVoltage,BattInfo:LowCellVolThreshold,BattInfo:BatCurrent,BattInfo:Remaining%,BattInfo:Temp,BattInfo:status,battery_info:BatDynCnt,battery_info:Vol1Protect,battery_info:Vol2Protect,battery_info:Cap1Protect,battery_info:Cap2Protect,battery_info:Batpresent,battery_info:sopPercentage,battery_info:sopValue,battery_info:sopScale,battery_info:sopFlg,BattInfo:WindHeading:WindDir,battery_info:home_dir,BattInfo:Wind:rangeMin,BattInfo:Wind:rangeMax,battery_info:cap_speed,battery_info:against_wind,battery_info:emergency_land_cap,battery_info:intel_bat_land_cap,battery_info:intel_bat_gh_cap,BattInfo:Smart:SmartGh,BattInfo:Smart:SmartLand,BattInfo:GoHome:CntDown,BattInfo:GoHome:GhCmd,BattInfo:GoHome:CapLevel,BattInfo:GoHome:LandCapLv,Attribute|Value,ConvertDatV3,3.6.6-Tablet
320984586,.000,13.993178482485419,66.38573747610862,18,25.958149,26.625513,0.0755121,-0.011074447,-0.9754858,0.9784668,0.2718455,0.030718066,-0.100578904,0.29147846,-277,-384,1485,1558.0,-0.04145125,-0.06172692,0.00394341,0.07445783,0.0743533376043119,-0.0743533376043119,1.051859396649773,4.405851411249081,139.56893173806378,139.56893173806378,95.92985409652259,-21.271994079649396,34.188351609309066,111.58303919550623,5.257154536665261,10.847051542698363,54.33393852667088,59.6093924905123,55.73,-1.3864960437011717,,13.9931795,66.3857369,20190520,160850,2019-05-20T16:08:50Z,67.973,0.61,1.34,9.54,10,8,18,-0.01,-0.01,0.03,-9585,-8694,8870,-9436,5,5,13.993228330782962,66.38578033114493,50,2151802,48,44,262,1487,3446,3864,3869,0,15459,30,212,0,0,false,false,false,false,false,false,false,false,false,false,0,0,0,0,50,65,66,50,944,946,945,945,940,940,940,940,0.0,0.0,0.0,0.0,1722.6,1717.1,1717.1,1722.6,0.0,0.0,0.0,0.0,0,0,0,0,-45.0,13.993178644099576,66.385736753488,0,26.478687,26.208754,0.07534603,-0.011247945,-0.9768371,0.97980314,0.16000575,-0.04569083,-0.027924327,0.16872837,-277,-384,1485,1558.0,1.04476885E-5,0.013969054,-2.327769E-4,0.013970998,0.013969058871188003,-0.013969058871188003,-0.04222052926647725,3.5937879049978547,134.02495654925917,134.02495654925917,94.45436192832567,-22.871021491882342,29.248950470849405,115.58742856825464,5.327101422292173,7464197.808549016,-50.93228181968942,-45.656827855848,55.74,NONE,0.0,0.0,0.0,NONE,1.1285420163618391E-8,-4.2406486323179343E-10,-1.411438E-4,,,,,,17.342,17.342,6.19,1.3179251,0,3404,4.335,12.0,1.318,100,22.1,OK,79,0,0,0,0,0,65,100,0.0,0,0.0,-1.4357194E19,8.7E-44,0.0,-5.9807744E7,62,1.0914047E-12,-1.091412E-12,3.5651134E-34,False,False,0,None,2.0719212E37,1.0842106E-19,Firmware Date| Oct 17 2018
324838324,1.002,13.993177093088555,66.38573707961181,18,26.295572,26.63724,0.073990636,-0.016047027,-0.97641647,0.97934735,0.011887784,-0.23372756,0.14981918,0.2778771,-282,-387,1482,1557.0,-0.024309449,-0.038432047,-0.0025169498,0.045544557,0.045474954743792706,0.030391224712244827,0.9907979950006159,4.371232506879637,139.7026966417286,139.7026966417286,95.77965030951333,-20.98242940769393,34.1875034670495,112.24579754404782,5.323387403836935,10.977924284439268,-145.06841655757088,-139.79296259372947,56.05,-0.37690971911620963,,13.9931784,66.3857369,20190520,160851,2019-05-20T16:08:51Z,68.004,0.61,1.34,9.51,10,8,18,0.0,0.01,0.01,0,0,0,0,5,5,13.993228330782962,66.38578033114493,50,2151802,48,44,263,1487,3446,3864,3869,0,15459,30,212,0,0,false,false,false,false,false,false,false,false,false,false,532,527,533,520,55,71,71,54,1352,1360,1356,1355,1342,1342,1342,1342,0.1,0.1,0.1,0.1,1694.4,1687.0,1687.0,1693.2,7.9,7.37,7.96,7.58,0,0,0,0,126.86989764584405,13.993177055739402,66.3857365611032,0,26.295572,26.212864,0.07695065,-0.011566705,-0.9742379,0.97734064,-0.29751775,-0.3255353,-0.37451267,0.5785757,-282,-384,1485,1559.0,-0.001180104,0.016590673,0.001956595,0.01674728,0.016632591029726824,0.05716400947645339,0.05628633130258148,3.6618959904203665,134.0936116744161,134.09361167441614,94.69040102746699,-22.877618928722953,29.31113655493594,115.8319757693502,5.376238957509414,7464197.920293394,-157.76664243666625,-152.49118847282483,56.09,NONE,0.0,0.0,0.0,NONE,3.04691641589281E-9,9.637837804028387E-11,2.2888184E-5,1,22.5,22.5,22.5,22.5,17.155,17.155,6.079,1.359376,0,3403,4.334,12.0,3.366,100,22.1,OK,80,0,0,0,0,0,65,100,0.0,0,0.0,-2.3165652E22,8.7E-44,0.0,-5.9807744E7,62,1.0914047E-12,-1.091412E-12,4.6406474E-34,False,False,0,None,3.4197765E37,1.0842106E-19,ACType|MavicEnterprise
328738026,2.015,13.993175912508905,66.38573713393019,18,26.295572,26.630146,0.07174629,-0.010125601,-0.98191077,0.9845805,-1.2262913,-3.1239927,-0.54679537,3.4003098,-274,-381,1485,1557.0,-0.059915777,-0.06614123,0.0054433253,0.08941025,0.08924440349969007,-0.03701895114295567,0.9746600954732493,4.321760561413995,139.76500071157673,139.7650007115767,96.45110095324124,-21.33081664579283,33.77872257615021,111.72082611456571,5.340710049247777,11.05716548602231,-64.90678683442513,-59.63133287058371,56.35,-0.37690971911620963,,13.993177,66.3857371,20190520,160852,2019-05-20T16:08:52Z,68.002,0.61,1.34,9.4,10,8,18,0.0,0.01,0.0,0,0,0,0,5,5,13.993228330782962,66.38578033114493,50,2151802,48,44,264,1487,3446,3864,3869,0,15459,30,212,0,0,false,false,false,false,false,false,false,false,false,false,2097,2068,2149,2149,55,70,70,54,1206,1208,1212,1210,1200,1200,1204,1204,0.0,0.0,0.0,0.0,1718.3,1712.2,1711.6,1717.7,0.59,0.23,0.8,0.41,0,0,0,0,-12.300538878998111,13.99317582454216,66.38573659959214,0,26.295572,26.133554,0.07185292,-0.013134159,-0.9800766,0.98279476,-0.5154479,-2.4458458,0.073310554,2.5006444,-274,-381,1485,1557.0,-0.04178423,0.06393139,0.06910833,0.103000514,0.07637502710537812,-0.022101624155832687,0.2820069343116565,3.595841224558927,134.0274090791809,134.02740907918087,94.99236866249996,-22.438735804161485,29.522987253225832,114.9240368629948,5.395906801755916,7464197.995626301,-115.3581635374172,-110.08270957357578,56.33,NONE,0.0,0.0,0.0,NONE,5.2236671907852815E-9,-1.0922882907319922E-9,2.040863E-4,2,10.0,10.02,10.29,10.22,17.201,17.201,6.168,1.5226578,0,3401,4.334,12.0,4.194,100,22.1,OK,81,0,0,0,0,0,65,100,0.0,0,0.0,-1.9771958E25,8.7E-44,0.0,-5.9807744E7,62,1.0914047E-12,-1.091412E-12,4.9271153E-34,False,False,0,None,3.714699E37,1.0842106E-19,dateTime|2019-5-20 16:7:35 GMT
332681356,3.040,13.993173233659364,66.3857370485346,18,26.295572,26.806591,-0.0052256803,-0.0020602364,-1.2187313,1.2187443,7.7540746,-5.587771,-0.7614235,9.587941,-176,-396,1499,1560.0,-0.061347112,-0.038943827,-0.94309664,0.94589186,0.07266422799619311,0.04413187817262519,0.48715933470350575,1.1343055255271215,140.12347459933167,140.12347459933164,94.27889811135385,-23.509876994566362,28.83066406922401,109.70150310418924,5.402399550794335,11.211974544939977,-159.99086584496723,-154.71541188112582,56.58,-0.37690971911620963,,13.9931744,66.385737,20190520,160853,2019-05-20T16:08:53Z,67.929,0.61,1.34,9.24,10,8,18,0.03,0.0,-0.03,0,0,0,10000,5,5,13.993228330782962,66.38578033114493,50,2151803,16,44,265,1487,3446,3865,3869,0,15460,30,1,17549,0,false,false,false,false,false,false,true,false,false,false,6287,6295,5315,5408,52,68,69,52,1635,1615,1500,1535,1621,1615,1493,1515,0.0,0.0,0.0,0.0,1652.1,1645.3,1645.3,1650.8,6.66,5.38,4.44,4.27,0,0,0,0,-177.38205938304765,13.99317292520658,66.38573631687787,0,26.295572,26.294418,-0.009257696,-0.012874518,-1.1969712,1.1970762,-10.495521,10.108628,-10.881661,18.186558,-145,-396,1502,1560.0,-0.06505094,0.026380682,-0.8054936,0.80854654,0.07019661585872007,0.05949383469468687,-0.26347482580889936,-0.21774797761669623,134.35968154610092,134.3596815461009,95.31892643769166,-20.97641242927433,26.161379059230832,111.17393427477431,5.481174205975359,7464198.148693511,-129.50059982305086,-124.22514585920945,56.58,NONE,0.0,0.0,0.0,NONE,3.234048792454613E-9,-2.1074738635717483E-9,-0.002527237,2,62.23,60.86,46.57,49.71,17.145,17.145,5.959,1.7983555,0,3401,4.26,12.0,2.85,100,22.1,OK,82,0,0,0,0,0,65,100,0.0,0,0.0,-1.2563096E-34,8.8E-44,0.0,-5.9807744E7,62,1.2420065E-12,-1.1667129E-12,1.8626557E-38,False,False,0,None,2.1298855E29,1.1679213E-19,geoDeclination|528 degrees
336533158,4.041,13.993169017782366,66.38573679328901,18,29.141619,29.310543,-0.009119239,-0.0038056518,-1.1672164,1.1672583,9.981174,-9.66062,55.871086,57.571953,109,-199,1541,1557.0,-0.5787873,0.09325054,-4.205077,4.2457466,0.5862511621801249,-0.39653646833372075,-1.6955610032879,-13.793042203802798,176.49802416085606,176.49802416085606,132.7633144741058,-18.560713052364527,11.176099779549956,149.73940400245465,0.20473698285327244,11.461299263062186,165.2014693217682,170.47692328560962,56.89,2.4691367286376966,,13.99317,66.385737,20190520,160854,2019-05-20T16:08:54Z,69.713,0.61,1.34,9.11,10,8,18,-0.07,-0.22,-1.67,0,10000,9963,10000,5,5,13.993173561394327,66.38573707174015,50,2151804,114,44,266,1487,3446,3887,3895,888,15586,30,3596,17547,0,false,false,false,false,false,false,true,false,false,false,6373,6410,5490,5216,53,69,69,53,1610,1608,1502,1495,1601,1591,1490,1481,0.0,0.0,0.0,0.0,1658.8,1651.5,1652.1,1658.8,5.46,4.93,3.98,3.24,0,0,0,0,171.48407331267452,13.993169552978165,66.38573646377664,0,29.049585,28.514935,-0.0155286705,-0.0028618854,-1.2151117,1.2152144,1.1616734,-22.065615,55.348064,59.59571,69,-214,1535,1551.0,-0.34314984,0.1654284,-4.005984,4.024056,0.38094405186614844,-0.23001312310395933,-1.876320054816546,-13.479625748171026,167.4914377980354,167.49143779803535,127.11329015569633,-19.371724280898736,13.66329960522812,150.74787453873358,0.19091322218789747,7464198.392388768,-167.68188771357666,-162.40643374973524,56.9,NONE,0.0,0.0,0.0,NONE,5.282878941096655E-8,-4.8876667835243894E-8,-0.041196823,2,60.45,59.8,46.82,45.24,16.863,16.863,5.908,2.2422748,0,3398,4.307,12.0,10.599,100,22.1,OK,83,0,0,0,0,0,65,100,0.0,0,0.0,-0.014648199,8.8E-44,0.0,-5.9807744E7,62,1.3439694E-11,-3.723828E-12,4.243034E-38,False,False,0,None,1.0265618E30,3.6869924E-19,geoInclination|7646 degrees
340430620,5.054,13.99315852883989,66.38572484847317,19,33.614407,33.395218,-0.069770634,0.0037168758,-0.92367125,0.92631006,8.6339655,-10.907307,50.78204,52.65292,275,180,1514,1549.0,-2.450879,-0.87796116,-3.9746094,4.751331,2.6033870496430267,-1.2133869124012981,-1.6770445543002008,-15.610420246061395,-119.0395668855832,240.9604331144168,189.64785812434056,-4.325690532708504,9.642704265999809,-122.15524834699798,1.5151471269978336,12.968742455633723,-162.06885594230178,-156.79340197846037,57.2,6.941924585693361,,13.9931653,66.3857291,20190520,160855,2019-05-20T16:08:55Z,73.566,0.59,1.33,9.07,11,8,19,-1.69,-0.31,-3.34,0,10000,9998,10000,5,5,13.993173561394327,66.38573707174015,50,2151804,18,44,267,1485,3444,3898,3909,3571,15607,30,1,15690,0,false,false,false,false,false,false,true,false,false,false,6180,6079,5601,5432,53,70,70,52,1598,1587,1521,1533,1576,1565,1550,1542,0.0,0.0,0.0,0.0,1650.8,1647.8,1646.6,1650.8,6.03,4.98,3.92,3.36,0,0,0,0,176.82534658589626,13.993162948545972,66.38572395578332,0,34.046185,32.913616,-0.08230376,0.010592238,-0.92952794,0.9332247,1.5747377,-5.200449,46.326633,46.6442,295,186,1511,1550.0,-2.359658,-0.32803643,-3.854958,4.5316987,2.3823504891171714,-0.9789053389530933,-1.6255927686785074,-15.006994659675797,-126.25972209009053,233.74027790990948,189.57936024995124,-5.6142569770465345,8.75759937279321,-114.60895401893418,1.533125961941732,7464199.842106321,-169.5886480911586,-164.3131941273172,57.19,NONE,0.0,0.0,0.0,NONE,-2.254942510700088E-9,-9.303289178261675E-8,-0.01953888,2,60.43,57.35,49.31,48.56,16.66,16.66,5.941,3.02784,0,3395,4.275,12.0,9.86,99,22.2,OK,84,0,0,0,0,0,65,100,0.0,0,0.0,-1.9497293E-10,8.7E-44,0.0,-5.9807744E7,62,8.7432284E-10,-3.0233826E-11,7.4636156E-37,False,False,0,None,2.2932592E32,2.6224274E-18,geoIntensity|5257921 nanoTesla
344306762,6.061,13.993122294504303,66.38570658026272,18,39.994293,37.040314,-0.10869289,0.11704932,-1.0232353,1.035628,2.6459105,-5.727128,9.360619,11.288136,636,223,1422,1573.0,-1.8355813,-2.6557157,-3.9043856,5.066203,3.2283408965214364,-0.6529290771258451,-2.8390348356530666,-17.65036942166271,-69.30965778360562,290.69034221639436,234.11704344540695,6.405109594998105,3.6451045446327925,-58.623900607652,4.0877894633463265,15.660005507371793,-130.32057854017407,-125.04512457633265,57.55,13.321811212890626,,13.9931236,66.3857074,20190520,160856,2019-05-20T16:08:56Z,78.332,0.61,1.36,8.99,11,7,18,-1.87,-2.38,-3.95,0,10000,3457,10000,5,5,13.993173561394327,66.38573707174015,50,2155242,114,99,268,3444,3444,4384,4393,243,17545,28,3446,17531,0,false,false,false,false,false,false,true,false,false,false,6731,6693,6139,6556,53,69,70,53,1653,1658,1611,1622,1645,1655,1593,1608,0.0,0.0,0.0,0.0,1631.2,1625.7,1625.1,1631.2,6.08,5.14,5.77,4.7,0,0,0,0,-148.02995401422336,13.993119408290006,66.38570544138436,0,40.14313,36.641254,-0.10493781,0.13206048,-1.0244242,1.0382181,5.068227,-0.7995032,1.7057822,5.4070163,639,229,1414,1568.0,-1.7651299,-2.5460498,-3.842129,4.935586,3.0980724617922712,-0.2904937411410309,-1.9616181400027184,-17.61309366949151,-76.39434978566882,283.60565021433115,230.3816151818413,6.828131350651154,5.101817814469849,-56.45846182074451,4.264792020568948,7464202.724803384,-128.233220538837,-122.95776657499559,57.55,NONE,0.0,0.0,0.0,NONE,-2.763108872528562E-7,-8.173301516196105E-8,-0.019195557,2,64.78,66.57,60.48,61.34,16.698,16.698,5.864,4.1022243,0,3393,4.116,12.0,10.202,99,22.2,OK,85,0,0,0,0,0,65,100,0.0,0,0.0,4.5713543E-25,8.8E-44,0.0,-5.9807744E7,62,4.4342414E-8,-2.1466655E-10,1.2110314E-34,False,False,0,None,2.6277079E36,1.5643536E-17,mcID(SN)|298DG13001W644
348247229,7.085,13.99304611952016,66.38569769185062,19,44.038307,40.966812,-0.11774039,0.11555152,-0.97739834,0.9912227,10.258316,32.23158,6.492313,34.442093,627,161,1452,1589.0,-0.5270616,-4.0399885,-4.0696683,5.758602,4.074223899655182,-0.6234032067091384,-4.998437604998891,-15.153789420058825,-67.74726484735443,292.2527351526456,236.0836714904249,1.8822934597980974,4.103352380122325,-51.19181527531358,7.169195787003765,19.228572431082146,-102.57489526226566,-97.29944129842424,57.76,17.365825189941408,,13.9930469,66.3856984,20190520,160857,2019-05-20T16:08:57Z,82.447,0.59,1.33,8.94,11,8,19,-0.6,-3.91,-4.21,0,4538,0,10000,5,5,13.993173561394327,66.38573707174015,50,2155533,19,100,269,3423,3423,4388,4397,184,17540,28,1,17543,0,false,false,false,false,false,false,false,false,false,false,6761,6809,6251,6519,53,70,71,53,1681,1654,1601,1636,1672,1653,1586,1617,0.0,0.0,0.0,0.0,1627.0,1622.6,1620.8,1626.4,6.42,5.0,5.46,5.56,0,0,0,0,-164.62374875117385,13.993041244839253,66.38569808139033,0,44.166798,40.538414,-0.13170339,0.124075085,-1.0625553,1.0778517,0.8065876,44.976273,3.6907384,45.13466,613,152,1458,1588.0,-0.32071844,-3.8894937,-3.929736,5.5383973,3.9026941823698555,-0.4104247330415731,-4.154597163534672,-13.350664312981095,-71.48379577626356,288.51620422373645,232.5271935257602,7.349803143163023,10.212119494034903,-44.343361235959854,7.316565618889818,7464206.328061648,-99.3793642713878,-94.10391030754639,57.81,NONE,0.0,0.0,0.0,NONE,-4.067120762398296E-7,-2.2548209353714022E-8,-0.01971054,2,67.66,65.47,59.12,63.94,16.558,16.558,5.85,5.317247,0,3390,4.177,12.0,12.334,99,22.3,OK,86,0,0,0,0,0,65,100,0.0,0,0.0,7.825339E26,8.8E-44,0.0,-1.05007105E-23,63,2.5472254E-6,-1.6463634E-9,3.8051607E-32,False,False,0,None,-8.06043E-38,1.0288444E-16,mcVer|v3.4.1.6
352102345,8.087,13.992956922813397,66.3856965708884,19,45.465897,45.059254,-0.17044993,0.092743926,-1.1206774,1.1373532,5.64339,2.5046775,4.9163804,7.892532,-334,355,1491,1568.0,-0.23542416,-2.7760105,-4.4034925,5.210797,2.785975438756635,1.1813517514507184,5.453612684733969,20.267723302669623,-68.08820291757898,291.911797082421,237.18650607672942,10.992348619285698,40.58266115724058,-44.887362429607435,10.648724120691197,23.205170796047454,-98.01756411013164,-92.74211014629023,58.07,18.793414606445314,,13.9929579,66.3856974,20190520,160858,2019-05-20T16:08:58Z,86.956,0.59,1.33,8.88,11,8,19,-0.01,-3.49,-4.52,0,0,0,10000,5,5,13.993173561394327,66.38573707174015,50,2155533,48,100,270,3423,3423,4388,4397,184,17540,28,212,17543,0,false,false,false,false,false,false,false,false,false,false,5322,5067,5586,5797,52,70,70,53,1497,1472,1511,1537,1483,1482,1505,1511,0.0,0.0,0.0,0.0,1665.0,1659.4,1659.4,1665.0,3.72,2.41,3.43,3.68,0,0,0,0,-25.117788429082964,13.992954490651393,66.3856972063411,0,45.67542,44.571434,-0.16165872,0.08524272,-1.070669,1.0861547,-9.646251,-17.137741,-11.3896,22.726093,-363,374,1470,1559.0,-0.044454906,-2.269633,-4.2184043,4.7904224,2.270068316839045,1.587944340466552,6.117647845007888,19.942464345735356,-70.95580438667953,289.0441956133205,233.6596674719134,16.586078072072652,40.560149685386506,-51.548746548932975,10.717573077336404,7464210.196185852,-94.04123217900239,-88.76577821516098,58.09,NONE,0.0,0.0,0.0,NONE,-2.5814532112249726E-7,-1.8161917800280786E-9,-0.021125793,2,46.76,44.81,47.67,49.66,16.481,16.481,5.896,6.593085,0,3386,4.106,12.0,11.125,99,22.3,OK,87,0,0,0,0,0,65,100,0.0,0,0.0,-5.765587E-28,8.8E-44,0.0,-1.05007105E-23,63,1.6783923E-4,-1.331779E-8,8.290601E-30,False,False,0,None,-1.1791127E-35,7.411776E-16,
356001708,9.101,13.99293511848152,66.38569559502704,19,51.937172,49.71227,-0.074523516,0.026127096,-0.60409653,0.6092364,0.70832545,-1.3725464,-1.5593518,2.194809,252,226,1535,1571.0,-0.22091118,-0.12524652,-3.642918,3.6517584,0.25394574371709683,0.7103628060099374,-1.2103043817005863,-2.861327322046386,-67.11469219607599,292.885307803924,235.77074994154478,3.663680231167671,17.58801614117415,-55.84154680611186,11.578914005458119,24.212493173079658,-156.48485708709038,-151.20940312324896,58.29,25.264689936035158,,13.9929352,66.3856963,20190520,160859,2019-05-20T16:08:59Z,91.469,0.59,1.33,8.8,11,8,19,-0.12,-0.11,-4.53,0,0,0,3844,5,5,13.993173561394327,66.38573707174015,50,2155533,48,100,271,3423,3423,4388,4397,184,17540,28,212,17543,0,false,false,false,false,false,false,false,false,false,false,5077,5202,4861,5046,54,70,71,55,1454,1466,1440,1449,1441,1459,1434,1440,0.0,0.0,0.0,0.0,1679.7,1675.4,1676.0,1679.1,2.31,2.06,2.2,1.76,0,0,0,0,-170.8376529542783,13.992934972552863,66.38569622352014,0,51.783764,48.722954,-0.07509164,0.026294105,-0.627581,0.6326042,0.103235856,-9.7172985,1.5718048,9.844141,244,229,1535,1571.0,-0.12059871,-0.06156101,-3.7317338,3.7341895,0.13540239136597107,0.7292097106112988,-0.8699119814945341,-2.9100684646980994,-69.56928969570959,290.4307103042904,232.84418642995402,9.559392112557795,17.268732533206876,-56.66425712934647,11.557232409985335,7464211.108032307,-108.9974784704268,-103.72202450658538,58.28,NONE,0.0,0.0,0.0,NONE,-2.1557544669769883E-8,-4.369138362703133E-9,-0.019950867,2,41.04,41.08,37.38,36.38,16.525,16.525,5.935,7.754101,0,3383,4.09,12.0,8.855,99,22.4,OK,88,0,0,0,0,0,65,100,0.0,0,0.0,-1.0819701E-25,8.8E-44,0.0,-1.05007105E-23,63,0.0124681,-1.13128884E-7,2.975967E-29,False,False,0,None,-4.0884428E-35,5.574995E-15,
359897110,10.113,13.992940012789889,66.38569468507859,19,53.135456,51.476692,-0.092102595,0.013753875,-0.8825768,0.88747615,-1.8958069,-6.766288,-2.098891,7.3336263,410,213,1517,1585.0,-0.029603057,0.27982673,-0.11032474,0.3022431,0.28138823555872283,-0.04399162799401554,-1.8647639334787283,-8.296568981584477,-67.25635798522417,292.74364201477584,234.20405379304705,2.188268696272852,13.49656400672652,-54.37497365630628,11.420665219014166,24.4855211190772,118.12080687673865,123.39626084058007,58.73,26.46297408520508,,13.9929385,66.3856951,20190520,160900,2019-05-20T16:09:00Z,93.791,0.59,1.33,8.72,11,8,19,0.14,0.42,-2.76,0,0,0,0,5,5,13.993173561394327,66.38573707174015,50,2155533,48,100,272,3423,3423,4388,4397,184,17540,28,212,17543,0,false,false,false,false,false,false,false,false,false,false,5061,4916,4881,5122,53,72,72,53,1485,1473,1434,1476,1465,1469,1456,1470,0.0,0.0,0.0,0.0,1668.7,1663.1,1664.4,1667.4,4.33,2.86,2.9,3.16,0,0,0,0,-86.14651954639794,13.992939584388859,66.38569456103532,0,53.227547,50.910862,-0.09960322,0.011550336,-0.88240814,0.8880869,-5.138947,-10.472276,0.0066945194,11.665221,410,220,1520,1589.0,0.0054559885,0.29364455,-0.25348645,0.3879591,0.2936952230432908,-0.02072609691453281,-1.768206755669036,-8.403996998915972,-69.82097073409233,290.1790292659077,233.37611429145238,9.409782486202294,9.414069436725537,-55.32822992364072,11.443739598599821,7464211.397613351,120.52641777705438,125.80187174089579,58.72,NONE,0.0,0.0,0.0,NONE,5.971094347155346E-8,-4.326301580667027E-9,-0.0024986267,2,46.02,43.84,38.4,42.58,16.66,16.66,6.011,8.560648,0,3381,4.109,12.0,5.265,99,22.4,OK,89,0,0,0,0,0,65,100,0.0,0,0.0,-2.8957112E-27,8.8E-44,0.0,-1.05007105E-23,63,0.15230179,-4.0751374E-7,2.339206E-29,False,False,0,None,-3.3575792E-35,1.7877737E-14,
363746814,11.114,13.99293962798366,66.38569323804977,19,52.788876,51.455982,-0.102465,0.016068574,-0.99360985,0.9990084,8.670839,-2.679279,-0.72398865,9.104183,381,192,1523,1581.0,-0.11758785,-0.08060143,0.21577609,0.2586171,0.14256048746624256,0.019167894308703803,-2.1852684473238697,-6.665321516189759,-67.36782090325417,292.63217909674586,234.63430531141097,1.1971896057586282,15.23540944408237,-50.967221898495914,11.503526237850654,24.68455883156044,24.5723279178908,29.847781881732217,59.12,26.116393579833986,,13.9929395,66.3856938,20190520,160901,2019-05-20T16:09:01Z,93.859,0.59,1.33,8.66,11,8,19,-0.14,-0.03,-0.96,0,0,0,0,5,5,13.993173561394327,66.38573707174015,50,2155533,48,100,273,3423,3423,4388,4397,184,17540,28,212,17543,0,false,false,false,false,false,false,false,false,false,false,5097,5051,5236,5226,54,72,71,54,1496,1496,1503,1507,1490,1463,1488,1514,0.0,0.0,0.0,0.0,1660.7,1657.6,1656.4,1660.0,3.89,3.35,4.45,3.54,0,0,0,0,-6.540385828196634,13.992939943702428,66.38569316845076,0,52.931236,51.175697,-0.100660786,0.013986261,-0.95505613,0.960448,0.35061646,-15.055713,0.5906694,15.071374,384,192,1520,1579.0,-0.09940386,-0.051679276,0.09447092,0.14654906,0.11203514592460717,0.04355705065617249,-2.1948018610841733,-7.150677073707117,-69.88742576131271,290.1125742386873,233.3070524856393,9.718973678404723,11.150668092328681,-52.35993654193121,11.494074531320726,7464211.605046441,-153.76628675852533,-148.4908327946839,59.08,NONE,0.0,0.0,0.0,NONE,2.3525082728515256E-10,-2.0389301324529876E-9,3.8146973E-5,2,45.25,45.91,46.89,45.81,16.979,16.979,5.981,8.915302,0,3380,4.139,12.0,6.76,99,22.4,OK,90,0,0,0,0,0,65,100,0.0,0,0.0,-2.9530515E-28,8.8E-44,0.0,-1.05007105E-23,63,0.22595215,-4.7865996E-7,2.3508002E-29,False,False,0,None,-3.3782238E-35,2.1780864E-14,
367694729,12.140,13.992934376350636,66.38569105389601,18,53.31922,51.438396,-0.09543554,0.0036874423,-1.0051124,1.0096397,4.8156776,-5.5226765,-0.064040706,7.3276744,335,272,1499,1559.0,-0.12633514,-0.17025071,-0.2820573,0.35284868,0.21200441816175128,0.11663418902656267,0.6114266469460953,-5.237454470735266,-67.22773401428462,292.77226598571536,233.76021687437046,3.178727804780718,17.81399375130148,-52.48826379594538,11.818932550510064,25.023181065120344,-143.81782042330886,-138.54236645946744,59.4,26.646739496582033,,13.992935,66.3856913,20190520,160902,2019-05-20T16:09:02Z,93.924,0.61,1.36,8.61,11,7,18,-0.22,-0.22,-0.43,0,0,0,0,5,5,13.993173561394327,66.38573707174015,50,2158639,48,100,274,3435,3424,4377,4385,0,17494,26,212,5,0,false,false,false,false,false,false,false,false,false,false,5226,5273,5325,5288,54,71,71,53,1502,1508,1508,1513,1506,1488,1481,1510,0.0,0.0,0.0,0.0,1662.5,1656.4,1655.8,1660.0,3.92,3.44,4.12,3.64,0,0,0,0,36.384351815835885,13.992935102133305,66.38569061778355,0,53.286427,50.69063,-0.09485346,6.612949E-4,-1.0224856,1.026876,0.87852836,-3.2477858,-1.8372316,3.8334508,335,272,1502,1562.0,-0.08580453,-0.15116294,-0.10831559,0.20480458,0.17381787001974222,0.17343509263899473,1.0070817406181696,-5.347015735829712,-69.62111841136083,290.37888158863916,230.41955959715148,8.94881201785155,11.265205267198915,-51.81227723648342,11.810927583753205,7464211.971691951,-172.87461156486592,-167.5991576010245,59.42,NONE,0.0,0.0,0.0,NONE,-1.7451333847488974E-8,-4.112128360228718E-9,-4.348755E-4,2,45.71,47.43,47.59,46.83,16.802,16.802,5.959,8.915302,0,3380,4.239,12.0,6.76,99,22.4,OK,90,0,0,0,0,0,65,100,0.0,0,0.0,-2.6833597E-29,8.8E-44,0.0,-1.05007105E-23,63,0.1232605,-3.7815525E-7,3.6827064E-29,False,False,0,None,-4.7168915E-35,1.6246229E-14,
371672307,13.174,13.992932366025201,66.38568997480434,19,53.017036,51.75518,-0.08829152,0.016618088,-0.9395847,0.9438702,-4.390562,-2.4767332,0.9101513,5.122462,349,254,1526,1585.0,-4.386902E-5,-0.0964288,-0.17030776,0.19571216,0.09642880573130706,0.04840116861256823,0.16952605553734362,-5.703694747164202,-67.03881953537041,292.9611804646296,236.41845492770975,3.8754220561668373,14.713149709544782,-51.91166373216141,11.951800137919179,25.19307926044184,-89.41438384428096,-84.13892988043955,59.63,26.344554437988283,,13.9929322,66.3856903,20190520,160903,2019-05-20T16:09:03Z,94.236,0.59,1.33,8.54,11,8,19,-0.03,-0.05,-0.39,0,0,0,0,5,5,13.993173561394327,66.38573707174015,50,2158639,48,100,275,3435,3424,4377,4385,0,17494,26,212,5,0,false,false,false,false,false,false,false,false,false,false,4676,4575,4792,5138,55,72,72,55,1447,1437,1461,1460,1439,1436,1441,1452,0.0,0.0,0.0,0.0,1672.3,1668.0,1666.8,1671.7,3.32,2.34,3.31,2.93,0,0,0,0,-33.35775182158454,13.992932868490783,66.38568995417405,0,52.885845,51.209557,-0.08921597,0.01795229,-0.92118317,0.92566746,-8.297698,-8.304902,-8.497955,14.4927025,352,254,1529,1589.0,0.074718796,-0.018651191,-0.064458795,0.1004276,0.07701146363988383,0.04281281338339593,0.11754300546468277,-5.8984810345453464,-69.64176974933403,290.358230250666,230.60533372192185,9.051536255432985,10.047145068803603,-52.433940394661285,11.932693191449712,7464212.1440227,69.17923563945006,74.45468960329147,59.66,NONE,0.0,0.0,0.0,NONE,-7.592184986883295E-9,2.647182484546704E-9,-0.0011787415,2,39.06,38.4,41.69,43.25,16.754,16.754,5.996,8.832164,0,3376,4.185,12.0,6.754,99,22.5,OK,92,0,0,0,0,0,65,100,0.0,0,0.0,-1.3602843E-29,8.8E-44,0.0,-1.05007105E-23,63,0.22922134,-4.848882E-7,4.3099432E-29,False,False,0,None,-5.7343553E-35,2.1953903E-14,
375526464,14.175,13.992931856536021,66.38569066583129,19,52.864944,51.59689,-0.08506285,0.03652008,-0.93870634,0.9432598,-3.079382,-8.319592,-1.9202003,9.076639,349,195,1547,1597.0,0.057228364,-0.05799473,0.3029707,0.31373513,0.08147683574145309,-0.0014912012305022954,-2.0220771437068312,-5.447713193815099,-67.58188121131523,292.41811878868475,235.53086389835335,2.038003768521203,13.406955827506984,-51.09884005993632,11.938792157639368,25.30042530746775,-51.54514590426499,-46.26969194042357,59.94,26.192462458007814,,13.992931,66.3856909,20190520,160904,2019-05-20T16:09:04Z,94.226,0.59,1.33,8.53,11,8,19,0.06,-0.07,-0.12,0,0,0,0,5,5,13.993173561394327,66.38573707174015,50,2158639,48,100,276,3435,3424,4377,4385,0,17494,26,212,5,0,false,false,false,false,false,false,false,false,false,false,4728,4417,5051,5003,55,72,73,55,1470,1428,1487,1476,1462,1416,1467,1470,0.0,0.0,0.0,0.0,1668.0,1664.4,1663.7,1667.4,3.66,2.68,4.06,3.18,0,0,0,0,-16.13668607837718,13.992932165775152,66.38569059012963,0,52.820396,51.647717,-0.0774598,0.044119313,-0.95237267,0.9565356,-0.96728563,-4.771607,1.0351809,4.9774966,347,195,1544,1594.0,0.11670722,-0.022960292,0.25880647,0.28483072,0.11894431513100383,-0.04174122488219259,-1.6254127793104394,-5.096979064178804,-70.08572369877935,289.91427630122064,230.64213881935018,6.460662442851088,11.043120059040488,-48.79704635084432,11.930016904673256,7464212.249570885,-29.477885189425162,-24.202431225583744,59.95,NONE,0.0,0.0,0.0,NONE,-1.5184368830526018E-9,4.874584766172172E-9,0.0010719299,2,41.13,36.51,44.86,42.03,16.804,16.804,5.994,8.590892,0,3374,4.167,12.0,6.216,99,22.5,OK,93,0,0,0,0,0,65,100,0.0,0,0.0,-4.4407322E-29,8.8E-44,0.0,-1.05007105E-23,63,0.3684311,-6.37465E-7,4.214263E-29,False,False,0,None,-5.5642025E-35,2.6194001E-14,
379425942,15.189,13.992929830213525,66.3856907821543,19,52.3471,51.083042,-0.07201337,0.028416682,-0.98561615,0.98865193,5.3217998,-0.08646163,7.9759703,9.588802,284,173,1547,1582.0,0.007559631,-0.064645946,0.53682965,0.5407609,0.06508645015304483,0.024881875252683233,-3.015788722498336,-3.1336993155729718,-67.78402113753273,292.2159788624673,235.9436005264419,0.8642994540042033,10.42659897297378,-51.85220037946035,12.014699570561152,25.448474736261385,-108.710871254626,-103.43541729078459,60.32,25.67461730419922,,13.9929292,66.3856911,20190520,160905,2019-05-20T16:09:05Z,93.825,0.59,1.33,8.53,11,8,19,0.01,-0.13,0.19,0,0,0,0,5,5,13.993173561394327,66.38573707174015,50,2158639,48,100,277,3435,3424,4377,4385,0,17494,26,212,5,0,false,false,false,false,false,false,false,false,false,false,4804,4318,5321,5057,55,73,72,55,1473,1418,1505,1483,1471,1393,1496,1487,0.0,0.0,0.0,0.0,1665.6,1660.7,1660.7,1665.6,3.9,2.64,4.36,3.55,0,0,0,0,-10.023593148183522,13.992930165886413,66.38569076097082,0,52.509075,51.76379,-0.07562626,0.027986817,-0.97337633,0.97671086,-6.8493066,-9.14346,-4.4379315,12.256064,284,176,1547,1582.0,0.062311675,-0.013636218,0.4273386,0.43207288,0.06378629385271127,0.026086844521404792,-2.1532003234034205,-3.2554333183368898,-70.19599718055102,289.804002819449,230.6331416712526,7.968103067963141,11.548025584108537,-50.031542358404344,12.002201649137865,7464212.381243776,-31.974529343471655,-26.699075379630237,60.31,NONE,0.0,0.0,0.0,NONE,-1.0821535955055309E-8,7.187656463472683E-9,0.0036811829,2,41.8,34.59,50.57,45.06,16.822,16.822,5.987,8.258681,0,3372,4.186,12.0,6.341,99,22.6,OK,94,0,0,0,0,0,65,100,0.0,0,0.0,-9.6105445E-29,8.8E-44,0.0,-1.05007105E-23,63,0.40776062,-6.7497984E-7,4.5320415E-29,False,False,0,None,-6.1293214E-35,2.7236136E-14,
383438766,16.232,13.992928354805747,66.38568994261976,19,52.22378,50.559616,-0.077918746,0.03801914,-0.9984364,1.0021936,-5.7611876,23.049511,5.351193,24.353779,344,223,1523,1577.0,0.01517655,-0.09760737,0.46646148,0.47680587,0.09878018671559884,0.01068616403372287,-1.2817398613970648,-4.630297988161791,-67.29050067867765,292.70949932132237,237.1622960139364,4.104553588596829,10.299015360895442,-49.38980878679833,12.114204410224824,25.585186583442805,-114.90965068936127,-109.63419672551986,60.67,25.55129958569336,,13.992928,66.3856901,20190520,160906,2019-05-20T16:09:06Z,93.199,0.59,1.33,8.53,11,8,19,-0.11,-0.07,0.44,0,0,0,0,5,5,13.993173561394327,66.38573707174015,50,2158642,114,100,278,3435,3424,4377,4385,0,17495,26,3423,4,0,false,false,false,false,false,false,false,false,false,false,4673,4443,5253,5165,55,72,72,56,1439,1422,1517,1482,1437,1419,1504,1461,0.0,0.0,0.0,0.0,1667.4,1662.5,1661.9,1667.4,2.87,2.46,4.56,3.33,0,0,0,0,-6.224247662325411,13.992928278169554,66.38568964283562,0,51.89063,51.677525,-0.07955055,0.04161145,-0.9856437,0.98972386,-6.056355,18.4541,-0.9541642,19.445917,332,220,1526,1577.0,0.040547866,-0.036054663,0.36073622,0.36479405,0.05425926911326102,0.08965834076792434,-1.2299257008844113,-3.8385368694596864,-69.90717088834819,290.0928291116518,229.65690049258777,9.041755105830475,7.541501184322755,-47.762875383667435,12.131736000424937,7464212.552522999,-98.43584237851795,-93.16038841467653,60.65,NONE,0.0,0.0,0.0,NONE,-1.7323011677720018E-9,1.3621422992408681E-9,0.0018577576,2,37.53,35.66,48.63,45.63,16.815,16.815,5.98,7.8985324,0,3370,4.194,12.0,6.813,99,22.6,OK,95,0,0,0,0,0,65,100,0.0,0,0.0,-3.0842613E-29,8.8E-44,0.0,-1.05007105E-23,63,0.3775406,-6.461525E-7,5.1843356E-29,False,False,0,None,-7.1687523E-35,2.6435127E-14,
387314756,17.239,13.992926743615453,66.38569011017363,19,52.122917,50.210804,-0.08022625,0.044538364,-1.0066915,1.0108647,-0.7484996,-9.589592,-5.822849,11.243936,309,176,1544,1584.0,0.049971215,-0.038916558,0.3330689,0.33903763,0.06333735680792632,0.010266461923377879,-2.768462464261326,-4.1497811839822365,-67.27128166421168,292.7287183357883,239.88273547502584,4.761804727720096,11.291471548224958,-51.77403427181138,12.170942119177132,25.675282859602767,-92.94215488130524,-87.66670091746383,61.0,25.45043517529297,,13.9929255,66.3856904,20190520,160907,2019-05-20T16:09:07Z,92.576,0.59,1.33,8.53,11,8,19,0.09,-0.07,0.41,0,0,0,0,5,5,13.993173561394327,66.38573707174015,50,2173244,16,100,279,3434,3432,4363,4368,-633,17451,21,0,16726,0,false,false,false,false,false,false,false,false,false,false,5086,4770,5119,5168,57,74,73,55,1489,1459,1467,1494,1485,1450,1464,1480,0.0,0.0,0.0,0.0,1666.2,1660.7,1659.4,1664.4,4.06,2.76,3.45,3.4,0,0,0,0,-40.260186870808354,13.992926711848103,66.3856899536686,0,52.158524,51.53673,-0.08073157,0.045461636,-1.0103624,1.0146017,-5.606269,-6.458914,-3.5687394,9.267347,309,176,1535,1575.0,0.09508449,0.0022624203,0.29880258,0.3135748,0.0951113994803438,-0.01782018069905099,-2.215667990164395,-3.9317105697189394,-69.63132517901973,290.3686748209803,228.35935463913705,7.303118476969603,6.592977267927998,-49.125206635280556,12.179696151289576,7464212.672774589,-31.705815852130154,-26.430361888288736,61.04,NONE,0.0,0.0,0.0,NONE,4.148968360247574E-9,4.8317501649991184E-9,0.0015182495,2,46.05,41.1,42.37,44.87,16.779,16.779,5.977,7.8985324,0,3370,4.19,12.0,6.813,99,22.6,OK,95,0,0,0,0,0,65,100,0.0,0,0.0,-7.3279323E-29,8.8E-44,0.0,1.4640026E-27,64,0.32492065,-5.959775E-7,5.734535E-29,False,False,0,None,-7.658052E-35,2.5040843E-14,
391166282,18.240,13.992925289936299,66.38569021968975,18,52.022125,49.95257,-0.093957774,0.0489894,-1.0134354,1.0189599,0.5137081,6.9328985,0.6244693,6.9798956,341,183,1532,1580.0,0.008044871,-0.0018766334,0.12016837,0.12045198,0.008260853100775156,0.05755898846732956,-2.4565637847061317,-5.2587109735029935,-67.23427616536593,292.76572383463406,239.93011599018746,5.452633429323036,9.764177503057091,-51.17143974005822,12.224266461863904,25.77935621608265,179.41171827784382,-175.31282775831477,61.23,25.349643244140626,,13.9929249,66.3856903,20190520,160908,2019-05-20T16:09:08Z,92.151,0.61,1.36,8.5,11,7,18,-0.03,0.0,0.33,0,0,0,0,5,5,13.993173561394327,66.38573707174015,50,2173244,16,100,279,3434,3432,4363,4368,-633,17451,21,0,16726,0,false,false,false,false,false,false,false,false,false,false,5189,4918,5051,5170,56,74,73,56,1494,1469,1474,1491,1489,1458,1461,1489,0.0,0.0,0.0,0.0,1664.4,1659.4,1659.4,1663.7,4.12,3.08,3.48,3.34,0,0,0,0,-73.70595254340111,13.992925708289428,66.38568994930804,0,51.974537,51.21603,-0.08896998,0.046551153,-1.0007874,1.0058122,0.5476552,7.406435,6.226636,9.691553,344,180,1538,1586.0,0.039091773,0.03538897,0.15775996,0.16633926,0.05273088249368073,-0.008071919595180999,-1.8573709069974764,-4.954787182525645,-69.55427958895767,290.4457204110423,229.8678950331469,8.606985898119657,5.020505195276415,-47.510761592115806,12.220272723194087,7464212.792162378,,,61.27,NONE,0.0,0.0,0.0,NONE,1.394395603689499E-8,3.5295765141319774E-9,0.002155304,2,45.89,42.43,43.37,45.39,16.765,16.765,5.976,7.5693793,0,3369,4.182,12.0,6.739,99,22.6,OK,96,0,0,0,0,0,65,100,0.0,0,-402.48328,-9.798322E-29,-7.0246882,-6.6153255,1.464021E-27,64,0.22748566,-4.815849E-7,6.2442134E-29,False,False,0,None,-8.111352E-35,2.1862396E-14,
395018324,19.241,13.992926178649846,66.38569021272001,19,51.746456,50.014698,-0.0812958,0.041352473,-0.9892306,0.9934265,0.34020147,1.7130866,-1.1673235,2.1007254,312,189,1538,1580.0,0.0022250805,-0.001773865,-0.059154637,0.05922304,0.0028456248129101387,0.036702613981249285,-2.088349825313784,-4.123598918891252,-67.26118230742082,292.7388176925792,240.29058739536654,6.4195813937615975,11.729642477293739,-50.60187602378929,12.18879904239049,25.843814086052255,38.87753507705326,44.15298904089468,61.53,25.073974146240236,,13.9929256,66.3856903,20190520,160909,2019-05-20T16:09:09Z,92.064,0.59,1.33,8.43,11,8,19,-0.02,0.0,0.12,0,0,0,0,5,5,13.993173561394327,66.38573707174015,50,2173245,20,100,280,3434,3432,4335,4350,-1435,17265,21,2,16726,0,false,false,false,false,false,false,false,false,false,false,5229,4932,4987,5190,56,74,74,55,1497,1469,1474,1495,1492,1461,1467,1480,0.0,0.0,0.0,0.0,1663.1,1658.8,1658.2,1662.5,4.06,2.92,3.55,3.22,0,0,0,0,-88.16716049405795,13.992926236235075,66.3856898912587,0,51.728783,51.127907,-0.08105559,0.04247998,-0.98063856,0.9848993,7.6892085,-0.746919,3.734067,8.580505,312,186,1544,1586.0,0.033731114,0.019570349,0.053338647,0.066074185,0.038997264868739785,-0.014639085334223603,-1.5293349705812014,-3.9013812943976194,-69.63428785707475,290.36571214292525,230.26724327071926,9.037607665289327,5.758714060064753,-47.71147889379696,12.201806318205382,7464212.852387986,47.35989604402297,52.63535000786439,61.53,NONE,0.0,0.0,0.0,NONE,4.640856651765211E-9,4.574742473220562E-9,5.340576E-4,2,46.46,42.23,43.12,45.31,16.766,16.766,5.974,7.2966294,0,3365,4.179,12.0,6.917,99,22.6,OK,97,0,0,0,0,0,65,100,0.0,0,-8852.422,-8.1176786E-29,-154.50487,-6.6153255,1.464021E-27,64,0.20866776,-4.612685E-7,6.133896E-29,False,False,0,None,-8.013198E-35,2.086493E-14,
398921496,20.255,13.992928440800624,66.38569056981171,19,51.87767,50.136703,-0.07801301,0.017834108,-0.96827257,0.9715739,11.222816,-4.361203,26.17659,28.81294,341,189,1547,1595.0,0.029074416,0.07918697,-0.08210642,0.117717296,0.08435577785119996,0.022407633396765422,-1.8344278466317787,-4.92127351515311,-64.18900045095918,295.81099954904084,245.57237786507065,9.317675520293847,10.95483792247058,-48.95099685805838,12.080736686164428,25.9541157405665,58.6780156570889,63.95346962093032,61.76,25.20518828808594,,13.9929274,66.3856905,20190520,160910,2019-05-20T16:09:10Z,92.057,0.59,1.33,8.38,11,8,19,0.03,0.1,0.03,0,0,1176,0,5,5,13.993173561394327,66.38573707174015,50,2173246,114,100,281,3433,3432,4287,4312,-2879,17336,21,3424,17433,0,false,false,false,false,false,false,false,false,false,false,4996,5205,4509,5537,57,74,74,57,1505,1501,1416,1511,1487,1483,1452,1485,0.0,0.0,0.0,0.0,1661.9,1657.0,1657.0,1660.0,3.93,4.57,1.34,4.65,0,0,0,0,-100.71677383070715,13.99292818969385,66.3856901355097,0,51.909534,51.150097,-0.07836385,0.046564832,-0.98700684,0.9912072,8.621809,5.752867,22.324022,24.612864,347,186,1538,1587.0,0.041590434,0.073559344,0.049204033,0.09778435,0.08450290656469422,0.0053532864887320675,-1.402856566639202,-4.838280595207736,-65.83775420930425,294.16224579069575,237.6192998029736,12.102294958844565,9.26868355014103,-45.92843982172001,12.111577577800814,7464212.950052636,66.59682452579649,71.8722784896379,61.81,NONE,0.0,0.0,0.0,NONE,1.6296464476879438E-8,2.784253370852531E-9,2.784729E-4,2,46.69,45.41,36.11,49.97,16.768,16.768,5.974,7.087589,0,3363,4.177,12.0,6.915,98,22.7,OK,98,0,0,0,0,0,65,100,0.0,0,-389754.53,-6.9180553E-29,-7068.656,-6.6153255,1.464021E-27,64,0.21254349,-4.649647E-7,5.344881E-29,False,False,0,None,-7.311575E-35,2.1070495E-14,
402775194,21.257,13.992930926846054,66.38569077360171,19,51.972134,50.26703,-0.09278698,0.032031074,-0.98072845,0.98562855,-1.498389,-9.856282,-6.5562763,11.932152,241,213,1559,1591.0,0.023828283,0.11560287,-0.11545026,0.16510777,0.11803309615183384,-0.0051802005445379384,-1.1757032976390078,-5.301635244387396,-82.76089826598812,277.2391017340119,226.45511836876256,9.383409807751164,10.714212543789321,-68.52686894246627,11.970989856903312,26.07236795841556,75.72395645944124,80.99941042328265,62.03,25.29965163647461,,13.9929299,66.3856906,20190520,160911,2019-05-20T16:09:11Z,92.052,0.59,1.33,8.36,11,8,19,-0.01,0.11,0.0,0,0,0,0,5,5,13.993173561394327,66.38573707174015,50,2173246,114,100,281,3433,3432,4287,4312,-2879,17336,21,3424,17433,0,false,false,false,false,false,false,false,false,false,false,5166,4858,5089,5114,56,74,74,57,1487,1458,1474,1495,1481,1450,1470,1488,0.0,0.0,0.0,0.0,1663.1,1659.4,1659.4,1663.1,3.8,2.9,3.32,3.25,0,0,0,0,-61.74030175438486,13.992930919309293,66.38569032119736,0,51.903297,51.172188,-0.09094413,0.030503761,-0.9732029,0.97791874,6.099023,-6.9368906,3.757942,9.971993,244,213,1553,1586.0,0.03763863,0.091136016,0.037795745,0.1055981,0.09860243187779437,0.02452952119170905,-0.6776489345933598,-5.284260180677392,-85.0628162821744,274.93718371782563,221.03608841091472,10.224117646648894,9.611724023056778,-66.58681547011395,11.993012134711856,7464213.082316966,72.31317048899922,77.58862445284063,62.07,NONE,0.0,0.0,0.0,NONE,1.9696907923848695E-8,4.069293370324591E-9,3.7765503E-4,2,45.46,41.92,43.27,44.27,16.771,16.771,5.97,6.9408197,0,3361,4.177,12.0,6.971,98,22.7,OK,99,0,0,0,0,0,65,100,0.0,0,-3467426.0,-4.2543597E-29,-60518.246,-6.6153255,1.464021E-27,64,0.21652603,-4.6875547E-7,4.645209E-29,False,False,0,None,-6.330625E-35,2.1281264E-14,
406630389,22.259,13.99293338656477,66.38569095891864,19,51.88183,50.23749,-0.080461465,0.03740345,-0.9881993,0.9921748,-3.89208,-5.275848,-8.724485,10.913272,295,192,1541,1580.0,0.06990155,0.04857401,-0.045207035,0.09638121,0.08512144711827102,0.02614414335506529,-1.9639396549063544,-4.803466770290925,-72.52046974193337,287.47953025806663,235.76788149401986,10.225895129686823,12.975252418615705,-55.91972393441477,11.863249879217,26.19449023359891,49.45488154654289,54.730335510384315,62.35,25.20934630810547,,13.9929321,66.385691,20190520,160912,2019-05-20T16:09:12Z,92.002,0.59,1.33,8.37,11,8,19,0.04,0.06,0.02,0,0,0,0,5,5,13.993173561394327,66.38573707174015,50,2173246,114,100,281,3433,3432,4287,4312,-2879,17336,21,3424,17433,0,false,false,false,false,false,false,false,false,false,false,5214,4934,4955,5153,57,74,74,57,1497,1473,1459,1489,1484,1455,1469,1486,0.0,0.0,0.0,0.0,1663.1,1658.2,1659.4,1660.7,4.06,2.99,3.4,3.05,0,0,0,0,-94.78348094876748,13.992933129640596,66.38569058199106,0,51.77546,51.189922,-0.0846415,0.038725663,-0.9886139,0.992986,-7.2507563,-2.2278962,-11.179517,13.509944,292,192,1544,1583.0,0.059398,0.034769457,0.05563155,0.08849806,0.06882613772403848,0.0336093472051953,-1.7071063369445718,-4.680891917099316,-74.80103057401756,285.19896942598245,232.93393806750544,10.312069848776947,8.784718781493197,-55.1680972802291,11.891730449540427,7464213.192268004,50.76431676006988,56.0397707239113,62.36,NONE,0.0,0.0,0.0,NONE,1.0094398018998824E-8,5.063057634063767E-9,6.713867E-4,2,46.44,41.44,43.01,44.37,16.761,16.761,5.968,6.848671,0,3359,4.18,12.0,7.005,98,22.7,OK,100,0,0,0,0,0,65,100,0.0,0,-2.8602512E7,-3.225451E-29,-499209.97,-6.6153255,1.464021E-27,64,0.22015,-4.7221155E-7,4.1558688E-29,False,False,0,None,-5.460465E-35,2.1473385E-14,
410529978,23.272,13.99293536339904,66.38569123624917,19,51.676346,50.21831,-0.09805002,0.023261901,-0.9695085,0.97473156,3.0721393,-14.17781,-9.264887,17.212973,301,192,1532,1573.0,0.02019376,0.09179737,0.0031159571,0.094043896,0.0939922580282755,-0.0019372384547789584,-1.6610018689863273,-5.369728733233754,-72.56305889516739,287.4369411048326,236.06974694737585,11.79981494025877,12.607394540214559,-56.420592253987614,11.770522614513041,26.31746501377061,92.0921204193623,97.36757438320372,62.7,25.003863825195314,,13.9929345,66.3856911,20190520,160913,2019-05-20T16:09:13Z,91.9,0.59,1.33,8.43,11,8,19,0.02,0.09,0.04,0,0,0,0,5,5,13.993173561394327,66.38573707174015,50,2173246,114,100,281,3433,3432,4287,4312,-2879,17336,21,3424,17433,0,false,false,false,false,false,false,false,false,false,false,4960,4787,5035,5136,57,73,74,57,1476,1461,1483,1484,1472,1448,1462,1479,0.0,0.0,0.0,0.0,1663.1,1659.4,1658.2,1662.5,3.69,2.99,3.74,3.28,0,0,0,0,-32.871612064291185,13.99293530145492,66.38569070882407,0,51.499657,51.19758,-0.0933236,0.024002492,-0.978128,0.98286307,1.801686,2.8618407,5.339517,6.320336,301,189,1532,1572.0,0.0033968322,0.0665326,0.068854876,0.095807716,0.06661925444444639,0.029840005627570707,-1.479545981259212,-5.308962840966494,-74.77140957499695,285.22859042500306,233.23551953410905,9.971981496809176,7.595937075366869,-55.259188976037045,11.798517245777036,7464213.311714362,93.18211636792239,98.4575703317638,62.64,NONE,0.0,0.0,0.0,NONE,1.3730092330606587E-8,7.02488536870171E-10,6.5231323E-4,2,45.7,42.35,43.06,43.64,16.76,16.76,5.976,6.799217,1777,3357,4.18,12.0,6.894,98,22.7,OK,101,0,0,0,0,0,65,100,0.0,0,-1.540844E8,-2.2175445E-29,-2689295.8,-6.6153255,1.464021E-27,64,0.22179413,-4.7378316E-7,3.7217642E-29,False,False,0,None,-4.7515686E-35,2.1560555E-14,
414502063,24.305,13.992937978597183,66.38569098940312,19,51.321613,50.160454,-0.094804704,0.006467076,-0.98109835,0.98568946,5.5908513,-12.693245,2.9677753,14.183927,238,226,1547,1581.0,0.04836818,0.04361248,0.012314279,0.066281,0.06512702143372823,0.0508022080149613,-0.6538662495212435,-5.202072152409985,-83.50756805750208,276.4924319424979,224.4655563521748,10.752966286538875,11.010409836143719,-68.2913824480585,11.677649582418992,26.444952317362443,101.86648771805903,107.14194168190045,63.07,24.64913131176758,,13.9929365,66.3856908,20190520,160914,2019-05-20T16:09:14Z,91.769,0.59,1.33,8.46,11,8,19,-0.01,0.05,0.05,0,0,0,0,5,5,13.993173561394327,66.38573707174015,50,2173246,114,100,281,3433,3432,4287,4312,-2879,17336,21,3424,17433,0,false,false,false,false,false,false,false,false,false,false,5021,4740,5285,5031,57,73,73,58,1476,1462,1491,1477,1465,1443,1501,1483,0.0,0.0,0.0,0.0,1663.1,1657.6,1658.2,1660.0,3.72,3.09,4.0,3.01,0,0,0,0,-2.7851664221143437,13.992937695880697,66.38569042122451,0,51.18487,51.1811,-0.09447304,0.012950222,-0.98184377,0.9864634,-0.51879215,-3.9350998,-8.072743,8.995741,241,226,1547,1581.0,0.015428827,0.023995236,0.065850265,0.07176404,0.028527531440662755,0.07933012023146828,-0.49947453287406846,-5.334601217505939,-85.42453455232304,274.57546544767695,219.4027813218036,9.253844570380197,6.24723353546122,-68.0901000362222,11.716800073928155,7464213.429806972,100.3459810240149,105.62143498785632,63.03,NONE,0.0,0.0,0.0,NONE,7.763276460896082E-9,4.223498164941502E-9,6.5612793E-4,2,44.89,42.4,45.51,42.56,16.771,16.771,5.976,6.774974,1782,3355,4.176,12.0,6.776,98,22.8,OK,102,0,0,0,0,0,65,100,0.0,0,-1.01836144E8,-6.951595E-30,-3153039.8,-6.6153255,1.464021E-27,64,0.2187233,-4.7085095E-7,3.3324953E-29,False,False,0,None,-4.405459E-35,2.1397924E-14,
418382815,25.313,13.992938552930053,66.38569102992531,19,51.619457,50.008984,-0.09013971,-0.011886561,-0.99886745,1.0029968,7.4295287,-6.5600586,0.41750005,9.920009,186,250,1556,1586.0,0.03210075,0.028966118,0.04599718,0.06312872,0.04323764539182676,-0.017483027951537278,0.8067641865394091,-5.625482058663995,-93.10071586663089,266.8992841333691,214.38460420611526,11.095159892716906,11.549594865826386,-81.95222893799328,11.652686958571447,26.516982286516036,54.0846368985188,59.360090862360224,63.38,24.946975244873048,,13.9929374,66.3856909,20190520,160915,2019-05-20T16:09:15Z,91.617,0.59,1.33,8.36,11,8,19,0.01,0.04,0.08,0,0,0,0,5,5,13.993173561394327,66.38573707174015,50,2173246,114,100,281,3433,3432,4287,4312,-2879,17336,21,3424,17433,0,false,false,false,false,false,false,false,false,false,false,4870,5012,5202,5136,56,76,75,57,1469,1472,1483,1514,1454,1451,1487,1514,0.0,0.0,0.0,0.0,1661.3,1657.0,1655.8,1660.0,3.52,3.22,3.76,3.75,0,0,0,0,24.519642688190743,13.992938146728227,66.38569051807337,0,51.486732,51.15192,-0.08682979,-0.015177808,-0.992739,0.9966447,2.5482972,2.9544702,-4.1187634,5.6733522,189,250,1556,1587.0,0.0032304726,0.017311545,0.048576154,0.0516698,0.017610382080104566,0.00498260855804511,1.238564860190803,-5.6253397634537485,-95.18255905588273,264.81744094411727,210.16449112283686,9.72152543846337,3.3741669867574666,-80.79029087364869,11.694025894649133,7464213.498094888,-176.9901836608225,-171.7147296969811,63.35,NONE,0.0,0.0,0.0,NONE,4.876107555743085E-9,1.4906464176791707E-9,5.0354004E-4,2,42.96,43.46,44.48,46.6,16.76,16.76,5.965,6.764286,1784,3353,4.177,12.0,6.896,98,22.8,OK,103,0,0,0,0,0,65,100,0.0,0,-2.54543616E8,-7.0948844E-30,-4442655.5,-6.6153255,1.464021E-27,64,0.21380234,-4.6615796E-7,3.2231024E-29,False,False,0,None,-4.3081868E-35,2.1136848E-14,
422360362,26.347,13.992938617410172,66.38569132149495,18,51.301548,49.925137,-0.09245451,-0.022268495,-0.99418586,0.9987238,1.5274136,-4.7510686,10.504603,11.629804,181,269,1541,1574.0,0.056053042,0.0061123464,0.02470367,0.06155953,0.05638531991342018,-0.024899819029098075,1.5425415934645297,-5.559360856666132,-93.15663725320552,266.84336274679447,214.18983446673127,11.277386103050135,10.5900654862571,-82.43230555176707,11.635896005691878,26.570402623790876,-12.954505963621038,-7.6790519997796185,63.63,24.629066004150392,,13.9929376,66.3856912,20190520,160916,2019-05-20T16:09:16Z,91.499,0.61,1.36,8.33,11,7,18,0.01,-0.01,0.1,0,0,0,0,5,5,13.993173561394327,66.38573707174015,50,2173246,114,100,281,3433,3432,4287,4312,-2879,17336,21,3424,17433,0,false,false,false,false,false,false,false,false,false,false,4942,5055,5187,5209,57,73,74,56,1477,1500,1478,1474,1468,1479,1472,1477,0.0,0.0,0.0,0.0,1663.1,1657.6,1658.2,1661.9,3.66,3.34,3.54,2.78,0,0,0,0,12.847704858717634,13.992938328619896,66.38569096562559,0,51.459003,51.114227,-0.10144009,-0.023669649,-0.9954497,1.0008849,2.4524984,-3.5997176,4.033319,5.936361,183,272,1541,1575.0,0.035809133,0.01510212,0.036414556,0.053257752,0.038863454272822236,0.009911277975904756,1.528630727125646,-5.760633861106475,-95.22825851446841,264.7717414855316,209.56345474861902,9.576605699348141,3.213833001423414,-83.3940360917674,11.664803727897514,7464213.567712627,25.98576386875958,31.261217832600998,63.63,NONE,0.0,0.0,0.0,NONE,2.5663724258344373E-10,7.795909454440469E-10,1.8692017E-4,2,43.65,46.84,43.81,43.19,16.757,16.757,5.963,6.7654815,1783,3351,4.175,12.0,6.89,98,22.9,OK,104,0,0,0,0,0,65,100,0.0,0,-6.001206E7,-1.2491725E-29,-4927519.5,-6.6153255,1.464021E-27,64,0.20554733,-4.5828537E-7,3.0824325E-29,False,False,0,None,-4.1831436E-35,2.0699264E-14,
426214429,27.349,13.992938973366092,66.38569197444889,19,50.87336,49.78054,-0.092126325,-0.021564636,-0.9892805,0.9937949,10.43714,1.2943823,-4.25547,11.345411,215,247,1532,1566.0,-0.021241602,-0.05080986,0.04298822,0.06986297,0.0550712971817781,0.01912210109158366,1.1754748277169473,-6.406420902422927,-93.39208544683098,266.60791455316905,212.87264660268175,11.31415105820964,8.789041129875004,-78.92466200789477,11.590040504767906,26.66338722858818,-99.71765254161052,-94.4421985777691,63.88,24.200877680175783,,13.9929379,66.3856917,20190520,160917,2019-05-20T16:09:17Z,91.405,0.59,1.33,8.34,11,8,19,0.02,0.01,0.09,0,85,0,0,5,5,13.993173561394327,66.38573707174015,50,2173246,114,100,281,3433,3432,4287,4312,-2879,17336,21,3424,17433,0,false,false,false,false,false,false,false,false,false,false,4757,4847,5171,5081,57,74,74,57,1466,1466,1485,1484,1452,1463,1477,1476,0.0,0.0,0.0,0.0,1662.5,1657.0,1657.6,1661.9,3.6,3.02,3.83,3.4,0,0,0,0,15.524110996754246,13.992938433092656,66.38569142722751,0,50.997414,51.07383,-0.0925778,-0.020788362,-0.9960322,1.0005413,3.7545972,2.5680149,-1.8459144,4.9090834,203,257,1538,1572.0,-0.032297913,-0.03546513,0.01818147,0.05129811,0.0479680172106286,0.0034851454257868245,1.6720389539542735,-6.074292902817927,-95.37245757077373,264.62754242922625,209.80496671815794,9.08067076079423,4.143196692954422,-79.73700256454048,11.638148196943694,7464213.652205846,-147.11906970620618,-141.84361574236476,63.87,NONE,0.0,0.0,0.0,NONE,-1.0907083250320474E-9,-5.482837464649229E-10,9.918213E-5,2,42.26,42.41,43.93,43.37,16.751,16.751,5.974,6.7768936,1779,3349,4.173,12.0,6.916,98,22.9,OK,105,0,0,0,0,0,65,100,0.0,0,-7297649.0,-2.4429553E-29,-4927519.5,-6.6153255,3.04172E-35,64,0.19799042,-4.5108217E-7,2.9763523E-29,False,False,0,None,-4.0887367E-35,2.0298977E-14,
430113910,28.362,13.992933448350197,66.38569127334512,19,50.998894,49.738274,-0.115087345,-0.0057791024,-0.996936,1.0035735,2.7613916,18.287312,5.592886,19.321785,223,281,1538,1579.0,-0.004391581,-0.4269389,-0.024137184,0.4276432,0.42696147048486116,-0.17224000012291507,1.678160537300482,-6.732161272990639,-93.37359869817237,266.6264013018276,212.1024324613976,12.912291010498505,7.160713794046889,-80.30816355968292,11.84569546629652,26.93296988216372,-101.90781761033905,-96.63236364649764,64.21,24.32641173779297,,13.9929347,66.3856911,20190520,160918,2019-05-20T16:09:18Z,91.315,0.59,1.33,8.35,11,8,19,-0.09,-0.3,0.09,0,1155,0,0,5,5,13.993173561394327,66.38573707174015,50,2173246,114,100,281,3433,3432,4287,4312,-2879,17336,21,3424,17433,0,false,false,false,false,false,false,false,false,false,false,4913,4945,5143,5223,57,75,75,57,1457,1479,1492,1485,1457,1471,1482,1479,0.0,0.0,0.0,0.0,1660.0,1656.4,1657.6,1659.4,3.52,2.96,3.68,3.36,0,0,0,0,-5.397748776480398,13.992933820572304,66.38569082673035,0,50.460434,51.042206,-0.110687636,-0.015872605,-1.0002749,1.0065056,-3.9061642,11.842208,-1.2413598,12.53144,235,284,1538,1581.0,-0.027969625,-0.38502094,-0.0053124814,0.38607207,0.3860355275869091,-0.17287402904180893,1.8330858076877827,-7.148374243060509,-95.31967986392259,264.6803201360774,212.11806122920024,9.871447635602616,5.025359174857767,-80.14762077826417,11.852189956701617,7464213.877650338,-103.53585356330109,-98.26039959945967,64.2,NONE,0.0,0.0,0.0,NONE,-3.203688334596196E-8,-2.295938199955325E-9,0.0,2,42.98,41.06,44.83,46.9,16.76,16.76,5.963,6.7910695,1774,3348,4.174,12.0,6.727,98,22.9,OK,106,0,0,0,0,0,65,100,0.0,0,-348429.97,-4.124629E-29,-4927519.5,-6.6153255,3.04172E-35,64,0.19219589,-4.4555972E-7,4.0288345E-29,False,False,0,None,-5.2344763E-35,1.999193E-14,
434126781,29.405,13.99292598580831,66.38569096637691,19,50.73561,49.585167,-0.09992944,-0.0026177708,-0.99653894,1.0015402,0.93789595,-3.869099,3.8947225,5.56942,129,235,1544,1567.0,0.027440604,-0.14770305,0.025267834,0.15234055,0.1502304214695283,0.17016219764131207,0.2836248136971543,-3.853468235571226,-93.55623765343276,266.44376234656727,211.33801318010697,12.263579615782566,8.602246091268718,-83.75807283841183,12.160999344691263,27.270114848296128,-88.48574532271644,-83.21029135887503,64.41,24.063128961914064,,13.9929257,66.3856909,20190520,160919,2019-05-20T16:09:19Z,91.218,0.59,1.33,8.36,11,8,19,-0.02,-0.3,0.09,0,0,0,0,5,5,13.993173561394327,66.38573707174015,50,2173246,114,100,281,3433,3432,4287,4312,-2879,17336,21,3424,17433,0,false,false,false,false,false,false,false,false,false,false,4871,4924,5193,5215,57,75,74,57,1470,1475,1491,1497,1460,1456,1481,1495,0.0,0.0,0.0,0.0,1660.7,1657.0,1656.4,1660.0,3.66,3.14,3.79,3.35,0,0,0,0,2.8950364532884123,13.992925244096757,66.3856905851608,0,50.686718,51.016422,-0.098525204,-0.0075337705,-0.9915492,0.9964606,0.034772705,2.887601,-1.2085232,3.1304915,132,235,1547,1570.0,0.009179515,-0.10925862,-0.008041627,0.10993806,0.10964355961407396,0.25755228396978197,0.3753110224852682,-3.9341970998022098,-95.42789263218064,264.57210736781934,213.5322194711852,8.092563814045842,9.81511667460145,-83.54401300558573,12.208852241295228,7464214.265374396,-99.51079484446745,-94.23534088062604,64.4,NONE,0.0,0.0,0.0,NONE,-1.8969769703035447E-8,7.196224231738046E-10,-1.5258789E-5,2,42.24,43.25,45.51,45.85,16.748,16.748,5.96,6.802003,1770,3346,4.175,12.0,6.886,98,22.9,OK,107,0,0,0,0,0,65,100,0.0,0,-133825.03,-2.821826E-28,-4927519.5,-6.6153255,3.04172E-35,64,0.18787003,-4.4143425E-7,6.144065E-29,False,False,0,None,-8.022161E-35,1.9762947E-14,
437993124,30.410,13.992923636229762,66.38569086872238,19,50.68681,49.525745,-0.09990942,-0.0069651897,-1.0068936,1.0118623,4.9960885,-5.5523367,3.0754042,8.077589,160,257,1529,1558.0,-0.0129734315,-0.01654514,-0.043270882,0.04810843,0.021025022272266585,0.08368491722792931,0.9491095030164372,-5.136036066677825,-93.51570219654545,266.4842978034545,212.38004360073464,13.81329883474012,8.858169837210882,-84.54561712717296,12.260526109257246,27.38639102504854,-104.05748659185716,-98.78203262801574,64.57,24.014327539794923,,13.9929231,66.3856905,20190520,160920,2019-05-20T16:09:20Z,91.075,0.59,1.33,8.4,11,8,19,-0.05,-0.01,0.08,0,0,0,0,5,5,13.993173561394327,66.38573707174015,50,2173246,114,100,281,3433,3432,4287,4312,-2879,17336,21,3424,17433,0,false,false,false,false,false,false,false,false,false,false,4903,4950,5160,5234,57,76,75,57,1474,1469,1493,1500,1461,1463,1482,1490,0.0,0.0,0.0,0.0,1661.3,1656.4,1655.8,1660.0,3.54,3.13,3.79,3.48,0,0,0,0,-2.8571230486110153,13.99292358262704,66.3856902922669,0,50.330173,50.956226,-0.096789286,-0.007740546,-0.9925677,0.99730575,2.6955798,-7.879688,-1.2067086,8.414973,163,260,1520,1550.0,-0.015991835,0.016322281,-0.04107974,0.047007453,0.02285072567622043,0.05761432532166187,1.049932142378125,-5.074491672758241,-95.39817063658846,264.6018293634115,213.96023528542023,9.481208690792297,8.837351836516534,-83.23888198619153,12.289686634673135,7464214.373880095,-162.20649743842876,-156.93104347458734,64.53,NONE,0.0,0.0,0.0,NONE,2.4594402679894483E-9,-4.283466851411462E-10,-1.9836426E-4,2,42.7,42.62,45.62,47.15,16.749,16.749,5.965,6.8122277,1767,3344,4.174,12.0,6.869,98,23.0,OK,108,0,0,0,0,0,65,100,0.0,0,-297973.88,-3.1088975E-28,-4927519.5,-6.6153255,3.04172E-35,64,0.17648698,-4.3057125E-7,6.9984075E-29,False,False,0,None,-8.7819714E-35,1.9159264E-14,
