Tick#,offsetTime,IMU_ATTI(0):Longitude,IMU_ATTI(0):Latitude,IMU_ATTI(0):numSats,IMU_ATTI(0):barometer:Raw,IMU_ATTI(0):barometer:Smooth,IMU_ATTI(0):accel:X,IMU_ATTI(0):accel:Y,IMU_ATTI(0):accel:Z,IMU_ATTI(0):accel:Composite,IMU_ATTI(0):gyro:X,IMU_ATTI(0):gyro:Y,IMU_ATTI(0):gyro:Z,IMU_ATTI(0):gyro:Composite,IMU_ATTI(0):mag:X,IMU_ATTI(0):mag:Y,IMU_ATTI(0):mag:Z,IMU_ATTI(0):mag:Mod,IMU_ATTI(0):velN,IMU_ATTI(0):velE,IMU_ATTI(0):velD,IMU_ATTI(0):velComposite,IMU_ATTI(0):velH,IMU_ATTI(0):GPS-H,IMU_ATTI(0):roll,IMU_ATTI(0):pitch,IMU_ATTI(0):yaw,IMU_ATTI(0):yaw360,IMU_ATTI(0):totalGyro:Z,IMU_ATTI(0):totalGyro:X,IMU_ATTI(0):totalGyro:Y,IMU_ATTI(0):magYaw,IMU_ATTI(0):distanceHP,IMU_ATTI(0):distanceTravelled,IMU_ATTI(0):directionOfTravel[mag],IMU_ATTI(0):directionOfTravel[true],IMU_ATTI(0):temperature,General:relativeHeight,General:absoluteHeight,GPS(0):Long,GPS(0):Lat,GPS(0):Date,GPS(0):Time,GPS:dateTimeStamp,GPS(0):heightMSL,GPS(0):hDOP,GPS(0):pDOP,GPS(0):sAcc,GPS(0):numGPS,GPS(0):numGLNAS,GPS(0):numSV,GPS(0):velN,GPS(0):velE,GPS(0):velD,RC:Aileron,RC:Elevator,RC:Rudder,RC:Throttle,Controller:navHealth,Controller:ctrl_level,HP:Longitude,HP:Latitude,HP:rthHeight,BatBlackBox:tick,BatBlackBox:id,BatBlackBox:rsoc,BatBlackBox:index,BatBlackBox:rm,BatBlackBox:fcc,BatBlackBox:cell_min,BatBlackBox:cell_max,BatBlackBox:current,BatBlackBox:voltage,BatBlackBox:temp,BatBlackBox:flag,BatBlackBox:reserve,BatBlackBox:user_data,OA:avoidObst,OA:emergBrake,OA:radiusLimit,OA:airportLimit,OA:groundForceLanding,OA:horizNearBoundary,OA:vertLowLimit,OA:vertAirportLimit,OA:roofLimit,OA:hitGroundLimit,Motor:Speed:RFront,Motor:Speed:LFront,Motor:Speed:LBack,Motor:Speed:RBack,Motor:EscTemp:RFront,Motor:EscTemp:LFront,Motor:EscTemp:LBack,Motor:EscTemp:RBack,Motor:PPMrecv:RFront,Motor:PPMrecv:LFront,Motor:PPMrecv:LBack,Motor:PPMrecv:RBack,Motor:PPMsend:RFront,Motor:PPMsend:LFront,Motor:PPMsend:LBack,Motor:PPMsend:RBack,Motor:V_out:RFront,Motor:V_out:LFront,Motor:V_out:LBack,Motor:V_out:RBack,Motor:Volts:RFront,Motor:Volts:LFront,Motor:Volts:LBack,Motor:Volts:RBack,Motor:Current:RFront,Motor:Current:LFront,Motor:Current:LBack,Motor:Current:RBack,Motor:Status:RFront,Motor:Status:LFront,Motor:Status:LBack,Motor:Status:RBack,Motor:thrustAngle,IMU_ATTI(1):Longitude,IMU_ATTI(1):Latitude,IMU_ATTI(1):numSats,IMU_ATTI(1):barometer:Raw,IMU_ATTI(1):barometer:Smooth,IMU_ATTI(1):accel:X,IMU_ATTI(1):accel:Y,IMU_ATTI(1):accel:Z,IMU_ATTI(1):accel:Composite,IMU_ATTI(1):gyro:X,IMU_ATTI(1):gyro:Y,IMU_ATTI(1):gyro:Z,IMU_ATTI(1):gyro:Composite,IMU_ATTI(1):mag:X,IMU_ATTI(1):mag:Y,IMU_ATTI(1):mag:Z,IMU_ATTI(1):mag:Mod,IMU_ATTI(1):velN,IMU_ATTI(1):velE,IMU_ATTI(1):velD,IMU_ATTI(1):velComposite,IMU_ATTI(1):velH,IMU_ATTI(1):GPS-H,IMU_ATTI(1):roll,IMU_ATTI(1):pitch,IMU_ATTI(1):yaw,IMU_ATTI(1):yaw360,IMU_ATTI(1):totalGyro:Z,IMU_ATTI(1):totalGyro:X,IMU_ATTI(1):totalGyro:Y,IMU_ATTI(1):magYaw,IMU_ATTI(1):distanceHP,IMU_ATTI(1):distanceTravelled,IMU_ATTI(1):directionOfTravel[mag],IMU_ATTI(1):directionOfTravel[true],IMU_ATTI(1):temperature,IMUEX(0):err,IMUEX(0):rtk_Longitude,IMUEX(0):rtk_Latitude,IMUEX(0):rtk_Alti,IMUEX(1):err,IMUEX(1):rtk_Longitude,IMUEX(1):rtk_Latitude,IMUEX(1):rtk_Alti,MotorCtrl:Status,MotorCtrl:PWM:RFront,MotorCtrl:PWM:LFront,MotorCtrl:PWM:LBack,MotorCtrl:PWM:RBack,BattInfo:Voltage,BattInfo:BatVoltage,BattInfo:AdVoltage,BattInfo:AvgCurrent,BattInfo:R_time,BattInfo:R_CAP_MAH,BattInfo:LowCellVoltage,BattInfo:LowCellVolThreshold,BattInfo:BatCurrent,BattInfo:Remaining%,BattInfo:Temp,BattInfo:status,battery_info:BatDynCnt,battery_info:Vol1Protect,battery_info:Vol2Protect,battery_info:Cap1Protect,battery_info:Cap2Protect,battery_info:Batpresent,battery_info:sopPercentage,battery_info:sopValue,battery_info:sopScale,battery_info:sopFlg,BattInfo:WindHeading:WindDir,battery_info:home_dir,BattInfo:Wind:rangeMin,BattInfo:Wind:rangeMax,battery_info:cap_speed,battery_info:against_wind,battery_info:emergency_land_cap,battery_info:intel_bat_land_cap,battery_info:intel_bat_gh_cap,BattInfo:Smart:SmartGh,BattInfo:Smart:SmartLand,BattInfo:GoHome:CntDown,BattInfo:GoHome:GhCmd,BattInfo:GoHome:CapLevel,BattInfo:GoHome:LandCapLv,Attribute|Value,ConvertDatV3,3.6.6-Tablet
295687467,.000,14.090396032724291,66.33872036432604,17,32.730415,32.674915,0.06060951,0.0016173916,-0.97699803,0.97887754,0.36813545,0.097799264,0.2747437,0.46965146,-168,-483,1437,1525.0,0.0034973356,-0.0033039344,0.013015091,0.013875877,0.0048111681172093735,-0.0048111681172093735,-0.1260448493721785,3.494363379151973,106.46829078885368,106.46829078885366,4.630989405961415,14.882169790890325,0.46512810545665856,99.46981879326671,0.41794021191781827,1.581166395831812,,,47.15,,,14.0903969,66.3387203,20190518,160010,2019-05-18T16:00:10Z,96.134,0.62,1.4,7.29,11,6,17,0.0,-0.01,0.0,-9998,-9997,9996,-9998,5,5,14.090404724944575,66.33872176363579,50,1831791,16,9,178,286,3572,3714,3718,0,14867,27,1,17516,0,false,false,false,false,false,false,false,false,false,false,0,0,0,0,47,60,60,47,943,945,945,944,940,940,940,940,0.0,0.0,0.0,0.0,1725.0,1718.9,1718.3,1725.0,0.0,0.0,0.0,0.0,0,0,0,0,-45.0,14.090395946788556,66.33871984319909,0,32.84932,32.32997,0.059729595,0.0017093597,-0.9783904,0.9802134,0.46959263,0.073884554,0.11522601,0.48913515,-168,-483,1437,1525.0,-7.117985E-5,0.0017334527,9.5918856E-4,0.0019824146,0.0017349134674882166,-0.0017349134674882166,-0.15841454410361644,3.3966949533680566,101.00719714359968,101.00719714359968,4.579032522791031,14.149954082211933,0.5415288289400664,99.7702134440213,0.4461549405143659,1.5761433630599053,60.528896937405534,65.84900323245121,47.18,NONE,0.0,0.0,0.0,NONE,2.6860291156631982E-11,-5.604288547564902E-12,0.0,,,,,,17.342,17.342,6.197,1.2515988,0,3454,4.33,12.0,1.271,100,24.2,OK,73,0,0,0,0,0,65,100,0.0,0,0.0,-2.7289807E-33,8.8E-44,0.0,-5.9807744E7,62,1.7462476E-11,-1.7462592E-11,2.934446E-37,False,False,0,None,7.216997E29,1.0842106E-19,Firmware Date| Oct 17 2018
299541374,1.002,14.090396439209323,66.33872021093394,17,32.765823,32.690384,0.06598586,0.0016358616,-0.9713116,0.9735518,-0.38002312,-1.2717023,-0.115269005,1.3322654,-174,-492,1446,1537.0,0.0028484561,-0.017061532,0.0029642244,0.01754982,0.017297675662292348,0.007561420102333051,-0.14572478711098286,3.494957099334361,106.46861729200907,106.46861729200907,4.481333188307047,15.426461936194332,0.28101348589992364,99.92568947760675,0.40807985033169164,1.6190921479580973,76.15684834387153,81.4769546389172,47.48,0.08111936425780897,,14.0903974,66.3387202,20190518,160011,2019-05-18T16:00:11Z,96.156,0.62,1.4,7.28,11,6,17,-0.01,0.0,0.0,0,0,0,0,5,5,14.090404724944575,66.33872176363579,50,1831791,18,9,179,285,3573,3760,3764,3580,15056,27,1,15158,0,false,false,false,false,false,false,false,false,false,false,533,522,522,533,52,65,64,52,1350,1360,1356,1354,1342,1342,1342,1342,0.1,0.1,0.1,0.1,1695.0,1688.9,1689.5,1694.4,7.92,7.38,7.98,7.54,0,0,0,0,-90.0,14.090396471599433,66.33871974036508,0,32.765823,32.322033,0.056620892,-0.002710131,-0.9823175,0.98395175,0.16672914,-0.30314082,-0.18702632,0.39328337,-174,-492,1446,1537.0,0.0023700737,-0.0022108317,0.014116249,0.01448356,0.0032411457517934343,0.022779309375667748,-0.17139512594496714,3.3970731933509914,101.00172123369957,101.00172123369958,4.741996842217639,14.795950132151104,0.01110431251917586,100.22026330846222,0.4315880865604323,1.6177632352531797,45.35495324130575,50.67505953635142,47.47,NONE,0.0,0.0,0.0,NONE,-4.3209095969207125E-10,1.2412678214234406E-10,8.010864E-5,1,22.5,22.5,22.5,22.5,17.312,17.312,6.095,1.3098164,0,3453,4.33,12.0,3.981,100,24.3,OK,74,0,0,0,0,0,65,100,0.0,0,0.0,-4.677526E-37,8.8E-44,0.0,-5.9807744E7,62,1.7462476E-11,-1.7462592E-11,2.8944403E-37,False,False,0,None,6.968442E29,1.0842106E-19,ACType|MavicEnterprise
303409663,2.007,14.090396989451317,66.33872032673504,17,32.765823,32.683556,0.05882619,5.233381E-5,-0.9786784,0.9804448,1.6249793,0.85676473,0.17386946,1.8452191,-165,-489,1437,1526.0,0.01177901,-0.02023049,0.005305595,0.024003483,0.023409781108388893,0.00416898400290118,-0.16308721235092277,3.498985037253334,106.3991674701963,106.39916747019629,7.9264035022961155,15.73983536944334,-1.2244221301739913,99.01206151916497,0.3803851485766497,1.6496392565185625,78.42489586977338,83.74500216481906,47.69,0.08111936425780897,,14.0903978,66.3387202,20190518,160012,2019-05-18T16:00:12Z,96.188,0.62,1.4,7.27,11,6,17,0.0,0.0,-0.02,0,0,0,0,5,5,14.090404724944575,66.33872176363579,50,1831972,19,13,180,431,3573,3766,3770,0,15082,26,1,15109,0,false,false,false,false,false,false,false,false,false,false,2108,2088,2157,2138,52,65,65,52,1205,1207,1207,1206,1200,1200,1209,1208,0.0,0.0,0.0,0.0,1717.7,1713.4,1712.8,1717.7,0.56,0.22,0.82,0.39,0,0,0,0,-0.5787255656077832,14.090396830526252,66.33871977275045,0,32.765823,32.244743,0.05706195,6.1474927E-4,-0.9806575,0.98231643,1.6982964,-1.0069536,-0.9897303,2.2085588,-165,-489,1437,1526.0,0.0066461884,-0.012223536,0.049654514,0.051567018,0.013913542335301027,0.002416266351271786,-0.1699191195425363,3.475463020519214,100.99665115218768,100.99665115218767,3.426580603365496,15.818761022406344,-0.590891194118192,99.08321444800629,0.41607535893114883,1.6534739768478213,-93.5400323463481,-88.21992605130242,47.7,NONE,0.0,0.0,0.0,NONE,-1.432329997329728E-9,4.319453967233673E-10,6.752014E-4,2,10.0,10.04,11.09,11.02,17.111,17.111,6.18,1.4995615,0,3452,4.265,12.0,3.595,100,24.3,OK,75,0,0,0,0,0,65,100,0.0,0,0.0,-3.7710668E-38,8.8E-44,0.0,-5.9807744E7,62,1.7462476E-11,-1.7462592E-11,2.8218328E-37,False,False,0,None,6.5173675E29,1.0842106E-19,dateTime|2019-5-18 15:59:34 GMT
307268942,3.010,14.090397645575983,66.33872034925479,17,32.765823,32.685017,0.05990722,2.1388195E-4,-0.9805096,0.982338,-1.1742551,-2.2646384,-1.4298124,2.9243505,-168,-489,1443,1532.0,0.0087297335,-0.0020699548,0.00250965,0.0093161855,0.008971786815306424,0.02032697123155118,-0.1838493711236901,3.4630029371912094,106.36873107677918,106.36873107677917,7.465995882486213,16.45249036822266,-1.2351305747851662,99.42871695630208,0.3529039579843159,1.6803485806223994,72.6288646294537,77.94897092449938,48.07,0.08111936425780897,,14.0903984,66.3387203,20190518,160013,2019-05-18T16:00:13Z,96.205,0.62,1.4,7.26,11,6,17,0.0,0.0,0.0,0,0,0,0,5,5,14.090404724944575,66.33872176363579,50,1836913,16,13,181,432,3573,3747,3750,0,14997,25,1,17516,0,false,false,false,false,false,false,false,false,false,false,2118,2096,2157,2158,53,64,64,53,1205,1208,1211,1218,1200,1203,1202,1200,0.0,0.0,0.0,0.0,1717.7,1714.0,1712.2,1716.5,0.65,0.23,0.86,0.41,0,0,0,0,-12.828782871455417,14.090397498173951,66.33871978320586,0,32.765823,32.27593,0.061025474,-0.002795247,-0.9778188,0.9797252,-0.7302997,-0.6783402,1.8048055,2.0617483,-168,-489,1443,1532.0,0.009625956,-0.0032937191,-0.0022344785,0.010416358,0.010173869481385316,0.019553614771772285,-0.1986856173039439,3.43513184901875,100.9769927152392,100.97699271523919,2.975706041393857,16.277832683314536,-0.3553791913650055,99.51635907410643,0.390512891065991,1.6847046485913677,110.83931297129169,116.15941926633737,48.06,NONE,0.0,0.0,0.0,NONE,-2.1859555482867657E-10,1.882074675206954E-10,-7.6293945E-6,2,10.0,10.31,10.44,10.17,17.26,17.26,6.181,1.4995615,0,3452,4.265,12.0,3.595,100,24.3,OK,75,0,0,0,0,0,65,100,0.0,0,0.0,4.0506507E34,8.8E-44,0.0,-5.9807744E7,62,1.7462476E-11,-1.7462592E-11,2.6952146E-37,False,False,0,None,6.034571E29,1.0842106E-19,geoDeclination|532 degrees
311120853,4.011,14.090397958659574,66.33872048998573,17,32.765823,32.68806,0.049723357,0.01525063,-1.0193838,1.0207098,3.0778625,-36.38137,6.4488955,37.076485,-159,-492,1437,1527.0,0.012142059,0.0050086994,-0.04118112,0.04322501,0.013134559976286693,0.007820657976616912,-0.13925162436219243,1.847593106183794,106.59665694740431,106.59665694740431,8.964440153618813,16.270950728816974,-3.491580843756332,102.97417496321344,0.3335135086066099,1.7269582292505685,162.13412117125966,167.45422746630533,48.37,0.08111936425780897,,14.0903988,66.3387204,20190518,160014,2019-05-18T16:00:14Z,96.226,0.62,1.4,7.26,11,6,17,0.0,0.01,0.0,0,0,0,10000,5,5,14.090404724944575,66.33872176363579,50,1836914,18,13,182,414,3546,3798,3800,3572,15201,25,1,15302,0,false,false,false,false,false,false,false,false,false,false,4382,4277,4116,4144,50,64,64,50,1429,1432,1401,1408,1427,1432,1405,1403,0.0,0.0,0.0,0.0,1687.6,1683.4,1683.4,1688.9,3.97,3.4,3.52,2.98,0,0,0,0,-161.56505117707798,14.090397864006352,66.33872004310858,0,32.765823,32.27045,0.07344556,-0.008003201,-0.98670584,0.98946786,-0.1805759,-7.119868,1.4301586,7.264329,-162,-492,1440,1530.0,0.009224625,0.0065272213,-0.001197455,0.011363636,0.011300368309140715,0.021855594981860838,-0.14265600769782474,3.2918202498611207,101.11846518738618,101.11846518738616,5.14596234123732,16.609522026970296,-1.6361109749112408,99.18513805579768,0.3610315432952236,1.752659761683883,6.543260647589548,11.86336694263522,48.34,NONE,0.0,0.0,0.0,NONE,-1.1407545976046064E-10,4.6276770578058533E-10,-3.0517578E-5,2,46.08,46.75,36.57,36.61,17.268,17.268,6.125,1.7624761,0,3451,4.309,12.0,1.859,100,24.3,OK,76,0,0,0,0,0,65,100,0.0,0,0.0,-4.0119915E-38,8.8E-44,0.0,-3.3654391E38,62,1.7462476E-11,-1.7462592E-11,2.5513773E-37,False,False,0,None,5.5878486E29,1.0842106E-19,geoInclination|7644 degrees
315025825,5.026,14.090401088449662,66.3387205695737,17,33.05351,32.887005,0.029927887,-0.019748751,-0.9469748,0.9476534,-7.346246,-0.10491549,-9.891526,12.321551,-145,-458,1467,1543.0,0.03132713,0.13237967,-0.15555352,0.20664622,0.1360358964580873,0.0018608221242961687,1.1855647259115663,3.255235363405519,107.20786687184695,107.20786687184693,12.598632530815607,22.427615429458378,-1.8045745814247982,97.23913858549419,0.14961644559916792,1.8754104712994568,97.37776155796065,102.69786785300633,48.68,0.36880475854491834,,14.090401,66.3387202,20190518,160015,2019-05-18T16:00:15Z,96.495,0.62,1.4,7.29,11,6,17,-0.09,0.14,-0.25,0,0,0,0,5,5,14.090398020484571,66.33872002694073,50,1841306,114,99,183,3537,3537,4382,4391,234,17545,28,3572,17529,0,false,false,false,false,false,false,true,false,false,false,5618,5849,4380,4471,51,62,62,50,1521,1550,1415,1429,1507,1541,1419,1425,0.0,0.0,0.0,0.0,1677.9,1673.5,1673.5,1677.3,4.61,4.2,2.67,2.81,0,0,0,0,176.9366344193433,14.090400394239175,66.33871993768318,0,33.064106,32.445927,0.032485418,-0.014135777,-0.94234765,0.94301337,5.094183,-1.2856997,9.710132,11.040398,-136,-458,1470,1545.0,0.018980036,0.16813473,-0.16217081,0.23436916,0.16920263065692517,-0.05734716449207043,1.023942687874992,2.9266245828467343,101.83410102879718,101.83410102879719,5.531936623518439,22.05173390482356,-5.385933305900892,97.20354839988451,0.10639448352242206,1.9048690422896708,50.00660105230952,55.32670734735519,48.66,NONE,0.0,0.0,0.0,NONE,9.512858095369828E-9,3.8921934907070097E-10,-4.234314E-4,2,50.08,52.88,36.16,37.09,17.175,17.175,6.034,1.9907861,0,3451,4.315,12.0,2.709,100,24.3,OK,77,0,0,0,0,0,65,100,0.0,0,0.0,-9.331107E-4,2.68E-43,0.0,-3.3654391E38,62,1.99889E-11,-1.8726026E-11,1.6014464E-37,False,False,0,None,2.4694002E29,1.1709984E-19,geoIntensity|5257435 nanoTesla
318892146,6.031,14.090401548469808,66.33872040723391,17,33.38364,33.022408,0.035492845,-0.024123687,-0.9861738,0.98710716,-0.6921942,5.9487176,-2.005791,6.3158193,-125,-467,1479,1556.0,0.04887239,0.029568579,-0.0727987,0.09253357,0.05712102362870991,-0.02991624667272926,0.9403263409148462,2.5726374445575817,107.0646958056817,107.06469580568171,10.650834882185881,20.68163074892665,-2.716815676759448,96.83077017199608,0.16301896072167507,1.9395515221341055,36.312208362449496,41.632314657495165,48.97,0.6989362893066371,,14.0904026,66.3387203,20190518,160016,2019-05-18T16:00:16Z,96.719,0.62,1.4,7.34,11,6,17,0.02,0.01,-0.2,0,0,0,0,5,5,14.090398020484571,66.33872002694073,50,1841567,48,99,184,3545,3545,4387,4396,169,17547,28,212,17550,0,false,false,false,false,false,false,true,false,false,false,5800,5898,4618,4553,51,63,63,52,1538,1566,1444,1434,1531,1541,1436,1434,0.0,0.0,0.0,0.0,1673.5,1670.5,1669.9,1674.8,4.3,4.44,3.5,2.62,0,0,0,0,176.30934238367837,14.090401619570224,66.33871976234917,0,33.423477,32.463093,0.036937214,-0.021866493,-1.0081663,1.0090797,4.7273197,4.896794,0.6651165,6.8387513,-125,-464,1476,1552.0,0.02768418,0.018587792,0.013200179,0.03586314,0.03334546258873487,0.02442792262555068,0.8307604664041389,2.119553688023585,101.70174493438807,101.7017449343881,3.951888319588197,20.54165629550795,-6.8406627916343465,98.27391820882968,0.16328433787190028,1.9875546156673904,53.04398231844402,58.3640886134897,48.91,NONE,0.0,0.0,0.0,NONE,6.403943562506089E-11,2.9427168112937383E-10,8.392334E-5,2,51.13,54.25,39.78,37.63,16.941,16.941,6.019,2.2673504,0,3450,4.283,12.0,7.166,100,24.3,OK,78,0,0,0,0,0,65,100,0.0,0,0.0,-2.9348826E-9,2.68E-43,0.0,-3.3654391E38,62,2.0117241E-11,-1.8789975E-11,1.7622733E-37,False,False,0,None,2.9689767E29,1.1753659E-19,mcID(SN)|298DG13001W644
322744298,7.032,14.090401824554974,66.33872115464736,17,33.548676,33.06553,0.03452736,-0.015487886,-0.942491,0.94325036,3.8602052,-2.6511908,6.9409757,8.373001,-116,-452,1482,1553.0,-0.0011628373,-0.0364298,0.10020454,0.10662754,0.03644835422105049,0.04747139902034963,0.9835262222553823,1.6579460481130874,107.42461886188413,107.42461886188414,11.57241513099087,20.596348350534033,-3.2715750217015174,98.73001972384506,0.21105031884592143,2.041394567229012,-60.93184229804622,-55.61173600300055,49.26,0.8639715371093715,,14.0904028,66.338721,20190518,160017,2019-05-18T16:00:17Z,96.83,0.62,1.4,7.38,11,6,17,0.06,-0.03,-0.1,0,0,0,0,5,5,14.090398020484571,66.33872002694073,50,1841567,48,99,184,3545,3545,4387,4396,169,17547,28,212,17550,0,false,false,false,false,false,false,true,false,false,false,5601,5854,4250,4617,50,64,64,51,1532,1568,1392,1415,1527,1565,1384,1416,0.0,0.0,0.0,0.0,1674.1,1669.9,1669.3,1674.1,4.78,4.31,2.52,2.31,0,0,0,0,-177.4777823962142,14.09040169561093,66.33872059004948,0,33.371864,32.72678,0.032721147,-0.007335552,-0.9731431,0.97372067,-0.1724308,6.016084,2.7612169,6.621731,-113,-443,1485,1553.0,-0.017185478,-0.030608146,0.026683573,0.04409322,0.03510269582874984,0.056889475204942606,1.2302111226850196,1.6958810777027828,102.00486397216683,102.00486397216685,3.597901563087768,21.771625763397516,-6.63668560971823,98.30372203130027,0.17555149963839892,2.0860252724458985,-9.69310337477238,-4.372997079726707,49.27,NONE,0.0,0.0,0.0,NONE,-1.7210598106720665E-9,-3.347471981305245E-10,6.1035156E-5,2,51.23,55.34,33.27,36.86,16.892,16.892,6.027,2.7512696,0,3448,4.229,12.0,7.292,100,24.4,OK,79,0,0,0,0,0,65,100,0.0,0,0.0,-4.0820726E33,2.68E-43,0.0,-3.3654391E38,62,2.6201707E-11,-2.183243E-11,1.905946E-37,False,False,0,None,3.5831594E29,1.3843117E-19,mcVer|v3.4.1.6
326596166,8.033,14.090401601462926,66.3387212044747,17,33.427475,33.01663,0.039285544,0.005752139,-0.97179544,0.9726062,-6.080546,-4.2492123,-8.20863,11.063926,-116,-467,1479,1555.0,-0.0034473883,0.022764204,0.06434007,0.06833548,0.023023759485720618,-0.011642557022599016,0.2823293203533535,2.3761852781685513,103.52038603916387,103.5203860391639,8.57372408707056,21.61800473414224,-1.5693238957596345,96.57618100252976,0.20659486000148367,2.0721016304384405,158.68399044010482,164.00409673515048,49.57,0.742770975585934,,14.0904023,66.338721,20190518,160018,2019-05-18T16:00:18Z,96.788,0.62,1.4,7.4,11,6,17,-0.02,-0.01,0.01,0,0,-8414,0,5,5,14.090398020484571,66.33872002694073,50,1841567,48,99,185,3545,3545,4387,4396,169,17547,28,212,17550,0,false,false,false,false,false,false,true,false,false,false,5773,5917,4335,4411,50,64,64,50,1547,1569,1421,1409,1540,1558,1418,1407,0.0,0.0,0.0,0.0,1672.3,1668.0,1666.8,1672.9,4.75,4.49,3.04,2.22,0,0,0,0,178.6768273242508,14.090401289117588,66.33872056533413,0,33.266167,32.610336,0.041475132,0.007281271,-0.9762352,0.97714293,-6.60252,-2.8178766,-10.346175,12.592737,-116,-474,1479,1557.0,-0.06779689,0.0033463312,0.06949919,0.0971481,0.06787942588213426,-0.04955221754942925,0.2522118251109934,2.373304335542565,97.80987800850617,97.80987800850619,0.3829707694416564,22.917185539124215,-5.601299741299534,96.49943343465479,0.15767261767305063,2.121271532454864,154.04586565935907,159.36597195440473,49.57,NONE,0.0,0.0,0.0,NONE,6.480657476365832E-10,-3.417245884122525E-10,1.7166138E-4,2,52.17,55.23,37.01,35.12,16.89,16.89,6.014,3.4211626,0,3446,4.217,12.0,7.157,100,24.3,OK,80,0,0,0,0,0,65,100,0.0,0,0.0,-3.4332765E37,2.68E-43,0.0,-3.3654391E38,62,2.398659E-11,-2.0724427E-11,1.8108026E-37,False,False,0,None,3.1197056E29,1.3082111E-19,
330472120,9.040,14.090401719506971,66.33872133183652,17,33.26659,32.983936,0.042430762,-0.021881558,-0.9824346,0.9835939,-6.393169,-7.3946,-21.149426,23.29916,-42,-517,1473,1561.0,0.07557471,0.042447105,0.011812663,0.08748047,0.0866792566349758,-0.07167941601443309,-0.45696634049212925,2.1717780178771,91.64623232484774,91.64623232484774,-4.169149298275022,19.517967837831584,-1.3630363454288061,88.41219747055827,0.2197771599531028,2.1185146389851353,67.92363026025275,73.24373655529843,49.88,0.5818861184081996,,14.0904028,66.3387211,20190518,160019,2019-05-18T16:00:19Z,96.757,0.62,1.4,7.46,11,6,17,-0.01,0.03,0.02,0,0,-7300,0,5,5,14.090398020484571,66.33872002694073,50,1841567,48,99,186,3545,3545,4387,4396,169,17547,28,212,17550,0,false,false,false,false,false,false,true,false,false,false,5756,5994,4278,4493,52,65,65,52,1548,1576,1406,1411,1541,1563,1402,1414,0.0,0.0,0.0,0.0,1670.5,1665.6,1665.6,1671.1,4.78,4.68,2.58,2.5,0,0,0,0,179.55764459709238,14.090401669605521,66.33872055351186,0,33.53073,32.53101,0.04185112,-0.018891629,-0.98555905,0.9866281,-9.81215,-4.319097,-29.079544,30.992785,-39,-523,1470,1560.0,4.4836046E-4,0.003933246,0.04302561,0.043207344,0.003958718284439627,0.012947503560604444,-0.2660344282991686,2.2076972079038324,85.72018986543694,85.72018986543696,-13.230239656324741,21.154185545435883,-4.453936727864989,88.03056843654937,0.17305126366534168,2.1772807366190774,45.1507821554882,50.47088845053388,49.88,NONE,0.0,0.0,0.0,NONE,8.138345067301187E-11,-4.466865674714831E-10,9.918213E-5,2,52.71,56.77,35.16,35.85,16.872,16.872,6.009,4.15278,0,3444,4.218,12.0,7.115,100,24.4,OK,81,0,0,0,0,0,65,100,0.0,0,0.0,-8.570506E31,2.68E-43,0.0,-3.3654391E38,62,2.20588E-11,-1.9760754E-11,1.8083632E-37,False,False,0,None,3.1120652E29,1.2420366E-19,
334471229,10.080,14.090402841655756,66.33872143910314,17,33.55478,32.977303,0.03806779,0.012580794,-0.9833806,0.98419756,-2.7324922,5.4273176,-8.42849,10.390464,106,-520,1476,1568.0,0.10409576,0.0312867,-0.021694686,0.110839725,0.10869583367638361,-0.05916721790420207,0.19679186616062774,1.9765447581918094,73.93445279981067,73.93445279981069,-25.128216362113612,17.075727844169837,-3.0097482087832175,73.37457863617426,0.266356410997105,2.196038692100257,56.23442810281048,61.55453439785615,50.17,0.8700750527343715,,14.0904039,66.3387215,20190518,160020,2019-05-18T16:00:20Z,96.763,0.62,1.4,7.51,11,6,17,0.04,0.05,0.0,0,0,-5447,0,5,5,14.090398020484571,66.33872002694073,50,1841567,48,99,187,3545,3545,4387,4396,169,17547,28,212,17550,0,false,false,false,false,false,false,true,false,false,false,5648,5754,4136,4535,51,66,65,51,1521,1547,1403,1417,1521,1542,1382,1413,0.0,0.0,0.0,0.0,1674.8,1668.0,1669.3,1673.5,4.26,3.85,2.65,2.4,0,0,0,0,-173.87634804308024,14.090402746206342,66.33872081038703,0,33.221798,32.522507,0.040481143,0.01827155,-0.95974994,0.96077704,1.4870698,1.285682,-5.6944976,6.0242558,109,-517,1476,1567.0,0.017083999,3.7445128E-4,0.008115108,0.018917141,0.01708810235415653,0.03668931570789533,0.37184408194463064,2.143939438250115,68.50158579906397,68.50158579906395,-33.420618602860735,19.233182012185242,-5.889010272073284,72.69934854067345,0.2281735251972816,2.2591879133266013,47.26894228791346,52.58904858295914,50.19,NONE,0.0,0.0,0.0,NONE,-2.031917977089523E-9,5.572564910167942E-10,-6.484985E-5,2,49.36,52.2,34.58,36.55,16.859,16.859,6.006,4.8620987,0,3440,4.212,12.0,7.179,100,24.4,OK,82,0,0,0,0,0,65,100,0.0,0,0.0,-9.784234E35,2.68E-43,0.0,-3.3654391E38,62,2.1684432E-11,-1.9573792E-11,2.0788263E-37,False,False,0,None,4.120116E29,1.2291988E-19,
338325343,11.081,14.09040483815414,66.33872144952153,17,33.369843,33.001076,0.020310719,0.025228988,-0.9848886,0.98542106,-0.9689338,-1.9818716,7.3020015,7.6279664,123,-541,1461,1562.0,-0.010405183,-0.013269063,-0.029464273,0.033948187,0.016862261622811278,0.07209219036966652,-1.711040357685917,2.5520799230955236,68.07844361958406,68.07844361958405,-26.804843759442846,21.40155632593179,-1.2637996108796963,69.22225809149542,0.34290847232520993,2.2876040518705003,106.40216773252175,111.72227402756742,50.49,0.6851385292968715,,14.0904058,66.3387215,20190518,160021,2019-05-18T16:00:21Z,96.773,0.62,1.4,7.57,11,6,17,-0.06,0.07,0.01,0,0,0,0,5,5,14.090398020484571,66.33872002694073,50,1841568,19,100,188,3545,3545,4382,4392,127,17542,28,1,17550,0,false,false,false,false,false,false,true,false,false,false,5790,5761,4449,4520,51,65,64,51,1538,1548,1439,1427,1537,1539,1416,1423,0.0,0.0,0.0,0.0,1669.9,1664.4,1665.0,1671.1,3.9,4.14,3.87,2.67,0,0,0,0,-177.7820620594593,14.090404952285027,66.33872082098848,0,33.520287,32.493355,0.026012601,0.03842693,-0.95855397,0.9596765,6.1040344,-2.159533,4.4286118,7.8444514,126,-545,1461,1564.0,-0.05344476,-0.016489742,0.029596454,0.06327878,0.05593079939060838,0.0423602921850699,-1.67275152464556,2.604329162640192,62.83334226210667,62.83334226210667,-33.53185781706901,23.906692043383032,-4.217761097956339,68.97968556019174,0.32169089964390984,2.368402811985526,134.51438865307813,139.8344949481238,50.5,NONE,0.0,0.0,0.0,NONE,3.969110990734275E-11,-2.970525926650565E-9,2.1362305E-4,2,51.3,54.98,37.1,37.35,16.846,16.846,5.998,5.5002527,0,3438,4.208,12.0,7.099,100,24.4,OK,83,0,0,0,0,0,65,100,0.0,0,0.0,-8.2265985E25,2.68E-43,0.0,-3.3654391E38,62,2.0971225E-11,-1.9216745E-11,2.4226928E-37,False,False,0,None,5.1881293E29,1.2046812E-19,
342225004,12.095,14.090405588059312,66.33872093850664,17,33.14663,33.002167,0.021228816,0.04180245,-0.96923214,0.9703654,-4.6505904,7.08341,-2.454442,8.8219595,135,-560,1461,1570.0,-0.0070758304,-0.06998948,-0.03389719,0.078087226,0.07034624799811867,-0.005280400182450962,-2.0589648613140454,2.3990163596300054,67.91082058773365,67.91082058773367,-27.22985890431341,18.891758196631788,-2.0499602302984283,68.78723211942007,0.3525921792074667,2.3668463021733075,155.55263980947305,160.8727461045187,50.76,0.4619253334960902,,14.0904067,66.3387211,20190518,160022,2019-05-18T16:00:22Z,96.821,0.62,1.4,7.63,11,6,17,-0.05,0.04,-0.01,0,0,0,0,5,5,14.090398020484571,66.33872002694073,50,1841569,114,100,189,3545,3545,4381,4390,0,17524,28,3537,716,0,false,false,false,false,false,false,true,false,false,false,5980,5713,4319,4422,52,66,66,52,1572,1538,1397,1418,1563,1526,1403,1402,0.0,0.0,0.0,0.0,1671.1,1665.6,1666.2,1669.9,5.53,3.87,2.33,2.0,0,0,0,0,-172.85587391128712,14.090405720956884,66.33872032908333,0,33.51944,32.457394,0.022695959,0.03463541,-0.98519033,0.9860602,-14.455122,-1.0081578,-12.448284,19.103054,129,-563,1458,1568.0,-0.0376462,-0.027819319,0.016943652,0.049781907,0.046809732178643815,0.01689364614850948,-1.9868631802818837,2.4068370442317453,62.61203996692106,62.61203996692109,-33.960310029518226,22.457574787345308,-3.7698425623610623,69.55629069948483,0.34527767072074306,2.4652569065152816,150.61321316491225,155.93331945995791,50.75,NONE,0.0,0.0,0.0,NONE,-9.372438504088296E-10,-7.589873496476724E-10,6.866455E-5,2,55.22,50.47,34.72,38.84,16.835,16.835,5.997,6.042867,0,3436,4.205,12.0,7.263,99,24.4,OK,84,0,0,0,0,0,65,100,0.0,0,0.0,-8.5224521E15,2.68E-43,0.0,-3.3654391E38,62,2.0243363E-11,-1.8853035E-11,2.5712941E-37,False,False,0,None,5.649649E29,1.1797003E-19,
346081977,13.097,14.090406080440404,66.33872089303559,17,33.34617,33.02893,0.049815968,0.038779728,-0.96731305,0.96937096,17.35535,2.910012,9.310649,19.908907,95,-588,1458,1574.0,0.04677929,-0.046567418,8.9283846E-4,0.0660123,0.06600625871768075,-0.04351337014831911,-2.651571841470916,3.847409989797163,68.22691240392311,68.22691240392311,-30.20320036294082,16.193311606315905,-0.2209517880496068,69.50509672638857,0.37235127440641114,2.4211752252593435,19.237662459873636,24.55776875491931,51.07,0.6614645180664027,,14.0904073,66.338721,20190518,160023,2019-05-18T16:00:23Z,96.863,0.62,1.4,7.69,11,6,17,-0.02,0.08,-0.01,0,0,0,0,5,5,14.090398020484571,66.33872002694073,50,1918139,16,100,190,3534,3545,4356,4367,-612,17454,20,0,16132,0,false,false,false,false,false,false,true,false,false,false,6058,5868,4165,4535,52,66,65,52,1584,1559,1398,1442,1574,1553,1389,1436,0.0,0.0,0.0,0.0,1665.0,1660.0,1659.4,1665.0,5.24,4.12,2.98,3.22,0,0,0,0,-170.1521827827474,14.090406198542386,66.33872039920443,0,33.299103,32.46703,0.059655033,0.03804292,-0.9347937,0.93746746,12.216193,3.4789848,4.108008,13.349698,103,-585,1455,1571.0,0.011420769,0.021577183,0.027566224,0.036822625,0.024413291203713095,-0.0017737557392287738,-2.8401110139859425,3.9186957549782373,62.99948335339345,62.99948335339343,-36.863724671048075,18.708695334681863,-2.1512411903908624,68.27782301501433,0.3672918469714311,2.541137388886299,42.046320800940634,47.3664270959863,51.06,NONE,0.0,0.0,0.0,NONE,1.4362177869772884E-9,5.849626376270872E-11,2.670288E-5,2,56.79,53.86,34.02,39.91,16.83,16.83,5.996,6.484513,0,3434,4.202,12.0,7.209,99,24.5,OK,85,0,0,0,0,0,65,100,0.0,0,0.0,-8.1508171E14,2.68E-43,0.0,-3.3654391E38,62,2.0458302E-11,-1.8960505E-11,2.7008396E-37,False,False,0,None,6.052076E29,1.1870788E-19,
349962708,14.106,14.09040604677867,66.33872143229217,17,33.58048,33.0349,0.04432168,0.036246818,-0.9594494,0.9611563,0.6296457,-1.7185718,3.456112,3.910838,109,-563,1458,1566.0,0.056760162,-0.16696842,-0.0017831475,0.17636143,0.17635240482295955,-0.116881529496453,-2.241064619627412,3.1136223476662317,68.51530205014343,68.51530205014342,-28.98248599409219,19.712990790201644,-0.10485091208547592,69.48530444265657,0.3907839097587825,2.504785538273,-84.39980089960994,-79.07969460456427,51.35,0.8957746682128871,,14.0904076,66.3387216,20190518,160024,2019-05-18T16:00:24Z,96.885,0.62,1.4,7.74,11,6,17,0.07,-0.07,0.0,0,0,0,0,5,5,14.090398020484571,66.33872002694073,50,1918139,20,100,191,3534,3545,4356,4367,-612,17454,20,2,16132,0,false,false,false,false,false,false,true,false,false,false,5754,6018,4142,4642,52,67,66,52,1559,1573,1382,1454,1547,1562,1378,1446,0.0,0.0,0.0,0.0,1665.6,1660.0,1661.9,1665.6,4.96,4.6,2.68,2.98,0,0,0,0,-175.48400559796312,14.090406607014442,66.33872073239571,0,33.728935,32.487408,0.04675714,0.029398937,-0.9546084,0.95620483,-11.460846,-0.36940444,-7.1148133,13.49474,106,-551,1461,1565.0,0.0048341174,-0.081829935,0.013121701,0.08301618,0.08197260077008581,-0.04103343022776752,-1.7624145196800407,3.175645125702689,63.23757148673967,63.23757148673968,-35.81192585578444,23.400591413265158,-3.065846360009324,69.64327808212687,0.3911270651234699,2.6250868515135646,-62.178434909759986,-56.85832861471432,51.39,NONE,0.0,0.0,0.0,NONE,-1.496588325321646E-8,5.444034415247871E-10,2.2888184E-4,2,53.31,55.54,32.08,40.24,16.828,16.828,5.995,6.826245,0,3432,4.201,12.0,7.169,99,24.5,OK,86,0,0,0,0,0,65,100,0.0,0,0.0,-4.508163E24,2.68E-43,0.0,-2.99788717E15,63,2.0918378E-11,-1.9190543E-11,2.8075983E-37,False,False,0,None,6.428971E29,1.2028944E-19,
353860087,15.119,14.090403906375402,66.33872242313409,17,33.637333,32.96968,0.033530317,0.027503602,-0.9759962,0.9769592,13.812319,1.3490373,4.7181554,14.658139,155,-557,1455,1565.0,0.04160112,-0.17096715,-0.002743911,0.17597713,0.17595572819302974,-0.031998121609185665,-1.5458880324091309,0.8916549795558317,68.19974018691035,68.19974018691033,-27.880463068387822,22.421257659027358,-3.819318201168076,71.03523422701765,0.3741445258042172,2.6630327738522768,-52.85280458887081,-47.53269829382514,51.72,0.9526289162597621,,14.0904052,66.3387224,20190518,160025,2019-05-18T16:00:25Z,96.888,0.62,1.4,7.75,11,6,17,0.05,-0.13,0.01,0,0,0,0,5,5,14.090398020484571,66.33872002694073,50,1918141,114,100,192,3533,3545,4278,4302,-2944,17094,20,3545,17306,0,false,false,false,false,false,false,true,false,false,false,5696,5880,4021,4525,53,67,67,52,1546,1555,1375,1412,1538,1546,1382,1404,0.0,0.0,0.0,0.0,1669.9,1664.4,1665.0,1668.7,5.09,3.78,2.16,2.34,0,0,0,0,-173.97130815442492,14.090404005801334,66.33872185911086,0,33.49224,32.484493,0.034625012,0.035150528,-0.95766914,0.9589393,14.508751,-3.9322543,3.7745392,15.498827,158,-557,1455,1565.0,0.009648742,-0.124680616,0.021963144,0.12696746,0.12505340925268685,0.04356511289081266,-1.225635027352916,0.9441067166207943,63.07228915024048,63.072289150240465,-36.31178048528014,23.129984181416983,-5.227113695247908,70.89163059083243,0.3359271753188765,2.805702936834845,-80.62312010196189,-75.30301380691621,51.73,NONE,0.0,0.0,0.0,NONE,-7.732095335054545E-9,-3.20892832995592E-10,6.1035156E-5,2,52.81,52.63,31.21,36.67,16.805,16.805,5.988,7.0783315,0,3430,4.194,12.0,7.397,99,24.5,OK,87,0,0,0,0,0,65,100,0.0,0,0.0,3.772656E-31,2.69E-43,0.0,-2.99788717E15,63,2.0811797E-11,-1.9137253E-11,2.5256634E-37,False,False,0,None,5.5079627E29,1.1992218E-19,
357894103,16.167,14.09040269256506,66.33872268300435,17,33.32027,32.957745,0.024217516,0.039758064,-0.9747461,0.97585714,-1.54448,-14.618709,0.8171433,14.722764,143,-575,1455,1571.0,-0.03507358,-0.11137059,0.0015252046,0.11677282,0.11676285816086035,-0.05820555748814196,-2.554558246179421,1.2023154459982976,67.84250428105472,67.84250428105474,-26.23514832777637,21.974091930357222,-3.565328950625477,71.14647782615044,0.36151951601811827,2.733866948234818,-110.79683345664817,-105.4767271616025,51.99,0.6355665383300746,,14.0904037,66.3387227,20190518,160026,2019-05-18T16:00:26Z,96.896,0.62,1.4,7.73,11,6,17,-0.03,-0.07,0.0,0,0,0,0,5,5,14.090398020484571,66.33872002694073,50,1919181,48,21,193,700,3512,3717,3723,-1262,14888,47,212,14882,0,false,false,false,false,false,false,true,false,false,false,5816,5739,4439,4803,53,66,67,54,1568,1553,1407,1440,1552,1544,1397,1440,0.0,0.0,0.0,0.0,1666.2,1661.3,1660.0,1666.2,5.08,4.04,2.49,2.5,0,0,0,0,-169.20545793810476,14.090402686394965,66.33872208498995,0,33.444508,32.471466,0.024247276,0.04226971,-0.985055,0.98625964,4.6345935,-1.1037047,4.9004626,6.834629,146,-575,1455,1571.0,-0.056931224,-0.07746245,0.028672019,0.100317895,0.09613321935884578,-0.035076943035045986,-2.377832638499905,1.0163311738780252,62.9145440663841,62.91454406638411,-38.73379244450419,20.318817809193696,-6.756282458920726,71.48420574645448,0.3093950542180358,2.8898007704638236,-125.89990779951694,-120.57980150447126,52.0,NONE,0.0,0.0,0.0,NONE,-1.3260166795513838E-8,-3.982230199634328E-9,2.0599365E-4,2,53.95,53.72,35.18,39.36,16.814,16.814,5.985,7.256751,0,3428,4.194,12.0,7.184,99,24.6,OK,88,0,0,0,0,0,65,100,0.0,0,0.0,1.07709175E-23,2.69E-43,0.0,-2.99788717E15,63,2.0588864E-11,-1.9025786E-11,2.389919E-37,False,False,0,None,5.0862894E29,1.1915786E-19,
361749595,17.169,14.090402143470596,66.33872276081485,17,33.65316,32.962124,0.029500563,0.040963322,-0.96700054,0.9683173,13.771043,9.937589,7.9268417,18.741186,140,-560,1455,1565.0,0.006420456,-0.051286846,-0.0014374657,0.05170715,0.051687163142423526,-0.025753285378504354,-1.865963904111251,1.69110482557221,67.86879960147662,67.86879960147661,-24.587068708930104,24.485203982557156,-2.922171191644189,70.30459423096126,0.35533715375608244,2.793125959466877,154.1282059917704,159.44831228681605,52.28,0.9684560952148402,,14.0904034,66.3387228,20190518,160027,2019-05-18T16:00:27Z,96.928,0.62,1.4,7.71,11,6,17,0.01,-0.02,-0.01,0,0,0,0,5,5,14.090398020484571,66.33872002694073,50,1919181,17,21,194,700,3512,3717,3723,-1188,14888,47,0,14889,0,false,false,false,false,false,false,true,false,false,false,5838,5738,4323,4805,54,68,68,53,1562,1547,1398,1450,1558,1542,1388,1444,0.0,0.0,0.0,0.0,1664.4,1660.7,1660.0,1664.4,5.04,3.84,2.65,3.07,0,0,0,0,-166.62648902767467,14.090402343420205,66.33872224497046,0,33.370487,32.454304,0.030400574,0.03703352,-0.96368486,0.9648752,9.569718,-0.7274192,8.217462,12.634687,140,-560,1455,1565.0,-0.014966568,-0.013352643,0.023222031,0.03068475,0.020057198659127026,0.003362533096036943,-1.7845024863816124,1.6867484073015842,62.945009944971474,62.9450099449715,-38.30646534886761,22.524587353468725,-6.275061557052709,70.39174874823142,0.3131198454817974,2.952685678048375,53.753412396282414,59.07351869132808,52.27,NONE,0.0,0.0,0.0,NONE,-3.842199724716471E-9,-1.8341992109179363E-10,5.722046E-5,2,54.82,54.15,33.96,41.13,16.801,16.801,5.991,7.371823,0,3426,4.198,12.0,7.294,99,24.6,OK,89,0,0,0,0,0,65,100,0.0,0,0.0,1.1621681E-20,2.69E-43,0.0,-2.99788717E15,63,2.02105E-11,-1.8836604E-11,2.383261E-37,False,False,0,None,5.0655926E29,1.1785753E-19,
365648864,18.183,14.090403095648698,66.3387228979966,17,33.482723,32.974247,0.028488692,0.052437957,-0.9913145,0.9931091,-13.122003,-4.4779696,-3.1758935,14.224115,143,-557,1458,1567.0,-0.024860334,-0.008011564,0.0015998078,0.026168317,0.026119367839538363,0.018430222994897185,-1.9517768850902992,1.55659878223635,67.79195894910642,67.7919589491064,-21.912170326850156,26.764802286366155,-3.7834244766827485,70.14930051640027,0.39142440340164525,2.8521697107387327,117.20422664124219,122.52433293628786,52.64,0.7980192360839808,,14.0904039,66.338723,20190518,160028,2019-05-18T16:00:28Z,96.97,0.62,1.4,7.68,11,6,17,0.0,-0.04,-0.01,0,0,0,0,5,5,14.090398020484571,66.33872002694073,50,1994120,16,21,195,736,3506,3784,3785,0,15138,19,1,17542,0,false,false,false,false,false,false,true,false,false,false,5909,5721,4231,4807,53,68,68,53,1571,1547,1398,1456,1558,1540,1409,1447,0.0,0.0,0.0,0.0,1662.5,1657.0,1657.6,1663.1,5.25,3.94,2.48,3.02,0,0,0,0,-163.57695616493112,14.090403099140927,66.338722348695,0,33.54599,32.44368,0.027536428,0.052651647,-0.9793239,0.98112476,9.947833,6.5018415,9.726264,15.356873,149,-557,1458,1567.0,-0.022896152,0.010606652,0.020625798,0.032590773,0.025233606228618217,0.009937305472011212,-1.833834489972048,1.4067806800276719,62.83037501069658,62.83037501069657,-40.11760217474959,21.202316457596385,-8.405264203658858,70.04729894994044,0.34353381770699815,3.023178777080622,43.719445571089054,49.03955186613473,52.57,NONE,0.0,0.0,0.0,NONE,1.647014403211563E-9,-1.5856904873521014E-9,1.411438E-4,2,54.17,52.67,35.28,42.19,16.787,16.787,5.979,7.437343,0,3424,4.194,12.0,7.303,99,24.6,OK,90,0,0,0,0,0,65,100,0.0,0,0.0,1.7863224E-22,2.69E-43,0.0,-2.99788717E15,63,1.9962254E-11,-1.8712703E-11,2.5232527E-37,False,False,0,None,5.5005158E29,1.1700719E-19,
369515259,19.188,14.090404310570046,66.33872265148632,17,33.498703,32.998455,0.033024073,0.028746046,-0.9839949,0.9849685,1.0993204,5.60133,0.117814146,5.709403,146,-591,1452,1574.0,0.028034244,-0.03152308,-0.020863237,0.047062702,0.04218558201138672,0.01827264206233766,-3.4936288848125727,1.5563429133371445,67.50899220567551,67.5089922056755,-23.56607549496538,24.176968306085577,-6.699071229396666,69.61900398792504,0.40492054904704644,2.9151731963565046,95.34817608925025,100.66828238429592,52.9,0.813999002929684,,14.090405,66.3387227,20190518,160029,2019-05-18T16:00:29Z,96.986,0.62,1.41,7.63,11,6,17,-0.03,0.0,-0.01,0,0,0,0,5,5,14.090398020484571,66.33872002694073,50,1994121,18,21,196,742,3490,3863,3865,3582,15455,19,1,15542,0,false,false,false,false,false,false,true,false,false,false,5901,5746,4560,4589,55,68,68,54,1571,1550,1408,1425,1568,1539,1401,1419,0.0,0.0,0.0,0.0,1663.7,1658.8,1660.0,1663.7,5.08,4.06,2.88,2.41,0,0,0,0,-175.78726228849243,14.09040420037301,66.3387220814057,0,33.472504,32.443764,0.021969777,0.03682425,-0.99625164,0.997174,-16.431183,-0.4657107,-3.8825471,16.89008,146,-582,1458,1576.0,-0.020761298,0.008610553,0.0069415784,0.023523577,0.022476056442291833,0.03467806076749984,-3.0237665284109445,1.48046266509484,62.64656474217893,62.64656474217895,-41.520702308795094,16.656411032075095,-6.750150301239769,69.9179632329245,0.35811081642062315,3.101286719975529,-21.15020262486273,-15.830096329817056,52.9,NONE,0.0,0.0,0.0,NONE,9.185657378783805E-10,-8.856762716530115E-10,5.722046E-5,2,55.93,52.51,35.34,37.57,16.778,16.778,5.978,7.467889,0,3422,4.191,12.0,7.278,99,24.7,OK,91,0,0,0,0,0,65,100,0.0,0,0.0,1.2408844E-28,2.69E-43,0.0,-2.99788717E15,63,1.9954705E-11,-1.8708706E-11,2.5976394E-37,False,False,0,None,5.731469E29,1.1698072E-19,
373444070,20.209,14.090404332549367,66.33872300925353,17,33.52983,32.995636,0.0187791,0.018924527,-0.9729593,0.9733245,6.7447796,-9.74745,1.7776526,11.986028,132,-548,1467,1571.0,0.07447541,-0.06684062,6.4869085E-4,0.10007335,0.10007124761793293,-0.06109881287838135,-1.1953822695869256,1.789815082767081,67.60382984390822,67.60382984390822,-23.194270017298205,26.33844830665687,-6.570160447913169,71.00108145318379,0.4351028028051894,2.9684457468943837,-3.51120372566564,1.8089025693800322,53.2,0.845126932617184,,14.0904053,66.338723,20190518,160030,2019-05-18T16:00:30Z,97.011,0.62,1.41,7.6,11,6,17,0.07,0.0,0.0,0,0,0,0,5,5,14.090398020484571,66.33872002694073,50,1994122,114,21,197,743,3490,3861,3864,3591,15474,19,3544,15470,0,false,false,false,false,false,false,true,false,false,false,5726,5680,4511,4667,55,69,69,55,1553,1547,1434,1440,1546,1536,1419,1443,0.0,0.0,0.0,0.0,1662.5,1658.8,1658.2,1661.9,4.73,4.03,2.94,2.71,0,0,0,0,-174.81948346257366,14.090404259642833,66.33872239991378,0,33.26571,32.44474,0.017976752,0.027266555,-0.9711206,0.9716696,14.612136,0.22582068,4.099044,15.177868,132,-548,1467,1571.0,0.04873984,-0.050576005,0.019168291,0.07280747,0.07023890935753715,-0.03545701563117716,-1.004479017501382,1.7217825852178603,62.821852372373584,62.8218523723736,-40.21645251875603,19.288227948353686,-4.984397270598088,71.34473324510321,0.38359491213431574,3.1743105006535495,-28.82583464360609,-23.505728348560417,53.22,NONE,0.0,0.0,0.0,NONE,-2.1888481215234845E-9,1.2010808981084752E-9,1.9073486E-5,2,52.66,52.95,38.63,39.06,16.775,16.775,5.979,7.474012,0,3419,4.188,12.0,7.342,99,24.7,OK,92,0,0,0,0,0,65,100,0.0,0,0.0,7.863563E-27,2.69E-43,0.0,-2.99788717E15,63,1.9946711E-11,-1.870471E-11,2.71737E-37,False,False,0,None,6.1033345E29,1.1695094E-19,
377320120,21.216,14.090404225940752,66.33872329719199,17,33.08141,32.993397,0.02080573,0.023308966,-1.1885823,1.1889929,-5.55087,-4.200432,-4.787575,8.448471,166,-541,1458,1563.0,0.054196045,-0.026726712,-0.08768499,0.10649031,0.06042787755994041,-0.028295800927142074,-0.9120575322295298,0.42780257941665156,67.73985812627203,67.739858126272,-25.79524434453251,23.588416774691183,-8.381274581869631,71.13090155111453,0.4570744282000314,3.0076562281020887,-15.793775018047452,-10.47366872300178,53.56,0.3967054543456996,,14.0904047,66.3387235,20190518,160032,2019-05-18T16:00:32Z,97.044,0.62,1.41,7.59,11,6,17,0.03,-0.04,0.0,0,0,0,2076,5,5,14.090398020484571,66.33872002694073,50,1997820,114,99,198,3492,3492,4380,4389,416,17538,24,3506,17523,0,false,false,false,false,false,false,true,false,false,false,6385,6415,4874,5217,53,70,69,54,1648,1653,1478,1525,1640,1653,1477,1505,0.0,0.0,0.0,0.0,1634.3,1628.8,1630.6,1634.9,6.9,6.35,4.13,4.58,0,0,0,0,-173.40922492478006,14.090403838899018,66.33872286431617,0,33.485977,32.456272,0.025028728,0.022186339,-1.2410355,1.2414861,6.8186383,-2.8568234,-1.2431436,7.496711,166,-541,1461,1566.0,0.0361534,-0.013866195,-0.15744612,0.16213766,0.03872130815627377,0.01582354260077016,-0.6783352226644005,0.4621924738448492,63.03850739856652,63.03850739856654,-39.520870853090486,21.21892492530704,-3.7590286511619895,71.24309224978973,0.4086073977571314,3.236573662820245,2.168491160911498,7.48859745595717,53.56,NONE,0.0,0.0,0.0,NONE,-7.59225952116972E-9,1.4275865965085506E-9,7.6293945E-5,2,64.6,65.9,44.13,49.41,16.763,16.763,5.975,7.464461,0,3417,4.188,12.0,7.263,99,24.8,OK,93,0,0,0,0,0,65,100,0.0,0,0.0,6.998982E-22,2.69E-43,0.0,-2.99788717E15,63,2.008127E-11,-1.8771767E-11,2.8299258E-37,False,False,0,None,6.567659E29,1.1741086E-19,
381169691,22.216,14.090404557393642,66.33872345922542,17,33.881966,33.805336,0.032277334,0.037121765,-0.960482,0.9617409,-7.45595,-7.0510144,1.0477868,10.315321,126,-535,1482,1580.0,-0.017088585,0.043934803,-0.9991645,1.000276,0.04714113670797792,-0.023841389510890137,-1.1947243133201924,2.7324675486525045,67.357101574899,67.35710157489899,-26.702718829714506,20.078456813771208,-6.273334162408777,68.64782998205516,0.480370699573565,3.089160297076608,152.38227592995474,157.7023822250004,53.84,1.1972616372070277,,14.0904056,66.3387235,20190518,160033,2019-05-18T16:00:33Z,97.809,0.62,1.41,7.58,11,6,17,-0.15,0.08,-0.63,0,0,0,10000,5,5,14.090398020484571,66.33872002694073,50,1998549,19,100,199,3499,3498,4385,4398,180,17603,24,1,17605,0,false,false,false,false,false,false,true,false,false,false,5960,5712,4604,4786,54,69,69,54,1573,1561,1440,1456,1563,1558,1428,1449,0.0,0.0,0.0,0.0,1658.2,1653.9,1653.3,1657.6,4.82,4.36,3.34,2.96,0,0,0,0,-169.32881157802868,14.090404780178737,66.33872297629797,0,34.193825,33.310215,0.03283342,0.037961878,-0.9695098,0.9708081,-14.711515,5.418024,-7.64486,17.44212,123,-535,1479,1577.0,-0.017014805,0.057009984,-0.9940877,0.9958664,0.059494889305064906,-0.01570417138118601,-1.3678608605871305,2.7446726818397083,62.758472843388404,62.758472843388404,-40.55989525304572,21.849091489284607,-3.352310987489039,68.7488633593706,0.44558957397235444,3.3387258569563314,95.79348301449807,101.11358930954374,53.84,NONE,0.0,0.0,0.0,NONE,3.2501681584062763E-9,1.9532495905465576E-10,-0.0025367737,2,55.15,54.8,39.27,40.33,16.64,16.64,5.963,7.461572,0,3415,4.184,12.0,8.151,99,24.8,OK,94,0,0,0,0,0,65,100,0.0,0,0.0,7.8913354E-23,2.69E-43,0.0,-2.99788717E15,63,4.1964654E-11,-2.6498475E-11,3.48632E-37,False,False,0,None,1.0645124E30,1.7046953E-19,
385144332,23.249,14.090405087064333,66.33872302851059,17,35.280045,34.811134,0.038163207,0.02358228,-0.8588501,0.860021,6.180537,-2.4587622,-2.1864493,7.0017934,135,-563,1488,1596.0,0.0043087057,0.009247784,-0.97718877,0.977242,0.010202276436185438,0.04150052974285115,-1.7378814866714063,2.1696594781185143,67.0492007761198,67.04920077611979,-30.907763104521027,16.647984927493304,-7.1839869311375955,69.66242090363644,0.45917506789777657,3.2008777076647803,-41.54687483531268,-36.22676854026701,54.12,2.595340555664059,,14.0904061,66.3387232,20190518,160034,2019-05-18T16:00:34Z,98.832,0.62,1.41,7.57,11,6,17,-0.05,0.03,-0.89,0,0,-2484,9789,5,5,14.090398020484571,66.33872002694073,50,1998550,114,100,200,3499,3498,4382,4390,4,17535,24,3492,17548,0,false,false,false,false,false,false,true,false,false,false,5468,5370,3826,4289,56,71,71,55,1479,1473,1305,1376,1460,1481,1300,1349,0.0,0.0,0.0,0.0,1681.5,1676.0,1676.6,1680.9,2.91,2.28,0.35,1.56,0,0,0,0,-168.35864811848734,14.090404944112597,66.33872250217917,0,35.237625,34.26873,0.038398713,0.014746572,-0.7928459,0.79391223,-3.6640038,-0.6951041,-8.252515,9.056053,135,-563,1488,1596.0,-0.0017156885,0.0279484,-0.8792068,0.8796525,0.02800101088224846,0.023523877385440914,-1.8451956955603157,2.102088682990337,62.197153817956945,62.19715381795697,-42.252146036824335,21.59537736506925,-3.248155500546612,69.72965728125969,0.4137842636573521,3.4534621378862296,-176.9004019838064,-171.58029568876074,54.16,NONE,0.0,0.0,0.0,NONE,7.0801924255636434E-9,-4.0875425915849765E-10,-0.00749588,2,45.61,43.99,22.53,32.26,16.688,16.688,5.968,7.489979,0,3413,4.142,12.0,7.788,99,24.8,OK,95,0,0,0,0,0,65,100,0.0,0,0.0,3.130348E-27,2.69E-43,0.0,-2.99788717E15,63,1.1041301E-10,-4.5065517E-11,4.29862E-37,False,False,0,None,1.53698E30,2.694905E-19,
388999338,24.251,14.090405008924307,66.3387229534319,17,35.782516,35.008556,0.042086277,0.045573395,-1.1257992,1.127507,-4.6818542,5.3952365,-3.7672153,8.075905,244,-541,1473,1588.0,0.0037099863,0.011650133,-0.0648324,0.06597521,0.012226593912369165,-0.0031963737135559615,-2.5346725275343074,1.7802224553465078,49.385033926356016,49.385033926356016,-48.575851496334614,16.483180091346924,-7.942280146845088,58.58256224917691,0.4507234292281786,3.2546117503400547,-4.803452513364238,0.5166537816814339,54.42,3.097812479492184,,14.090406,66.3387232,20190518,160035,2019-05-18T16:00:35Z,99.109,0.62,1.41,7.56,11,6,17,0.0,0.0,-0.34,0,0,0,1024,5,5,14.090398020484571,66.33872002694073,50,2017664,16,100,201,3481,3472,4333,4349,-1385,17453,23,0,17222,0,false,false,false,false,false,false,true,false,false,false,6439,6193,4678,5009,54,69,69,55,1655,1639,1467,1508,1658,1644,1454,1495,0.0,0.0,0.0,0.0,1632.5,1630.0,1630.6,1633.7,7.1,6.03,4.04,4.46,0,0,0,0,-168.9147263387403,14.090405129335693,66.3387223370117,0,35.605293,34.403587,0.043183774,0.04588572,-1.1901497,1.1918166,0.72554827,-11.789195,-5.680355,13.106409,246,-541,1473,1588.0,-0.0045819897,0.011501766,-0.063434534,0.06463146,0.0123808419546723,0.00772110123828915,-2.443586084598886,1.6666085728116269,44.837763992758426,44.837763992758426,-61.108057027100514,18.71127544317727,-4.608741558443688,58.79479852320434,0.4081923758580056,3.5723143062077836,-174.25452957592603,-168.93442328088037,54.43,NONE,0.0,0.0,0.0,NONE,8.718700539044509E-10,-2.2610405369264742E-10,1.0681152E-4,2,65.7,63.98,42.63,47.39,16.793,16.793,5.932,7.5131803,1634,3411,4.176,12.0,6.481,99,24.8,OK,96,0,0,0,0,0,65,100,0.0,0,0.0,3.2592898E-29,2.69E-43,0.0,3.041665E-35,64,1.5417001E-10,-5.128543E-11,4.6511535E-37,False,False,0,None,1.7559793E30,3.121995E-19,
392853468,25.253,14.090405637007645,66.33872281283467,17,36.087425,35.718147,0.029959053,0.04421493,-0.8297229,0.8314401,3.1885245,-9.56563,5.5718646,11.520141,252,-566,1473,1597.0,0.022672838,-3.5302038E-4,-0.3275457,0.32832965,0.02267558607654872,0.00936478350588282,-3.631583760075139,1.337211077440587,48.999583936018155,48.999583936018155,-51.407091478065375,12.945960858505085,-5.811668400572381,58.66814390538815,0.4598795097545717,3.30747452694228,-174.5531660152927,-169.23305972024704,54.72,3.40272123193359,,14.0904064,66.3387232,20190518,160036,2019-05-18T16:00:36Z,99.895,0.62,1.41,7.54,11,6,17,-0.07,0.03,-0.69,0,0,0,0,5,5,14.090398020484571,66.33872002694073,50,2017664,20,100,202,3481,3472,4333,4349,-1385,17453,23,2,17222,0,false,false,false,false,false,false,true,false,false,false,5438,5266,3803,4255,55,71,71,56,1522,1512,1365,1397,1515,1533,1358,1376,0.0,0.0,0.0,0.0,1663.7,1659.4,1659.4,1663.1,4.78,3.77,2.44,2.69,0,0,0,0,-166.73051722641128,14.090405144481025,66.33872258092292,0,36.237755,35.12005,0.027238527,0.03846044,-0.83528566,0.8366142,-13.042628,-5.231943,-7.892265,16.11742,255,-566,1473,1598.0,-0.001221313,0.0024380288,-0.27958554,0.27959883,0.0027268277999356423,0.024358021289997447,-3.7442482337577605,1.2319762913393706,44.62957447673745,44.629574476737446,-60.5351541607858,19.34249560368839,-7.458596764602709,58.48405718312583,0.42628544431534166,3.6590746037235387,-31.8942546012173,-26.574148306171626,54.67,NONE,0.0,0.0,0.0,NONE,4.888008636041143E-10,-8.551896152825867E-10,-0.0024528503,2,53.67,46.18,31.14,40.38,16.695,16.695,6.001,7.509427,1634,3409,4.192,12.0,8.375,99,24.9,OK,97,0,0,0,0,0,65,100,0.0,0,0.0,3.8670824E-28,2.69E-43,0.0,3.041665E-35,64,3.3013947E-10,-7.619196E-11,5.8671703E-37,False,False,0,None,2.5113935E30,4.2147998E-19,
396752705,26.266,14.090405639715286,66.33872338316473,17,36.84475,36.242466,0.026271204,0.050695244,-0.8125324,0.81453615,1.8560416,-9.41987,5.5406585,11.085024,249,-548,1476,1594.0,0.01172991,0.017537804,-0.36615744,0.36676484,0.021098942636299856,0.04148077230671528,-3.2241944664731257,1.2622186129122297,48.91260848023156,48.91260848023154,-53.37386967003249,12.932561353918347,-8.398239233445166,58.70969005812254,0.5048603009257772,3.3925578967820758,31.926376778316733,37.246483073362405,55.03,4.16004545068359,,14.0904061,66.3387234,20190518,160037,2019-05-18T16:00:37Z,100.374,0.62,1.41,7.53,11,6,17,-0.05,0.0,-0.61,0,6146,0,0,5,5,14.090398020484571,66.33872002694073,50,2017665,114,100,203,3480,3472,4295,4315,-2939,17171,23,3498,17343,0,false,false,false,false,false,false,true,false,false,false,5119,4961,3578,4075,55,70,70,56,1498,1495,1352,1378,1492,1497,1341,1378,0.0,0.0,0.0,0.0,1668.7,1666.2,1665.6,1669.9,3.92,3.26,2.21,1.94,0,0,0,0,-164.89680611159778,14.090405626682948,66.33872286456067,0,36.52518,35.56661,0.025776347,0.043571994,-0.7435366,0.7452581,-8.429482,-8.339666,-6.1126842,13.340582,244,-535,1467,1580.0,0.008102211,0.010813095,-0.46272123,0.46291846,0.013511804184639398,0.024164232259947786,-3.24586110486013,1.8002156201942765,44.59393055035219,44.593930550352184,-59.653403846697216,19.550491973541714,-6.230995216671562,57.187290678334044,0.4634357768177715,3.75389796379969,24.376347004311782,29.696453299357454,55.01,NONE,0.0,0.0,0.0,NONE,2.3881364334240975E-10,2.2570243901167434E-10,-0.0019340515,2,51.17,49.08,27.88,34.57,16.754,16.754,6.01,7.5099173,1633,3407,4.155,12.0,6.951,99,24.9,OK,98,0,0,0,0,0,65,100,0.0,0,0.0,1.6119584E-26,2.69E-43,0.0,3.041665E-35,64,5.102265E-10,-9.5918405E-11,6.564087E-37,False,False,0,None,3.35327E30,5.447514E-19,
400609829,27.269,14.090409004483961,66.33872400359655,17,37.0018,36.295578,0.023081027,0.054184597,-1.0046052,1.0063301,-12.331589,-4.754128,-7.372928,15.133733,329,-545,1461,1593.0,0.25157735,0.34818053,-0.014234057,0.42979467,0.42955889077615006,-0.26471715906791105,-3.3363749885986556,-0.9650359546337669,48.68222896901713,48.68222896901716,-55.27418062301824,13.355619132449041,-12.084051769778304,56.4985907121637,0.6601456783883286,3.5739672375385383,82.63574330910905,87.95584960415472,55.39,4.3170965371093715,,14.0904092,66.3387239,20190518,160038,2019-05-18T16:00:38Z,100.557,0.62,1.41,7.52,11,6,17,0.14,0.31,-0.24,0,10000,0,0,5,5,14.090398020484571,66.33872002694073,50,2017665,114,100,203,3480,3472,4295,4315,-2939,17171,23,3498,17343,0,false,false,false,false,false,false,true,false,false,false,5957,5774,4440,4965,56,71,70,57,1566,1556,1410,1471,1559,1550,1408,1456,0.0,0.0,0.0,0.0,1656.4,1653.3,1652.7,1658.2,5.0,4.07,2.54,3.0,0,0,0,0,-163.0705265642962,14.090408317409674,66.33872334179532,0,37.37691,35.64464,0.023773018,0.060377534,-0.9913699,0.9934913,7.7892504,3.4721537,4.188292,9.501056,327,-541,1461,1591.0,0.24683324,0.31087133,0.022330564,0.3975755,0.39694789982888934,-0.26598967680628716,-3.1486845823066862,-0.8389296833796127,44.44013684826166,44.44013684826166,-61.95580192268224,19.55683125851133,-6.998913679563781,56.435358233127396,0.5890753190726256,3.9609527879810833,48.99580861898335,54.31591491402902,55.34,NONE,0.0,0.0,0.0,NONE,1.1358657112403437E-8,3.762950997933011E-9,7.6293945E-5,2,55.89,53.81,35.48,42.26,16.768,16.768,5.956,7.4987707,1634,3405,4.179,12.0,7.192,99,24.9,OK,99,0,0,0,0,0,65,100,0.0,0,0.0,4.0290454E-30,2.69E-43,0.0,3.041665E-35,64,5.5086957E-10,-9.8458595E-11,8.933817E-37,False,False,0,None,5.771431E30,5.621818E-19,
404548028,28.292,14.090421378791188,66.33872607969445,17,36.96499,36.33166,-0.00844142,0.059889536,-0.99575335,0.99758846,-1.0950121,7.544025,-13.454772,15.464225,381,-517,1455,1590.0,0.29533207,0.6178336,-0.020121915,0.6850871,0.6847914965584588,-0.10002140412080474,-3.811298656308988,-0.7863960880059416,41.25560900372902,41.255609003729035,-67.52663635773767,12.585314197708003,-9.874628519660504,49.29620688918185,1.2407803961424935,4.182588393717594,60.6312919405387,65.95139823558438,55.73,4.28028470849609,,14.0904204,66.3387258,20190518,160039,2019-05-18T16:00:39Z,100.651,0.62,1.41,7.5,11,6,17,0.27,0.63,-0.1,0,10000,-9998,0,5,5,14.090398020484571,66.33872002694073,50,2017665,114,100,203,3480,3472,4295,4315,-2939,17171,23,3498,17343,0,false,false,false,false,false,false,true,false,false,false,5822,5638,4593,5082,56,72,71,56,1545,1541,1437,1474,1545,1537,1431,1457,0.0,0.0,0.0,0.0,1658.2,1652.1,1653.9,1657.0,4.5,3.68,3.07,3.22,0,0,0,0,-159.342011357353,14.090421575387854,66.33872547543191,0,37.32678,35.649647,-0.009054521,0.06173821,-0.98435193,0.9863277,-18.477663,-9.919119,-34.019695,39.964394,384,-517,1455,1591.0,0.48542812,0.5070721,-0.010117659,0.7020434,0.7019704877078473,-0.07917589436605321,-3.84585831079053,-1.0061712553091933,32.941679332781476,32.94167933278146,-73.78722267471122,19.307608556352655,-7.103958298014665,49.45059004100385,1.2132493709743295,4.611062737069357,77.52051251423504,82.84061880928071,55.72,NONE,0.0,0.0,0.0,NONE,8.407574933331838E-8,3.091224815467071E-8,1.1062622E-4,2,52.82,51.18,38.98,43.78,16.737,16.737,5.951,7.46778,1640,3403,4.183,12.0,7.473,99,24.9,OK,100,0,0,0,0,0,65,100,0.0,0,0.0,2.3803393E-35,2.69E-43,0.0,3.041665E-35,64,5.541665E-10,-9.866465E-11,2.4070663E-36,False,False,0,None,3.5322143E31,5.635979E-19,
408582125,29.341,14.090436236095993,66.33872916682958,17,37.10329,36.38737,-0.023352137,0.053343914,-0.9893505,0.9910627,-12.344031,-8.409019,-26.19644,30.155268,458,-483,1437,1583.0,0.48506597,0.67928576,-0.010060519,0.8347571,0.834696445624239,-0.12258179947892822,-4.050139719388077,-2.551500808782229,37.41486524646122,37.414865246461204,-76.33538702309045,10.135118526386337,-11.063490924166429,44.116264998910474,1.9852636930937744,4.9301888075830425,54.34487702368148,59.66498331872715,56.01,4.418586557861325,,14.0904352,66.338729,20190518,160040,2019-05-18T16:00:40Z,100.707,0.62,1.41,7.48,11,6,17,0.44,0.72,-0.05,0,9764,-8483,0,5,5,14.090398020484571,66.33872002694073,50,2017665,114,100,203,3480,3472,4295,4315,-2939,17171,23,3498,17343,0,false,false,false,false,false,false,true,false,false,false,5784,5519,4738,5131,56,72,70,56,1552,1520,1433,1501,1541,1518,1441,1483,0.0,0.0,0.0,0.0,1657.0,1653.3,1653.3,1656.4,4.76,3.6,2.95,3.46,0,0,0,0,-155.35167591179962,14.09043722628943,66.33872867403763,0,37.13464,35.661926,-0.022575263,0.048244663,-0.98235685,0.9837998,-5.7970886,-0.2538659,-19.166483,20.025602,461,-480,1437,1583.0,0.64032024,0.57318264,0.0018695975,0.8593904,0.8593883513367159,-0.1118247017933286,-3.8679148875665263,-2.623576152236065,26.215681729997282,26.2156817299973,-81.86728971753259,18.867098875443048,-7.981000160654117,44.15503655990604,1.996387892495933,5.399032214720338,51.79148201420034,57.11158830924602,56.03,NONE,0.0,0.0,0.0,NONE,3.1814253064487484E-8,1.4356073576336053E-8,3.8146973E-6,2,54.06,49.67,38.37,45.02,16.721,16.721,5.959,7.4429207,1644,3399,4.183,12.0,7.485,98,25.0,OK,101,0,0,0,0,0,65,100,0.0,0,-1.1619274E-7,3.649611E-36,-6.3264E-8,-2.0279882E-9,3.04172E-35,64,5.6328986E-10,-9.923486E-11,9.297841E-36,False,False,0,None,4.3062487E32,5.6752867E-19,
412437427,30.343,14.09045520200163,66.33873411632837,17,37.444447,36.409306,-0.035567474,0.03959618,-0.9952381,0.9966603,3.0864666,-0.8751583,-22.441545,22.669697,527,-282,1455,1572.0,0.57061636,0.9349291,0.018419035,1.095461,1.095306106962302,-0.08772636248250643,-0.6968643927244975,-2.9431254141734877,18.792659316213896,18.79265931621387,-96.67979997579482,13.646265853783346,-15.054700297343587,30.346328187284026,2.99432173158058,5.9409508356551015,55.47789462358895,60.79800091863462,56.26,4.7597425637207,,14.090453,66.3387339,20190518,160041,2019-05-18T16:00:41Z,100.72,0.62,1.41,7.49,11,6,17,0.6,0.92,-0.03,10000,10000,-9998,0,5,5,14.090398020484571,66.33872002694073,50,2017665,114,100,203,3480,3472,4295,4315,-2939,17171,23,3498,17343,0,false,false,false,false,false,false,true,false,false,false,5731,5591,4772,5216,57,72,71,56,1540,1536,1457,1493,1527,1533,1452,1482,0.0,0.0,0.0,0.0,1656.4,1652.1,1652.1,1656.4,4.47,3.67,3.04,3.38,0,0,0,0,-156.35710486329174,14.090456569202551,66.33873373177043,0,37.31542,35.668606,-0.032488976,0.04759739,-0.98131675,0.98300743,15.360151,6.648431,-7.3969593,18.298931,527,-279,1455,1572.0,0.5716217,1.0052812,0.01634332,1.1565504,1.1564348949342624,-0.12823016732991777,-0.7194226460962921,-3.000317581805269,20.241095640794327,20.241095640794356,-103.58558999246794,19.32593199342644,-5.723586546789972,30.08913515352727,3.0247161699306435,6.431292439853088,47.806366471420674,53.12647276646634,56.23,NONE,0.0,0.0,0.0,NONE,5.129291967727815E-8,1.2406020598494834E-8,2.2888184E-5,2,51.4,49.19,40.76,47.48,16.713,16.713,5.956,7.42873,1646,3397,4.175,12.0,7.416,98,25.0,OK,102,0,0,0,0,0,65,100,0.0,0,-1.2737486E-10,4.3244047E-35,-6.3264E-8,-2.223152E-12,3.04172E-35,64,5.6877525E-10,-9.95777E-11,5.208507E-35,False,False,0,None,1.0418186E34,5.6987125E-19,
