Tick#,offsetTime,IMU_ATTI(0):Longitude,IMU_ATTI(0):Latitude,IMU_ATTI(0):numSats,IMU_ATTI(0):barometer:Raw,IMU_ATTI(0):barometer:Smooth,IMU_ATTI(0):accel:X,IMU_ATTI(0):accel:Y,IMU_ATTI(0):accel:Z,IMU_ATTI(0):accel:Composite,IMU_ATTI(0):gyro:X,IMU_ATTI(0):gyro:Y,IMU_ATTI(0):gyro:Z,IMU_ATTI(0):gyro:Composite,IMU_ATTI(0):mag:X,IMU_ATTI(0):mag:Y,IMU_ATTI(0):mag:Z,IMU_ATTI(0):mag:Mod,IMU_ATTI(0):velN,IMU_ATTI(0):velE,IMU_ATTI(0):velD,IMU_ATTI(0):velComposite,IMU_ATTI(0):velH,IMU_ATTI(0):GPS-H,IMU_ATTI(0):roll,IMU_ATTI(0):pitch,IMU_ATTI(0):yaw,IMU_ATTI(0):yaw360,IMU_ATTI(0):totalGyro:Z,IMU_ATTI(0):totalGyro:X,IMU_ATTI(0):totalGyro:Y,IMU_ATTI(0):magYaw,IMU_ATTI(0):distanceHP,IMU_ATTI(0):distanceTravelled,IMU_ATTI(0):directionOfTravel[mag],IMU_ATTI(0):directionOfTravel[true],IMU_ATTI(0):temperature,General:relativeHeight,General:absoluteHeight,GPS(0):Long,GPS(0):Lat,GPS(0):Date,GPS(0):Time,GPS:dateTimeStamp,GPS(0):heightMSL,GPS(0):hDOP,GPS(0):pDOP,GPS(0):sAcc,GPS(0):numGPS,GPS(0):numGLNAS,GPS(0):numSV,GPS(0):velN,GPS(0):velE,GPS(0):velD,RC:Aileron,RC:Elevator,RC:Rudder,RC:Throttle,Controller:navHealth,Controller:ctrl_level,HP:Longitude,HP:Latitude,HP:rthHeight,BatBlackBox:tick,BatBlackBox:id,BatBlackBox:rsoc,BatBlackBox:index,BatBlackBox:rm,BatBlackBox:fcc,BatBlackBox:cell_min,BatBlackBox:cell_max,BatBlackBox:current,BatBlackBox:voltage,BatBlackBox:temp,BatBlackBox:flag,BatBlackBox:reserve,BatBlackBox:user_data,OA:avoidObst,OA:emergBrake,OA:radiusLimit,OA:airportLimit,OA:groundForceLanding,OA:horizNearBoundary,OA:vertLowLimit,OA:vertAirportLimit,OA:roofLimit,OA:hitGroundLimit,Motor:Speed:RFront,Motor:Speed:LFront,Motor:Speed:LBack,Motor:Speed:RBack,Motor:EscTemp:RFront,Motor:EscTemp:LFront,Motor:EscTemp:LBack,Motor:EscTemp:RBack,Motor:PPMrecv:RFront,Motor:PPMrecv:LFront,Motor:PPMrecv:LBack,Motor:PPMrecv:RBack,Motor:PPMsend:RFront,Motor:PPMsend:LFront,Motor:PPMsend:LBack,Motor:PPMsend:RBack,Motor:V_out:RFront,Motor:V_out:LFront,Motor:V_out:LBack,Motor:V_out:RBack,Motor:Volts:RFront,Motor:Volts:LFront,Motor:Volts:LBack,Motor:Volts:RBack,Motor:Current:RFront,Motor:Current:LFront,Motor:Current:LBack,Motor:Current:RBack,Motor:Status:RFront,Motor:Status:LFront,Motor:Status:LBack,Motor:Status:RBack,Motor:thrustAngle,IMU_ATTI(1):Longitude,IMU_ATTI(1):Latitude,IMU_ATTI(1):numSats,IMU_ATTI(1):barometer:Raw,IMU_ATTI(1):barometer:Smooth,IMU_ATTI(1):accel:X,IMU_ATTI(1):accel:Y,IMU_ATTI(1):accel:Z,IMU_ATTI(1):accel:Composite,IMU_ATTI(1):gyro:X,IMU_ATTI(1):gyro:Y,IMU_ATTI(1):gyro:Z,IMU_ATTI(1):gyro:Composite,IMU_ATTI(1):mag:X,IMU_ATTI(1):mag:Y,IMU_ATTI(1):mag:Z,IMU_ATTI(1):mag:Mod,IMU_ATTI(1):velN,IMU_ATTI(1):velE,IMU_ATTI(1):velD,IMU_ATTI(1):velComposite,IMU_ATTI(1):velH,IMU_ATTI(1):GPS-H,IMU_ATTI(1):roll,IMU_ATTI(1):pitch,IMU_ATTI(1):yaw,IMU_ATTI(1):yaw360,IMU_ATTI(1):totalGyro:Z,IMU_ATTI(1):totalGyro:X,IMU_ATTI(1):totalGyro:Y,IMU_ATTI(1):magYaw,IMU_ATTI(1):distanceHP,IMU_ATTI(1):distanceTravelled,IMU_ATTI(1):directionOfTravel[mag],IMU_ATTI(1):directionOfTravel[true],IMU_ATTI(1):temperature,IMUEX(0):err,IMUEX(0):rtk_Longitude,IMUEX(0):rtk_Latitude,IMUEX(0):rtk_Alti,IMUEX(1):err,IMUEX(1):rtk_Longitude,IMUEX(1):rtk_Latitude,IMUEX(1):rtk_Alti,MotorCtrl:Status,MotorCtrl:PWM:RFront,MotorCtrl:PWM:LFront,MotorCtrl:PWM:LBack,MotorCtrl:PWM:RBack,BattInfo:Voltage,BattInfo:BatVoltage,BattInfo:AdVoltage,BattInfo:AvgCurrent,BattInfo:R_time,BattInfo:R_CAP_MAH,BattInfo:LowCellVoltage,BattInfo:LowCellVolThreshold,BattInfo:BatCurrent,BattInfo:Remaining%,BattInfo:Temp,BattInfo:status,battery_info:BatDynCnt,battery_info:Vol1Protect,battery_info:Vol2Protect,battery_info:Cap1Protect,battery_info:Cap2Protect,battery_info:Batpresent,battery_info:sopPercentage,battery_info:sopValue,battery_info:sopScale,battery_info:sopFlg,BattInfo:WindHeading:WindDir,battery_info:home_dir,BattInfo:Wind:rangeMin,BattInfo:Wind:rangeMax,battery_info:cap_speed,battery_info:against_wind,battery_info:emergency_land_cap,battery_info:intel_bat_land_cap,battery_info:intel_bat_gh_cap,BattInfo:Smart:SmartGh,BattInfo:Smart:SmartLand,BattInfo:GoHome:CntDown,BattInfo:GoHome:GhCmd,BattInfo:GoHome:CapLevel,BattInfo:GoHome:LandCapLv,Attribute|Value,ConvertDatV3,3.6.6-Tablet
66480486,.000,,,0,-118.51861,-118.38984,0.0046423543,-0.091074355,-0.9793387,0.98357534,0.15591748,0.086764865,0.28160837,0.33337918,418,349,1420,1520.0,0.14376475,0.021994805,-0.011449005,0.14588748,0.14543753085117644,-0.14543753085117644,5.364710605321996,0.14035500869976641,-25.633363915117258,334.36663608488277,1.3946536870082769,3.0460654337767465,0.1838646240753542,-26.991569450127898,,0.0,,,22.59,,,0.0,0.0,20151019,175132,2015-10-19T17:51:32Z,-17.0,99.99,99.99,3.75E7,0,0,0,0.0,0.0,0.0,-9998,-9998,9998,-9998,0,0,,,,,,,,,,,,,,,,,,false,false,false,false,false,false,false,false,false,false,0,0,0,0,34,45,45,34,944,944,943,944,940,940,940,940,0.0,0.0,0.0,0.0,1633.7,1626.4,1627.0,1633.7,0.0,0.0,0.0,0.0,0,0,0,0,-45.0,4.4927402511540065E-11,4.007490838552642E-11,0,-118.65073,-119.04204,0.004456181,-0.09097924,-0.97909147,0.98331946,0.4459775,-0.015743189,0.2810891,0.5274039,418,349,1420,1520.0,0.0017748355,0.0020158268,0.001461331,0.0030576275,0.0026858142359359786,-0.0026858142359359786,5.423217992301937,-0.10519278870721868,-28.18702837839466,331.81297162160536,1.0889507917264147,2.2495690280723304,0.16305909958399442,-27.175292463774234,,0.0013579051220808363,,,22.61,NONE,0.0,0.0,0.0,NONE,-6.164968292115676E-11,1.2311948890486758E-10,2.2888184E-5,,,,,,16.417,16.417,5.876,1.3810251,0,2798,4.097,12.0,1.24,78,16.1,OK,15,0,0,0,0,0,65,100,0.0,0,0.0,589232.0,2.69E-43,0.0,-8.698583E-32,67,3.0994852E-7,-3.0995042E-7,9.4E-44,False,False,0,None,0.0,1.0842022E-19,Firmware Date| Oct 17 2018
70334632,1.002,0.0,0.0,0,-118.470535,-118.33793,0.0048360173,-0.094221845,-0.9777083,0.98224974,1.360717,-0.04323535,-0.80452067,1.5813519,421,338,1453,1550.0,0.0,0.0,0.041218393,0.041218393,0.0,0.0,5.3699302849855535,0.1633071975387836,-25.672550798140914,334.3274492018591,1.623625059752318,3.3707912601679038,0.11008276452527142,-25.249289760334715,,0.0,,,22.84,-0.08482327832031444,,0.0,0.0,20151019,175133,2015-10-19T17:51:33Z,-17.0,99.99,99.99,3.75E7,0,0,0,0.0,0.0,0.0,0,0,0,0,0,0,,,,,,,,,,,,,,,,,,false,false,false,false,false,false,false,false,false,false,398,427,409,413,39,47,48,38,1270,1279,1275,1274,1262,1262,1262,1262,0.1,0.1,0.1,0.1,1590.8,1584.0,1585.8,1592.6,7.76,7.31,7.89,7.39,0,0,0,0,96.84277341263095,3.275799564204685E-11,-3.111014772408661E-12,0,-118.470535,-119.043,0.004140975,-0.09567031,-0.9791865,0.98385775,0.4376583,0.27319673,-0.6327727,0.81644505,421,341,1456,1553.0,-1.8024482E-4,0.0014140117,0.0022723956,0.00268248,0.0014254533830564764,-0.0014204726567768457,5.4019755976195425,-0.10478808243487119,-28.185359217520976,331.81464078247905,1.0036212337569288,3.2081535877823377,0.42892523566602253,-25.82273169094721,,0.0014409593533471151,,,22.84,NONE,0.0,0.0,0.0,NONE,1.0659486397685288E-10,4.767065653864905E-12,2.2888184E-5,1,22.5,22.5,22.5,22.5,16.404,16.404,5.718,1.3353486,0,2798,4.096,12.0,1.244,78,16.1,OK,16,0,0,0,0,0,65,100,0.0,0,0.0,589232.0,2.69E-43,0.0,-8.698583E-32,67,3.0994852E-7,-3.0995042E-7,9.4E-44,False,False,0,None,0.0,1.0842022E-19,ACType|MavicEnterprise
74222134,2.012,0.0,0.0,0,-118.470535,-118.391556,0.012373302,-0.0904616,-0.9756865,0.9799493,3.968395,4.1721673,-3.7987242,6.8982205,410,343,1435,1531.0,0.10174696,-0.0047849338,0.08698201,0.13394481,0.10185941064947786,-0.10185941064947786,5.309435196434043,0.46667268099408965,-26.134983599919853,333.86501640008015,4.201132160285992,2.933121119940771,1.0363850057887662,-26.32551923918905,,0.0,,,23.14,-0.08482327832031444,,0.0,0.0,20151019,175134,2015-10-19T17:51:34Z,-17.0,99.99,99.99,3.75E7,0,0,0,0.0,0.0,0.0,0,0,0,0,0,0,,,,8667,16,20,40,738,3702,3762,3764,0,15055,23,1,17515,0,false,false,false,false,false,false,false,false,false,false,2056,1973,1991,2052,39,48,48,39,1211,1205,1205,1209,1207,1200,1204,1212,0.0,0.0,0.0,0.0,1625.1,1618.4,1618.4,1626.4,0.7,0.18,0.74,0.42,0,0,0,0,-84.44702896696322,-8.581552443800836E-10,2.129073690576801E-9,0,-118.470535,-119.2246,0.012758043,-0.08732282,-0.97458535,0.9785728,-2.8922458,-2.0161145,1.7869754,3.9526048,410,343,1432,1528.0,0.09446706,-0.038495243,0.1508197,0.18207826,0.10200935873755967,-0.10175503689661446,5.3143631055238645,0.09804805885865298,-28.879645670624317,331.1203543293757,-1.378176670380335,3.65828167045959,0.4757360759665902,-26.85839013876825,,0.002187515806697582,,,23.15,NONE,0.0,0.0,0.0,NONE,-2.6783760262007713E-9,6.43915945664771E-9,0.0010528564,2,11.12,10.0,10.22,11.11,16.099,16.099,5.845,1.3695695,0,2797,4.096,12.0,4.776,78,16.1,OK,17,0,0,0,0,0,65,100,0.0,0,0.0,589232.0,2.69E-43,0.0,-8.698583E-32,67,3.0994852E-7,-3.0995042E-7,9.4E-44,False,False,0,None,0.0,1.0842022E-19,dateTime|2015-10-19 17:51:25 GMT
78079426,3.015,0.0,0.0,0,-118.470535,-118.444435,0.010396839,-0.0869055,-0.97959465,0.983497,0.6457732,4.6878653,-1.8611544,5.0849776,410,341,1432,1528.0,0.06321632,0.04480959,0.10195468,0.12805843,0.0774867901340094,-0.0774867901340094,5.278209042297706,0.5239076218822701,-26.110721429386157,333.88927857061384,4.3106592920260285,3.626459377094209,1.215696019542312,-26.148577533006602,,0.0,,,23.44,-0.08482327832031444,,0.0,0.0,20151019,175135,2015-10-19T17:51:35Z,-17.0,99.99,99.99,3.75E7,0,0,0,0.0,0.0,0.0,0,0,0,9202,0,0,,,,8669,18,20,41,740,3703,3842,3843,3562,15375,23,1,15466,0,false,false,false,false,false,false,false,false,false,false,3060,2578,2393,2864,39,49,49,40,1374,1291,1295,1332,1330,1302,1278,1306,0.0,0.0,0.0,0.0,1607.9,1601.8,1602.4,1609.1,3.08,1.74,1.8,2.32,0,0,0,0,-111.79104296221794,-7.20846407966951E-10,1.6236111573316896E-9,0,-118.470535,-119.38869,0.01076986,-0.09004666,-0.9771381,0.9813375,1.3601682,-3.8429546,3.823969,5.5893736,410,343,1432,1528.0,0.07284784,-0.030833425,0.17664798,0.19355106,0.07910441464121208,-0.07904631772960279,5.328241586262495,0.13435125631317069,-28.870618693240072,331.1293813067599,-1.4797964819016411,4.350856752423447,-0.3408345493577286,-26.76780609607958,,0.002261580949177546,,,23.44,NONE,0.0,0.0,0.0,NONE,-6.970859179079388E-10,1.6365957623317252E-9,4.4250488E-4,2,28.52,23.0,20.94,26.45,16.28,16.28,5.842,1.5521786,0,2796,3.992,12.0,2.682,78,16.1,OK,18,0,0,0,0,0,65,100,0.0,0,0.0,589232.0,2.69E-43,0.0,-3.3654391E38,62,3.0994852E-7,-3.0995042E-7,9.4E-44,False,False,0,None,0.0,1.0842022E-19,
82069690,4.052,0.0,0.0,0,-118.470535,-118.31327,-0.038866557,0.06126028,-0.98286253,0.9855365,22.482838,-13.96215,2.6928024,26.602081,384,115,1478,1531.0,0.026762173,0.28515315,-0.33688018,0.44217283,0.2864062464204695,-0.2864062464204695,-3.5365794298399433,0.46903372961239853,-27.25312924902157,332.7468707509784,2.529961369470988,-4.163857932971703,5.300898624612,-27.47783992763386,,0.0,,,23.72,-0.08482327832031444,,0.0,0.0,20151019,175136,2015-10-19T17:51:36Z,-17.0,99.99,99.99,3.75E7,0,0,0,0.0,0.0,0.0,0,0,0,0,0,0,,,,11563,19,94,42,3481,3721,4335,4346,0,17345,29,1,17411,0,false,false,false,false,false,false,true,false,false,false,5624,5277,4842,4562,37,48,48,38,1614,1520,1435,1489,1594,1485,1437,1493,0.0,0.0,0.0,0.0,1562.0,1555.8,1556.4,1562.6,6.39,4.02,2.7,2.9,0,0,0,0,-177.4373700030525,4.958822549880144E-9,1.4845286190200128E-9,0,-118.470535,-119.34805,-0.037661813,0.054581754,-0.98525196,0.9874811,16.559925,-14.84496,-0.19964622,22.24059,378,118,1481,1533.0,0.064868994,0.22149475,-0.2675069,0.35330987,0.23079842087099667,-0.2301892519429745,-3.521812538476269,0.40326927325028306,-29.608857271813,330.391142728187,2.0563045854934865,-1.7293047436314097,1.2388664943623247,-28.260098205698796,,0.0033327945723920726,,,23.74,NONE,0.0,0.0,0.0,NONE,3.492072494055207E-9,4.484374132866287E-9,-6.1035156E-4,2,56.18,47.32,42.35,45.46,16.28,16.28,5.607,1.7974929,0,2795,4.073,12.0,2.452,78,16.1,OK,19,0,0,0,0,0,65,100,0.0,0,0.0,589232.0,2.69E-43,0.0,-3.3654391E38,62,3.0994852E-7,-3.0995042E-7,9.4E-44,False,False,0,None,0.0,1.0842022E-19,
85947122,5.059,0.0,0.0,0,-117.26896,-118.14663,0.004417925,0.07232931,-0.92270154,0.92554265,16.690517,-8.970173,14.10254,23.62031,427,98,1438,1503.0,0.04310651,0.25242066,-0.016736701,0.25662127,0.2560749165264553,-0.2560749165264553,-4.33953450110673,-0.27457133241897996,-26.468025594332445,333.53197440566754,3.1380745960496252,-3.8644803238276935,5.537684267033675,-26.176268348048012,,0.0,,,24.03,1.1167529545898418,,0.0,0.0,20151019,175137,2015-10-19T17:51:37Z,-17.0,99.99,99.99,3.75E7,0,0,0,0.0,0.0,0.0,0,8124,0,0,0,0,,,,22171,16,94,43,3462,3726,4271,4287,-1386,17151,24,0,16512,0,false,false,false,false,false,false,true,false,false,false,5607,5281,4327,5219,38,48,48,38,1566,1520,1453,1533,1557,1552,1444,1508,0.0,0.0,0.0,0.0,1557.0,1549.1,1550.9,1557.0,4.98,3.09,2.88,4.13,0,0,0,0,-137.77309693663977,2.1854295536405268E-9,3.921350811242533E-9,0,-117.32895,-119.22062,-0.03817429,0.08195198,-1.1174562,1.1211073,-8.918039,14.533977,1.2796218,17.099863,545,112,1420,1525.0,0.1761869,0.09539421,0.053036503,0.20725527,0.20035438730468955,-0.19994701931074665,-3.9601622381529658,-6.009522658801729,-29.412440096588412,330.5875599034116,3.604791276049674,-0.23755772568153993,-0.2637097683808852,-28.00452965397485,,0.010886826734022687,,,24.07,NONE,0.0,0.0,0.0,NONE,1.008676267984846E-8,6.026998658263842E-9,3.8146973E-4,2,60.23,57.37,34.09,44.63,15.796,15.796,5.614,2.1120987,0,2794,4.034,12.0,7.435,78,16.1,OK,20,0,0,0,0,0,65,100,0.0,0,0.0,589232.0,2.69E-43,0.0,-3.3654391E38,62,3.0994852E-7,-3.0995042E-7,9.4E-44,False,False,0,None,0.0,1.0842022E-19,
89824324,6.067,0.0,0.0,0,-116.59005,-118.07262,-0.016896257,0.086300954,-1.3369043,1.3397934,24.973307,-27.054276,14.591144,39.60431,269,118,1490,1518.0,0.14719428,0.15931259,-0.3963929,0.45185617,0.21690241504340801,-0.21690241504340801,-2.874269621804058,4.166585556964694,-26.821514217416915,333.1784857825831,2.4701976794427645,-1.154434080948024,3.296676342130033,-27.12021859700083,,0.0,,,24.37,1.7956622563476543,,0.0,0.0,20151019,175138,2015-10-19T17:51:38Z,-17.0,99.99,99.99,3.75E7,0,0,0,0.0,0.0,0.0,0,0,0,7963,0,0,,,,22171,20,94,44,3462,3726,4271,4287,-1386,17151,24,2,16512,0,false,false,false,false,false,false,true,false,false,false,5664,5429,4509,5088,39,48,48,38,1603,1599,1420,1477,1594,1569,1412,1496,0.0,0.0,0.0,0.0,1553.4,1546.6,1546.6,1553.4,5.53,4.7,2.56,2.28,0,0,0,0,-151.44860812703985,8.389125865563818E-10,5.645224445549023E-9,0,-116.75916,-119.16262,-0.015202782,0.09217197,-1.3199161,1.3232179,27.779753,-27.133795,16.457832,42.176033,252,115,1493,1518.0,0.24921486,0.039830018,-0.36696354,0.44537255,0.25237764774499905,-0.25213626743967116,-2.9538603827914987,4.032462518858018,-29.555645520508527,330.4443544794915,2.8317369621158157,2.2312232134676266,0.19209355872670963,-28.324972656210253,,0.01427880695016211,,,24.39,NONE,0.0,0.0,0.0,NONE,-5.101075825008607E-9,2.9101043904100847E-8,-4.5776367E-5,2,74.73,67.34,53.16,54.17,15.704,15.704,5.515,2.647609,0,2792,3.925,12.0,7.744,78,16.2,OK,21,0,0,0,0,0,65,100,0.0,0,0.0,589232.0,2.69E-43,0.0,-3.3654391E38,62,3.0994852E-7,-3.0995042E-7,9.4E-44,False,False,0,None,0.0,1.0842022E-19,
93749352,7.087,0.0,0.0,0,-115.85725,-117.187355,0.035593893,0.041020997,-0.7530965,0.7550523,8.577045,25.213072,2.2780876,26.72928,485,127,1435,1520.0,0.12595508,0.06339531,-0.08686316,0.16561659,0.14100938159721202,-0.14100938159721202,-2.8091143724616368,2.1592571584081335,-25.794042503420748,334.20595749657923,5.735436320823833,3.6276824863134753,0.49505411383501485,-20.113135693311598,,0.0,,,24.67,2.528465601074217,,0.0,0.0,20151019,175139,2015-10-19T17:51:39Z,-17.0,99.99,99.99,3.75E7,0,0,0,0.0,0.0,0.0,0,0,0,0,0,0,,,,23426,48,22,45,754,3564,3719,3726,-1155,14915,39,212,14912,0,false,true,false,false,false,false,true,false,false,false,5934,4628,4695,4058,37,48,48,37,1619,1398,1363,1413,1598,1289,1362,1432,0.0,0.0,0.0,0.0,1575.5,1569.3,1569.3,1576.1,5.44,1.12,1.26,1.36,0,0,0,0,-159.70472022695128,-1.0971320581018906E-9,4.2605562646738615E-9,0,-115.50846,-118.28019,-0.002073985,0.054839768,-0.84987277,0.8516428,6.0913634,47.575172,-0.657667,47.968056,525,127,1417,1516.0,0.18783388,-0.047612663,-0.09519933,0.21589683,0.1937744329028837,-0.19351497589400612,-2.889734612919226,1.3843876761608205,-28.90919975022996,331.09080024977004,5.3780405068383805,5.300581953869966,-3.0953731099236723,-19.533181211235497,,0.017832595505706907,170.10188888766552,170.10188888766552,24.64,NONE,0.0,0.0,0.0,NONE,-8.692991228326977E-10,4.839375098344269E-9,-5.264282E-4,2,81.83,79.09,10.0,10.87,15.461,15.461,5.625,3.4388692,0,2789,3.911,12.0,9.965,78,16.2,OK,22,0,0,0,0,0,65,100,0.0,0,0.0,589232.0,2.69E-43,0.0,-3.3654391E38,62,6.727496E-7,-4.4237285E-7,9.4E-44,False,False,0,None,0.0,1.6175682E-19,
97598626,8.087,0.0,0.0,0,-115.588356,-117.11366,-0.028799472,0.05506987,-0.94486195,0.94690347,3.05468,1.2202044,10.176473,10.694885,444,150,1459,1532.0,-0.13442402,0.1836527,-0.025639024,0.22903164,0.22759202005257118,-0.22759202005257118,-2.5396344969139393,-1.346612683232384,-26.311246001087603,333.6887539989124,3.018320660491944,1.2219617970480448,-4.283472374960076,-27.630074289214654,,0.0,,,24.96,2.797355981933592,,0.0,0.0,20151019,175140,2015-10-19T17:51:40Z,-17.0,99.99,99.99,3.75E7,0,0,0,0.0,0.0,0.0,0,0,0,0,0,0,,,,23426,17,22,46,754,3564,3719,3726,-1155,14915,39,0,14912,0,false,false,false,false,false,false,true,false,false,false,5760,5307,4733,5042,38,47,47,38,1559,1567,1514,1488,1553,1525,1484,1517,0.0,0.0,0.0,0.0,1551.5,1542.3,1542.3,1550.9,4.43,3.81,3.82,2.36,0,0,0,0,-149.4686067961375,3.296215169739693E-9,-2.571754623174098E-9,0,-115.746895,-118.21703,-0.027459806,0.05263701,-0.9385668,0.9404426,3.875423,1.354713,12.67433,13.322642,444,144,1453,1526.0,-0.114290126,0.14791337,-0.03494799,0.19016299,0.18692403983948222,-0.18602118070747012,-2.4804611578891524,-1.786152002992365,-29.29953002255704,330.70046997744294,4.396819799218919,3.1162966774620924,-7.413675754473765,-27.407464908422718,,0.022515728465872135,,,24.94,NONE,0.0,0.0,0.0,NONE,1.0624618249526044E-8,-5.7956844113831365E-9,2.2888184E-5,2,53.42,44.27,40.29,48.48,15.657,15.657,5.588,4.380156,0,2787,3.817,12.0,7.682,78,16.2,OK,23,0,0,0,0,0,65,100,0.0,0,0.0,589232.0,2.69E-43,0.0,-3.3654391E38,62,7.2063995E-7,-4.543418E-7,9.4E-44,False,False,0,None,0.0,1.6657763E-19,
101654812,9.142,0.0,0.0,5,-116.1501,-117.026375,-0.020658592,0.01722277,-0.9820476,0.98241585,-8.569109,-6.3009925,-3.4981432,11.196836,505,202,1429,1529.0,-0.0958128,0.0435,0.09414294,0.1411922,0.10522519795193432,-0.10522519795193432,-0.7318558502803122,-4.1009855965732305,-26.195442466860857,333.80455753313913,8.468198695509496,3.2799631526018325,-6.651109762658532,-28.733870358332133,,0.0,,,25.23,2.2356112919921856,,14.0975336,66.3318388,20190513,175140,2019-05-13T17:51:40Z,64.372,3.5,5.31,97.61,0,5,5,-0.19,-0.01,-0.1,0,0,0,0,0,0,,,,82844,48,22,47,787,3562,3785,3787,0,15144,22,212,4,0,false,false,false,false,false,false,true,false,false,false,5473,5520,4761,4867,39,48,48,39,1572,1584,1452,1478,1565,1545,1445,1486,0.0,0.0,0.0,0.0,1551.5,1543.5,1544.1,1551.5,4.92,4.6,3.54,1.71,0,0,0,0,-177.52501966737648,-1.0923129957384433E-9,-6.166213950452899E-9,0,-115.91757,-118.07997,-0.019066788,0.016071733,-0.98066765,0.9809846,-8.374343,-5.4334116,-4.4677672,10.936751,502,199,1429,1527.0,-0.089747176,-0.018127054,0.03705754,0.09877452,0.09155951919846371,-0.0909611672254648,-0.7286114267718232,-4.462194493989459,-29.032922158735396,330.9670778412646,9.575052707602344,5.295491379357177,-10.044074603948044,-29.140320090017244,,0.027484347740774618,,,25.23,NONE,0.0,0.0,0.0,NONE,-4.390669890119888E-11,-3.08096518874998E-9,8.392334E-5,2,51.88,54.1,44.25,44.64,15.676,15.676,5.569,5.288705,0,2785,3.895,12.0,7.371,78,16.3,OK,24,0,0,0,0,0,65,100,0.0,0,0.0,589232.0,2.69E-43,0.0,-3.3654391E38,62,8.401985E-7,-4.9164026E-7,9.4E-44,False,False,0,None,0.0,1.7862138E-19,
105527716,10.148,0.0,0.0,5,-115.27302,-117.05443,-0.021991722,0.038295787,-0.9602688,0.9612837,-5.7639046,-8.238849,4.8857727,11.179088,427,138,1453,1520.0,0.0755675,0.09963079,0.1743692,0.2145725,0.12504695219146927,-0.12504695219146927,-3.454868072594699,-0.9632937098424276,-26.49849390704027,333.50150609295974,8.607423202516369,-1.09145153367238,-6.106186439082312,-29.227203627630495,,0.0,,,25.57,3.112694116699217,,14.0975214,66.3318363,20190513,175141,2019-05-13T17:51:41Z,63.367,3.5,5.3,74.63,0,5,5,0.1,-0.02,-0.02,0,0,0,0,0,0,,,,82844,48,22,48,787,3562,3785,3787,0,15144,22,212,4,0,false,false,false,false,false,false,true,false,false,false,5419,5231,4747,4810,39,50,50,40,1556,1546,1464,1474,1538,1550,1479,1460,0.0,0.0,0.0,0.0,1551.5,1545.4,1544.7,1552.7,4.85,3.74,2.72,2.62,0,0,0,0,-167.06665390202562,3.440785919812148E-9,6.338628029681949E-9,0,-115.3153,-118.0489,-0.020192338,0.040779635,-0.95178735,0.95287454,-3.7204874,1.9037971,1.7755651,4.540826,430,141,1453,1521.0,0.0934616,0.050711542,0.12269359,0.16235901,0.10633311351759132,-0.10486372046738761,-3.5950672727205446,-1.3009743050812226,-29.38370056471882,330.6162994352812,6.079849030232164,0.04247675531514583,-7.1204991893314205,-30.27284720060979,,0.029621689494140586,,,25.54,NONE,0.0,0.0,0.0,NONE,7.260668703731317E-10,1.795891064330003E-9,3.2043457E-4,2,52.01,49.68,43.96,47.69,15.644,15.644,5.572,6.0501895,0,2783,3.899,12.0,7.633,78,16.3,OK,25,0,0,0,0,0,65,100,0.0,0,0.0,589232.0,2.69E-43,0.0,-3.3654391E38,62,8.532661E-7,-4.981741E-7,9.4E-44,False,False,0,None,0.0,1.7993494E-19,
109408260,11.157,0.0,0.0,5,-115.52948,-117.11613,0.019321797,0.023896791,-1.0199307,1.0203936,-68.38708,-4.2967114,-22.23544,72.03936,401,98,1435,1493.0,0.10815049,-0.0327468,0.14884418,0.18687822,0.11299947519992815,-0.11299947519992815,-8.197765537170378,0.09626917582623644,-25.952333755917362,334.0476662440826,11.773111734231158,-2.8186389811445722,-3.607664764551267,-36.787438502169785,,0.0,,,25.89,2.856232019531248,,14.0975143,66.3318345,20190513,175142,2019-05-13T17:51:42Z,62.825,3.5,5.3,61.79,0,5,5,0.18,-0.04,0.03,-9988,0,0,0,0,0,,,,82844,48,22,49,787,3562,3785,3787,0,15144,22,212,4,0,false,false,false,false,false,false,true,false,false,false,5721,5621,4176,5222,39,51,50,39,1605,1561,1379,1581,1578,1580,1407,1534,0.0,0.0,0.0,0.0,1541.1,1534.3,1533.7,1540.5,5.61,3.62,1.8,5.32,0,0,0,0,-149.4803879010384,-6.3980627445725774E-9,9.071016901481634E-9,0,-115.4185,-118.08625,0.023697088,0.026936438,-1.0146234,1.0152575,-69.09877,-4.6482162,-22.871479,72.933876,398,127,1441,1500.0,0.13349418,-0.10034458,0.12229388,0.20699161,0.1670021924150485,-0.16587636727292712,-7.8193284681658115,-0.3104561098520694,-28.772842435642314,331.2271575643577,5.212579790148727,-1.911499876483668,-4.402928817429422,-39.50744738898321,,0.03365810683119984,,,25.85,NONE,0.0,0.0,0.0,NONE,-1.3498632645542087E-9,2.9492450857455704E-9,2.822876E-4,2,53.75,62.37,40.37,44.38,15.621,15.621,5.543,6.654956,0,2780,3.896,12.0,7.359,77,16.3,OK,26,0,0,0,0,0,65,100,0.0,0,0.0,589232.0,2.69E-43,0.0,-3.3654391E38,62,8.295174E-7,-4.862997E-7,9.4E-44,False,False,0,None,0.0,1.7754605E-19,
113333250,12.177,0.0,0.0,5,-115.950195,-117.18028,-0.015597874,0.034241367,-1.2415191,1.2420892,-12.574836,-2.1436155,1.278663,12.820163,395,248,1435,1508.0,-0.075910985,-0.019196182,0.05765395,0.09723656,0.07830052030581247,-0.07830052030581247,1.6060842507559894,0.4545120365948551,-26.33486952844076,333.6651304715592,11.7333622222316,8.13833705803586,-5.0859565055503415,-27.067173819738045,,0.0,,,26.26,2.435516687499998,,14.0975081,66.3318352,20190513,175143,2019-05-13T17:51:43Z,62.513,3.5,5.3,54.08,0,5,5,0.01,-0.39,0.06,0,0,0,4413,0,0,,,,82844,48,22,50,787,3562,3785,3787,0,15144,22,212,4,0,false,false,false,false,false,false,true,false,false,false,5538,5486,4640,4650,39,50,49,39,1575,1570,1445,1483,1605,1582,1461,1509,0.0,0.0,0.0,0.0,1548.4,1540.5,1539.9,1546.6,4.74,4.28,2.51,3.13,0,0,0,0,-177.95223433912605,-8.417235462538341E-9,-1.970446978507703E-9,0,-115.85507,-118.098755,-0.017554011,0.03540651,-1.2142576,1.2149005,-7.514369,-0.79455763,4.28398,8.68617,393,251,1435,1508.0,-0.028878624,-0.12283895,0.04954304,0.1355651,0.12618788655964863,-0.12496434886465045,1.02164697589513,-0.11161774020289363,-29.30421076613751,330.6957892338625,5.5329403655639595,9.601550891872705,-4.665222482196502,-30.010391286947293,,0.04489588590126511,,,26.25,NONE,0.0,0.0,0.0,NONE,-2.969324379776093E-9,-7.025071835301116E-10,2.0599365E-4,2,65.69,62.1,46.41,53.58,15.567,15.567,5.54,7.113802,0,2778,3.89,12.0,7.803,77,16.4,OK,27,0,0,0,0,0,65,100,0.0,0,0.0,589232.0,2.69E-43,0.0,-3.3654391E38,62,8.1998587E-7,-4.815267E-7,9.4E-44,False,False,0,None,0.0,1.7658321E-19,
117191903,13.180,0.0,0.0,5,-115.530205,-117.05429,-0.014002059,0.023242481,-0.9923615,0.9927324,17.620453,-5.158575,17.321657,25.241455,410,222,1453,1525.0,-0.09944065,0.10227161,0.033375222,0.14649856,0.14264615278035073,-0.14264615278035073,0.24248504096917892,-0.10450330155224055,-26.174147049068743,333.8258529509313,14.436215426877128,8.397162198304546,-4.26472748257409,-27.918597774058,,0.0,,,26.51,2.8555072270507793,,14.0975063,66.3318346,20190513,175145,2019-05-13T17:51:45Z,62.333,3.5,5.3,49.59,0,5,5,-0.04,-0.11,-0.01,0,0,0,0,0,0,,,,82845,16,23,51,787,3562,3785,3786,0,15146,22,1,17515,0,false,false,false,false,false,false,true,false,false,false,5579,5534,4358,4798,39,50,50,40,1577,1574,1449,1489,1570,1555,1442,1492,0.0,0.0,0.0,0.0,1543.5,1536.8,1538.0,1543.5,4.85,4.01,3.0,2.88,0,0,0,0,-166.08092565199848,-2.787272167271377E-9,-1.4794415518530044E-9,0,-115.5672,-117.992386,-0.014049909,0.021216977,-0.98817784,0.9885054,14.326358,-10.350982,12.929695,21.898958,404,219,1456,1526.0,-0.02111308,-0.039369456,0.028584437,0.053035706,0.044673440028526065,-0.04404682413506269,-0.2845380035730175,-0.5143565698022312,-29.124218362883266,330.87578163711675,10.356472360389674,11.74432027457516,-4.021765765429511,-30.058055516065156,,0.04745140666352148,,,26.54,NONE,0.0,0.0,0.0,NONE,-1.2300568592323734E-9,-5.4615648989749517E-11,-2.2888184E-5,2,56.12,54.3,39.64,47.23,15.459,15.459,5.554,7.465919,0,2776,3.89,12.0,8.37,77,16.4,OK,28,0,0,0,0,0,65,100,0.0,0,0.0,589232.0,2.69E-43,0.0,-3.3654391E38,63,8.9964306E-7,-5.213553E-7,9.4E-44,False,False,0,None,0.0,1.8460355E-19,
121079669,14.190,0.0,0.0,5,-115.62519,-117.004814,-0.005350801,0.030010138,-0.96555674,0.9660378,6.553717,0.34708685,2.2918837,6.951576,390,136,1441,1499.0,-0.05873571,0.1429181,0.02751928,0.15694833,0.15451687809616083,-0.15451687809616083,-2.658699914502646,1.3565440650921827,-26.15628253025412,333.84371746974585,17.12327679824183,7.287884724289715,-1.3782905835567476,-25.560019136524886,,0.0,,,26.8,2.760521265136717,,14.0975111,66.3318349,20190513,175145,2019-05-13T17:51:45Z,62.425,3.5,5.29,47.06,0,5,5,0.07,0.04,0.0,0,0,0,0,0,0,,,,82846,114,23,52,787,3562,3785,3787,0,15146,22,3702,17542,0,false,false,false,false,false,false,true,false,false,false,5532,5529,4172,4699,39,51,50,39,1584,1567,1423,1462,1574,1552,1435,1469,0.0,0.0,0.0,0.0,1545.4,1539.9,1540.5,1545.4,5.28,3.82,2.16,2.28,0,0,0,0,-166.39547113536793,2.43200273174943E-9,2.5321314219381447E-9,0,-115.51949,-118.01071,-0.0028279675,0.029692993,-0.9511134,0.951581,6.1712494,-5.152224,2.8906815,8.543171,390,133,1441,1498.0,0.036171466,0.036345966,0.039611135,0.06479542,0.05127771630118778,-0.05055328337014363,-3.0750813068057563,0.8301327827013949,-29.28231672742802,330.717683272572,12.063439564334807,9.805920111334675,-2.5849147727870903,-27.093694185530094,,0.04967708876792811,,,26.81,NONE,0.0,0.0,0.0,NONE,8.149511575046507E-10,9.311432739162862E-10,9.1552734E-5,2,55.23,55.5,42.72,49.4,15.547,15.547,5.558,7.7355375,0,2772,3.878,12.0,7.501,77,16.5,OK,29,0,0,0,0,0,65,100,0.0,0,0.0,589232.0,2.69E-43,0.0,-3.3654391E38,63,8.8287925E-7,-5.129734E-7,9.4E-44,False,False,0,None,0.0,1.829161E-19,
124967643,15.201,0.0,0.0,5,-115.54609,-116.9472,0.0021339345,-0.0030601146,-0.9651541,0.9651613,-13.449624,-5.307059,6.3607483,15.796087,355,239,1447,1508.0,-0.105479136,0.076459944,-0.038376156,0.13581127,0.13027652067685247,-0.13027652067685247,0.6162388099585463,2.1238995929999716,-26.21353447753607,333.7864655224639,17.06201995197193,13.000401507099141,-4.500384208133419,-28.67732554876911,,0.0,,,27.11,2.839622827636717,,14.0975191,66.3318367,20190513,175147,2019-05-13T17:51:47Z,62.847,3.5,5.29,43.55,0,5,5,-0.03,-0.07,-0.01,0,0,0,0,0,0,,,,82847,18,23,53,791,3551,3851,3852,3563,15411,22,1,15499,0,false,false,false,false,false,false,true,false,false,false,5316,5433,4479,4742,41,51,50,41,1543,1586,1455,1475,1544,1561,1430,1481,0.0,0.0,0.0,0.0,1545.4,1538.6,1538.6,1544.7,3.65,4.47,3.11,2.64,0,0,0,0,-174.54197316427198,-8.244553498753312E-10,-5.199195614411083E-10,0,-115.65178,-117.99866,0.003186953,-0.0027286522,-0.97026336,0.9702724,-12.779244,0.37141928,6.9981275,14.574664,358,242,1450,1513.0,-0.023591481,-0.036038253,-0.035840057,0.05603413,0.04307335345574551,-0.04258221672394911,0.25959869694991994,1.695558533086213,-29.2264149480139,330.7735850519861,11.007375560574054,13.36945002430958,-5.455092769448404,-30.431064956008264,,0.05097979988625135,,,27.1,NONE,0.0,0.0,0.0,NONE,-2.264273787961778E-9,-3.780259637720403E-10,-8.392334E-5,2,51.12,55.62,41.64,44.41,15.533,15.533,5.536,7.910162,0,2770,3.877,12.0,7.655,77,16.5,OK,30,0,0,0,0,0,65,100,0.0,0,0.0,589232.0,2.69E-43,0.0,-3.3654391E38,63,8.907373E-7,-5.169024E-7,9.4E-44,False,False,0,None,0.0,1.8370689E-19,
128865243,16.214,0.0,0.0,8,-115.52728,-116.90337,0.010184882,-0.009356742,-1.0094409,1.0095357,12.206308,-0.61066735,4.381934,12.983382,421,190,1456,1527.0,-0.1330047,0.030917477,-0.008105192,0.1367912,0.13655086836610356,-0.13655086836610356,-0.8663191706543285,-0.1317136683877617,-24.551358700156392,335.4486412998436,22.274152085601237,16.19695924091814,-5.759348820792012,-26.911122172927605,,0.0,,,27.42,2.858429285156248,,14.0972847,66.331748,20190513,175148,2019-05-13T17:51:48Z,49.39,0.97,1.82,29.84,7,5,12,-0.11,-0.01,0.04,0,0,0,0,0,0,,,,82872,19,23,54,814,3551,3809,3811,0,15257,22,1,15249,0,false,false,false,false,false,false,true,false,false,false,5314,5806,4313,5102,41,51,51,41,1551,1591,1445,1539,1539,1592,1441,1518,0.0,0.0,0.0,0.0,1539.3,1533.1,1531.9,1539.9,4.3,4.33,2.81,3.85,0,0,0,0,-170.11859387964978,-2.930638244545462E-9,-3.8332689339425326E-9,0,-115.490295,-117.989235,0.008072851,-0.008056419,-1.0215471,1.0216107,3.763763,-2.7337418,-4.430176,6.4238396,421,193,1456,1527.0,-0.056589074,-0.0443364,-0.004068749,0.07200413,0.07188907995908018,-0.07145810634827925,-1.353314752567836,-0.5636760834508716,-29.06808185248505,330.9319181475149,14.922636677485121,15.656904751508183,-6.14247154884771,-29.203638646222128,,0.05231397102823905,,,27.42,NONE,0.0,0.0,0.0,NONE,-7.733201070850007E-10,-1.1463931793449792E-9,6.866455E-5,2,49.49,58.4,42.56,41.3,15.542,15.542,5.529,7.9959555,0,2768,3.874,12.0,7.525,77,16.5,OK,31,0,0,0,0,0,65,100,0.0,0,0.0,589232.0,2.69E-43,0.0,-3.3654391E38,63,8.978968E-7,-5.2048216E-7,9.4E-44,False,False,0,None,0.0,1.8442819E-19,
132757744,17.225,0.0,0.0,12,-115.20935,-116.853355,-0.020100389,-0.004797678,-0.9864778,0.9866942,-2.92612,-5.5471344,5.4301977,8.295777,421,251,1435,1516.0,-0.10358418,0.14129137,-0.015578641,0.17588526,0.17519398181626816,-0.17519398181626816,1.07063100444583,-0.4135725429786301,-23.192648964396106,336.8073510356039,22.55052573483079,20.87506044150663,-7.338064292456145,-28.62983695763854,,0.0,,,27.69,3.176361414062498,,14.0972717,66.3317362,20190513,175149,2019-05-13T17:51:49Z,47.575,0.97,1.82,24.34,7,5,12,-0.03,0.06,0.0,0,0,0,0,2,0,,,,82872,19,23,54,814,3551,3809,3811,0,15257,22,1,15249,0,false,false,false,false,false,false,true,false,false,false,5031,5628,4711,4547,41,51,52,41,1549,1581,1449,1439,1539,1586,1452,1426,0.0,0.0,0.0,0.0,1544.7,1537.4,1537.4,1542.9,4.81,3.94,3.22,2.32,0,0,0,0,151.48992328598527,14.097272668718126,66.33173650035438,0,-115.304474,-117.98899,-0.019540166,-0.007698331,-0.98380953,0.9840337,-10.448203,-3.577963,-1.6108519,11.160717,418,254,1435,1516.0,-0.017090628,0.06795975,-0.0040631713,0.07019349,0.07007579564632245,7373755.100833594,0.7671132002197698,-0.8222215608500538,-29.44153128930903,330.558468710691,14.538222151717626,20.399543865817204,-7.20798052393128,-30.577773616012518,,7459612.893077417,179.54080931275797,179.54080931275797,27.73,NONE,0.0,0.0,0.0,NONE,2.5159095539222953E-10,-7.009008289994241E-10,8.392334E-5,2,55.61,57.65,40.46,44.31,15.535,15.535,5.524,8.019231,0,2766,3.861,12.0,7.698,77,16.5,OK,32,0,0,0,0,0,65,100,0.0,0,0.0,589232.0,2.69E-43,0.0,-3.3654391E38,63,8.979987E-7,-5.2054037E-7,9.4E-44,False,False,0,None,0.0,1.8443812E-19,
136634741,18.233,0.0,0.0,12,-115.582146,-116.80124,-0.011708776,0.018767428,-0.99881,0.9990549,-16.509409,-5.090881,-6.5272474,18.468422,456,213,1447,1532.0,-0.020741284,0.052718587,0.019502819,0.059915025,0.05665201039818858,-0.05665201039818858,0.12719645680470876,-1.7562847119699154,-21.906430895157055,338.09356910484297,21.433702753729136,20.264110743978385,-7.660221664040505,-27.017286944404212,,0.0,,,28.03,2.8035663090820293,,14.0972717,66.3317347,20190513,175150,2019-05-13T17:51:50Z,47.562,0.97,1.82,21.15,7,5,12,0.05,-0.02,-0.02,0,6256,0,0,2,0,,,,83243,18,23,56,815,3551,3854,3855,3577,15421,22,1,15511,0,false,false,false,false,false,false,true,false,false,false,5235,5294,4541,4504,42,53,53,40,1529,1554,1470,1453,1530,1552,1457,1442,0.0,0.0,0.0,0.0,1544.7,1538.0,1536.2,1543.5,4.06,3.91,3.38,2.81,0,0,0,0,176.29869180748062,14.097271664021443,66.33173294603064,0,-115.576805,-117.96065,0.020142268,0.035357963,-0.8997605,0.9006802,20.909403,-4.447219,4.716806,21.891304,464,213,1447,1534.0,0.091476604,-0.014273527,0.051325772,0.105858564,0.09258348694898604,0.302169973515688,-0.11600805353147697,-1.9974806862849825,-28.95609811744625,331.04390188255377,12.480216811126732,19.29574686350106,-10.858504221856505,-27.585057889440712,,7459613.536629047,9.1839357270799,9.1839357270799,28.06,NONE,0.0,0.0,0.0,NONE,-1.2921334236265055E-9,9.632701187719274E-10,6.1035156E-5,2,46.03,54.69,41.09,50.31,15.534,15.534,5.542,8.002367,0,2763,3.876,12.0,7.573,77,16.6,OK,33,0,0,0,0,0,65,100,0.0,0,0.0,589232.0,2.69E-43,0.0,-3.3654391E38,63,9.190553E-7,-5.310614E-7,9.4E-44,False,False,0,None,0.0,1.8655901E-19,
140512161,19.240,14.097281224743957,66.3317350102024,12,-115.183,-116.771126,-0.018544728,0.057102304,-1.0243357,1.0260937,-9.213062,-15.42025,-21.824142,28.26584,367,153,1468,1520.0,-0.0021584667,0.16952418,-0.08413868,0.18926813,0.16953791614030825,-0.16953791614030825,-2.6523836931578613,1.3697115461347595,-23.667055415915964,336.33294458408403,17.695722636674695,13.628088521520956,-10.415326482675574,-28.787936809906974,,5.991110206016947,-121.4329133193861,-121.4329133193861,28.4,3.2027133427734356,,14.0972736,66.3317365,20190513,175151,2019-05-13T17:51:51Z,47.739,0.97,1.82,19.05,7,5,12,0.1,0.09,0.03,0,0,-6621,0,3,0,,,,83455,19,29,57,1024,3551,3837,3841,0,15387,22,1,15382,0,false,false,false,false,false,false,true,false,false,false,5798,5433,4650,5470,42,52,52,41,1560,1525,1479,1592,1548,1571,1466,1553,0.0,0.0,0.0,0.0,1532.5,1522.0,1522.7,1530.7,4.39,2.58,2.83,5.61,0,0,0,0,-133.1539980365878,14.097273713042695,66.33173560699476,0,-115.10373,-117.9878,-0.027447952,0.055110138,-1.052894,1.0546925,2.7447286,-3.8329544,-14.225467,14.986294,370,147,1465,1518.0,0.09511177,0.09891267,-0.058734722,0.14926398,0.13722232312550206,0.17010389645419985,-2.800268795809291,1.0497456952853528,-31.056004418411334,328.94399558158864,7.645958238846445,14.394254337912248,-10.293301959699251,-28.839473475781354,,7459613.931905041,18.82370321223754,18.82370321223754,28.37,NONE,0.0,0.0,0.0,NONE,6.5557019998935115E-9,3.964453579850734E-9,1.8310547E-4,2,60.08,56.67,47.62,51.02,15.492,15.492,5.479,7.963044,0,2761,3.864,12.0,7.746,77,16.6,OK,34,0,0,0,0,0,65,100,0.0,0,0.0,589232.0,2.69E-43,0.0,-3.3654391E38,63,8.9558307E-7,-5.19318E-7,9.4E-44,False,False,0,None,0.0,1.8419327E-19,
144433538,20.260,14.097277673002749,66.33173797393401,12,-115.40311,-116.75402,-0.021760881,0.0628682,-1.003575,1.0057776,-14.568087,-10.552095,-12.935493,22.156328,358,193,1465,1520.0,-0.086763024,0.07319382,0.07740453,0.13739221,0.11351280552827472,0.24532146550027692,-1.4737888439325562,1.527870865267879,-27.531740910918625,332.46825908908136,13.05546587245285,12.682777783476824,-13.501477989745522,-30.165328390577255,,6.528922607845933,31.697821816783204,31.697821816783204,28.63,2.982605310546873,,14.0972775,66.3317379,20190513,175152,2019-05-13T17:51:52Z,47.984,0.97,1.82,17.49,7,5,12,0.06,-0.01,0.01,0,0,0,0,3,0,,,,84521,16,29,58,1025,3551,3806,3808,0,15229,23,1,17503,0,false,false,false,false,false,false,true,false,false,false,5873,5470,4711,5227,41,53,53,42,1617,1570,1480,1530,1606,1569,1473,1535,0.0,0.0,0.0,0.0,1527.0,1518.4,1520.2,1526.4,5.94,3.23,3.57,3.67,0,0,0,0,-146.81160085550576,14.097277860178831,66.33173751738912,0,-115.33969,-117.9713,-0.023449525,0.065765314,-0.9976508,1.0000911,-12.990154,-8.169587,-16.077618,22.225573,364,190,1468,1524.0,0.021151569,-0.0036881166,0.080919884,0.08371988,0.021470702220514542,0.25500548115809973,-1.6498032397728044,1.2281407353071294,-35.28254969225337,324.7174503077466,3.529485830675111,15.630075372252053,-10.099267061581308,-30.431660781774184,,7459614.23615869,93.62646879102964,93.62646879102964,28.63,NONE,0.0,0.0,0.0,NONE,-2.3388453305130556E-9,7.678317683495177E-10,1.6784668E-4,2,58.4,63.87,39.86,42.94,15.479,15.479,5.506,7.922778,0,2759,3.87,12.0,8.038,77,16.6,OK,35,0,0,0,0,0,65,100,0.0,0,0.0,589232.0,2.69E-43,0.0,-3.3654391E38,63,9.159703E-7,-5.295189E-7,9.4E-44,False,False,0,None,0.0,1.8624799E-19,
148286649,21.261,14.097283664720294,66.33173826547088,12,-115.009285,-116.67163,-0.038689617,0.081302844,-0.96690404,0.9710873,4.895466,-3.8060665,-3.7511349,7.2472577,416,133,1450,1514.0,-0.14529346,0.14616796,0.03243529,0.208632,0.20609528019693477,0.0629429555294456,-4.084725374433886,-0.8974805375455828,-27.79418621270316,332.20581378729685,10.721921065371093,7.779227825485873,-12.319376964719112,-30.95111529343179,,6.815026357516066,74.6917808553521,74.6917808553521,28.93,3.376427026855467,,14.0972825,66.331739,20190513,175153,2019-05-13T17:51:53Z,48.293,0.97,1.82,16.3,7,5,12,0.03,0.04,-0.02,0,0,0,0,4,4,,,,84521,16,29,58,1025,3551,3806,3808,0,15229,23,1,17503,0,false,false,false,false,false,false,true,false,false,false,5845,5222,4579,4737,41,53,53,42,1621,1562,1478,1494,1621,1525,1437,1514,0.0,0.0,0.0,0.0,1533.1,1525.8,1525.8,1531.9,5.08,3.94,3.9,2.67,0,0,0,0,-155.96165477107047,14.097283715872143,66.3317382855403,0,-115.04627,-117.94934,-0.04244342,0.0763486,-0.96778685,0.9717211,-5.609832,-8.81737,-10.861887,15.07305,413,133,1453,1516.0,-0.02243953,0.07947717,0.046993237,0.09501851,0.08258421749550049,0.19201862696466665,-4.270208465004908,-1.1710165441296592,-35.66464601256437,324.3353539874356,0.8760557800652574,9.374076847111558,-10.728707339628444,-32.12677724157597,,7459614.5424435325,100.4315762240903,100.4315762240903,28.92,NONE,0.0,0.0,0.0,NONE,2.6616287251308154E-9,7.790761654677356E-10,-6.866455E-5,2,61.02,53.55,41.68,46.95,15.511,15.511,5.529,7.922778,0,2759,3.854,12.0,8.038,77,16.6,OK,35,0,0,0,0,0,65,100,0.0,0,0.0,-3.302725E32,2.68E-43,0.0,-3.3654391E38,63,9.227806E-7,-5.3292405E-7,3.02515E-34,False,False,0,None,3.3442757E29,1.8693373E-19,
152231587,22.286,14.097286792134524,66.33173977900984,12,-115.3699,-116.621635,-0.008713207,0.048016485,-0.964898,0.96613127,-7.639994,-13.249205,-10.540747,18.574667,381,161,1453,1510.0,-0.15888065,0.031492118,-0.025281478,0.16393282,0.16197164843632234,0.051300164720413016,-2.7025332073881643,0.3618108065263366,-27.21663523273455,332.7833647672654,10.502277799003764,8.897663271195501,-13.119658137535403,-30.44967128087281,0.37565074303268325,7.0582999601653835,5.1994532931017545,10.5221721921001,29.24,3.015808435546873,,14.0972848,66.3317403,20190513,175154,2019-05-13T17:51:54Z,48.454,0.97,1.82,15.43,7,5,12,-0.01,-0.07,-0.02,0,0,0,0,4,4,14.097279898610186,66.33173784127983,30,85383,19,53,60,1882,3552,3964,3971,0,15902,26,1,15868,0,false,false,false,false,false,false,true,false,false,false,5564,5336,4567,5065,42,52,53,43,1591,1549,1435,1519,1578,1550,1423,1504,0.0,0.0,0.0,0.0,1536.2,1529.4,1528.2,1536.2,4.94,3.45,2.78,3.8,0,0,0,0,-150.2064805317928,14.09728587102098,66.33173971237717,0,-115.158516,-117.94399,-0.008482307,0.051569372,-0.9703035,0.9717099,-1.345937,-15.834446,-5.4877725,16.812403,381,159,1453,1510.0,-0.059064925,-0.04959267,-0.010817284,0.07787883,0.07712391572264286,0.10384735532711949,-2.9541033887644925,0.04453515591542586,-35.12535635861014,324.87464364138987,-1.0682600500120452,8.423162215062693,-10.881864585009458,-31.44614195088289,0.3381740133485876,7459614.783219369,-77.39400181162661,-72.07128291262826,29.25,NONE,0.0,0.0,0.0,NONE,-3.0084209187136773E-9,-8.626059802108624E-10,7.6293945E-6,2,52.4,52.52,40.62,50.43,15.441,15.441,5.512,7.9011006,0,2755,3.864,12.0,8.01,77,16.6,OK,37,0,0,0,0,0,65,100,0.0,0,0.0,3.440373E-31,2.69E-43,0.0,-3.3654391E38,63,9.27801E-7,-5.3544153E-7,3.9200693E-34,False,False,0,None,5.8533287E29,1.8743997E-19,geoDeclination|532 degrees
156160467,23.307,14.09728678124287,66.33174066482556,12,-115.557304,-116.63212,-0.027994715,0.048565373,-0.9783463,0.9799509,1.7470378,-2.5710192,-5.704631,6.496545,424,161,1447,1516.0,-0.12903056,0.09707631,0.030314695,0.16429144,0.1614704178830475,-0.06500623552859268,-3.26975197858228,-0.9593376875129009,-27.730305328147764,332.2696946718522,6.727488326722089,5.400555022498272,-15.10211214584424,-31.312884269817467,0.4392748383445955,7.201694685474782,15.187146746562846,20.50986564556119,29.52,2.8284076176757793,,14.0972856,66.3317409,20190513,175155,2019-05-13T17:51:55Z,48.545,0.96,1.82,14.69,7,5,12,-0.04,0.01,-0.01,0,0,0,0,4,4,14.097279898610186,66.33173784127983,30,88247,16,53,61,1883,3552,3919,3926,0,15690,24,1,17518,0,false,false,false,false,false,false,true,false,false,false,5534,5278,4539,5017,43,53,53,43,1589,1546,1457,1501,1588,1546,1448,1491,0.0,0.0,0.0,0.0,1534.3,1527.6,1527.6,1533.1,5.1,3.3,3.23,3.16,0,0,0,0,-149.6982025059075,14.09728622659969,66.33174032177386,0,-115.46218,-117.93623,-0.029152405,0.04964796,-0.9838955,0.98557854,-1.9501714,8.457351,-10.989702,14.0036955,424,161,1447,1516.0,-0.036872633,0.010172989,0.027038757,0.046842024,0.03825023864456604,0.02990769725411293,-3.4987783272705424,-1.18638516662149,-35.56214238173198,324.437857618268,-3.8867355878161542,5.700597120964068,-13.801383747710009,-32.279029582964974,0.39479729373507944,7459614.908104301,-83.35901551847654,-78.0362966194782,29.5,NONE,0.0,0.0,0.0,NONE,3.6546546448451675E-10,-9.284660254200461E-10,8.392334E-5,2,57.83,53.34,42.43,43.89,15.411,15.411,5.513,7.9011006,0,2755,3.859,12.0,8.01,77,16.6,OK,37,0,0,0,0,0,65,100,0.0,0,0.0,6.4595875E-27,2.69E-43,0.0,3.041665E-35,64,9.3686685E-7,-5.399672E-7,4.2070075E-34,False,False,0,None,6.2717137E29,1.8835317E-19,geoInclination|7644 degrees
160023926,24.312,14.09728754428812,66.33174103370597,12,-115.29041,-116.61386,-0.034923103,0.07552609,-0.98478395,0.98829305,-6.877013,-9.709633,-15.656736,19.664783,416,182,1456,1525.0,-0.11033478,0.09659527,0.02732361,0.14916766,0.14664381886470745,-0.09354532509313836,-3.20256806283546,-1.5225617482047766,-31.40585888373109,328.59414111626893,0.7036837097353084,3.151452254279138,-16.47717691603414,-34.87053820747,0.49243276392282714,7.275064278739867,92.16685359701235,97.4895724960107,29.86,3.095299097167967,,14.0972866,66.3317411,20190513,175156,2019-05-13T17:51:56Z,48.588,0.96,1.82,14.08,7,5,12,-0.02,-0.02,0.0,0,0,0,0,4,4,14.097279898610186,66.33173784127983,30,88249,18,53,62,1868,3559,3970,3976,3560,15891,24,1,15963,0,false,false,false,false,false,false,true,false,false,false,5655,5202,4795,4804,43,54,54,44,1601,1554,1488,1501,1596,1509,1453,1518,0.0,0.0,0.0,0.0,1533.1,1527.0,1527.6,1533.7,5.02,3.78,3.91,2.27,0,0,0,0,-159.8342606033621,14.097287154280322,66.33174038273002,0,-115.34326,-117.93936,-0.033489283,0.07597516,-0.98413235,0.9876286,-6.1630793,-5.4824963,-10.178132,13.10098,416,182,1453,1522.0,-0.02772825,0.019318363,0.028734466,0.044359043,0.03379430468362259,0.007995526476065766,-3.343271301686155,-1.731163710163783,-39.14714296180864,320.85285703819136,-5.276549314850902,6.99919865436001,-13.222081006618815,-35.587601115507596,0.429835710717959,7459615.011938681,129.8842618710277,135.20698077002604,29.87,NONE,0.0,0.0,0.0,NONE,7.709453987170035E-10,-5.600781216863337E-10,5.340576E-5,2,57.67,47.43,44.32,50.31,15.467,15.467,5.504,7.8867755,1255,2750,3.839,12.0,7.698,77,16.6,OK,39,0,0,0,0,0,65,100,0.0,0,0.0,4.10397E-26,2.69E-43,0.0,3.041665E-35,64,9.3420385E-7,-5.386284E-7,4.5388496E-34,False,False,0,None,7.172315E29,1.8808186E-19,geoIntensity|5257330 nanoTesla
163886198,25.315,14.097288960537778,66.3317405978562,12,-115.43271,-116.607635,-0.027785994,0.04994592,-0.99408704,0.99572873,1.2022337,8.651418,-2.0777667,8.97828,424,190,1444,1516.0,-0.07983374,0.05213675,0.019275663,0.09727907,0.09535022794046646,-0.01599276629564146,-2.9554793369584815,-1.813332725778702,-31.87356074885249,328.12643925114753,-0.8242338779300957,4.016384877149399,-16.23161899536486,-34.91819616690139,0.5075226961764518,7.359410137286894,135.23372108981195,140.5564399888103,30.13,2.953003259765623,,14.0972877,66.3317411,20190513,175157,2019-05-13T17:51:57Z,48.581,0.96,1.82,13.59,7,5,12,-0.03,-0.01,0.03,0,0,0,0,4,4,14.097279898610186,66.33173784127983,30,90992,114,99,63,3559,3559,4382,4390,304,17586,26,3562,17571,0,false,false,false,false,false,false,true,false,false,false,5555,5270,4615,5014,42,55,54,43,1571,1533,1459,1518,1564,1537,1461,1500,0.0,0.0,0.0,0.0,1533.7,1528.2,1527.0,1533.7,4.74,3.37,2.87,3.56,0,0,0,0,-150.23448644629275,14.097288161313394,66.33174012332142,0,-115.38515,-117.94369,-0.028399553,0.051569577,-0.9943951,0.9961363,-4.8899536,0.63501376,-9.715909,10.895585,424,187,1447,1519.0,-0.0119639225,-0.013737399,0.020948822,0.02776157,0.018216794326858122,0.03499254657144747,-3.0962791324938186,-2.0063264323281764,-39.61581718049733,320.38418281950266,-4.79408208024174,9.514032333706052,-13.831288251880821,-35.34355809789257,0.4476903546819357,7459615.086424629,64.26310752059788,69.58582641959623,30.16,NONE,0.0,0.0,0.0,NONE,-9.049938498557797E-10,-1.4403538703008234E-10,3.8146973E-5,2,55.26,52.12,42.7,47.87,15.456,15.456,5.509,7.8576365,1259,2748,3.852,12.0,7.64,77,16.7,OK,40,0,0,0,0,0,65,100,0.0,0,0.0,2.2727478E-32,2.69E-43,0.0,3.041665E-35,64,9.3117706E-7,-5.37115E-7,4.6627467E-34,False,False,0,None,7.5334454E29,1.8778077E-19,
167738712,26.317,14.097288904951135,66.33174113657927,12,-115.25014,-116.60316,-0.025300499,0.064046614,-1.0001848,1.0025525,-4.7455726,-7.936899,-1.3468173,9.344985,410,187,1438,1506.0,-0.0425267,0.06495944,0.0325978,0.08420728,0.07764179884886298,-0.01776207769834922,-3.1844258841103668,-1.3237000428392387,-31.758963855212848,328.24103614478713,-1.1805193805932568,4.539286275343601,-16.004147252367982,-35.26837732600954,0.5439570059458888,7.445439868970058,14.269433929574266,19.592152828572612,30.45,3.1355746708984356,,14.0972883,66.3317414,20190513,175158,2019-05-13T17:51:58Z,48.63,0.96,1.82,13.14,7,5,12,0.01,-0.03,0.03,0,0,0,0,4,4,14.097279898610186,66.33173784127983,30,91509,48,99,64,3538,3538,4389,4396,167,17544,25,212,17550,0,false,false,false,false,false,false,true,false,false,false,5558,5363,4562,5046,44,53,54,44,1564,1552,1464,1530,1550,1543,1468,1523,0.0,0.0,0.0,0.0,1534.3,1528.2,1527.6,1533.1,4.38,3.48,2.7,3.68,0,0,0,0,-152.65487294807087,14.097288801141394,66.33174057991843,0,-115.59372,-117.950645,-0.022379449,0.057017732,-0.99492913,0.9968128,11.761945,1.8743787,14.883637,19.06251,410,182,1441,1509.0,0.02694477,-0.0038226123,0.024950422,0.03692095,0.02721457324476023,0.030965853345115566,-3.495124011315469,-1.3133920283442064,-39.33247639535305,320.66752360464693,-5.488504693648896,9.397580844457067,-12.784962733555568,-35.54738781303936,0.5006544385701982,7459615.177105087,41.52991013918622,46.85262903818457,30.49,NONE,0.0,0.0,0.0,NONE,-3.3878915567328845E-10,4.0533378450164885E-10,8.392334E-5,2,53.47,53.51,42.98,49.39,15.468,15.468,5.51,7.8188124,1264,2746,3.846,12.0,7.45,77,16.7,OK,41,0,0,0,0,0,65,100,0.0,0,0.0,2.7317872E-30,2.69E-43,0.0,3.041665E-35,64,9.2590926E-7,-5.3449565E-7,5.034203E-34,False,False,0,None,8.616063E29,1.8724806E-19,
171616228,27.324,14.09728971707818,66.33174166203254,12,-115.28896,-116.60734,-0.02931873,0.04646392,-0.9889974,0.99052227,-3.5755937,-0.87557495,-6.1517525,7.16907,393,208,1441,1508.0,-0.07413134,0.004410502,0.03037703,0.08023511,0.07426242735267165,-0.006030728125602514,-2.087464295757107,-0.5932613782788432,-32.07904163290992,327.92095836709007,3.2363088118761643,9.39897193017973,-14.68950974077558,-34.54703510917841,0.6103964794288481,7.52848704028647,5.4447394154663975,10.767458314464744,30.79,3.0967486821289043,,14.0972887,66.331742,20190513,175159,2019-05-13T17:51:59Z,48.68,0.96,1.82,12.69,7,5,12,0.0,-0.06,0.02,0,0,0,0,4,4,14.097279898610186,66.33173784127983,30,91509,48,99,65,3538,3538,4389,4396,167,17544,25,212,17550,0,false,false,false,false,false,false,true,false,false,false,5590,5261,4619,4822,44,55,54,42,1573,1546,1473,1501,1575,1536,1460,1498,0.0,0.0,0.0,0.0,1534.3,1527.6,1527.6,1533.1,4.44,3.5,3.06,3.18,0,0,0,0,-159.3282598252557,14.097289298115381,66.33174121070581,0,-115.389366,-117.96297,-0.030437037,0.045934025,-0.99259514,0.99412346,-5.1696844,3.8726907,-7.466518,9.872804,393,205,1441,1507.0,-0.015853543,-0.053809304,0.03271455,0.06493857,0.056096131757681335,0.016903126728224187,-2.1797302199739748,-0.8140443895717692,-39.73887391002066,320.26112608997937,-4.278708837415346,11.73134822306905,-12.423027134251432,-34.87107975696011,0.5625094073686676,7459615.26007191,-16.61225259813032,-11.289533699131972,30.79,NONE,0.0,0.0,0.0,NONE,-3.128464516396831E-9,-3.4108008111159154E-10,7.6293945E-5,2,58.81,49.82,40.63,49.82,15.468,15.468,5.503,7.7690234,1271,2744,3.848,12.0,7.496,76,16.7,OK,42,0,0,0,0,0,65,100,0.0,0,0.0,2.107294E-27,2.69E-43,0.0,3.041665E-35,64,9.17149E-7,-5.30101E-7,5.4592616E-34,False,False,0,None,9.855163E29,1.8636463E-19,
175541222,28.344,14.097289112125951,66.33174199415534,13,-115.548904,-116.59763,-0.029907633,0.04104217,-0.99420124,0.99549735,8.24162,-2.592126,4.429841,9.709115,401,196,1441,1508.0,-0.06986937,0.017872017,-0.005767053,0.07234913,0.07211891631425339,-0.027269833675695222,-2.42338398108854,-1.0216006851784447,-32.039813154976386,327.9601868450236,4.359841309332261,10.713028565330825,-15.663914698683032,-34.36914607180383,0.6183737180174513,7.580575111728339,-52.85426198484968,-47.53154308585133,31.08,2.8368075810546856,,14.0972884,66.3317424,20190513,175200,2019-05-13T17:52:00Z,48.745,0.93,1.76,12.32,8,5,13,0.01,-0.03,0.01,0,0,0,1400,4,4,14.097279898610186,66.33173784127983,30,91509,48,99,66,3538,3538,4389,4396,167,17544,25,212,17550,0,false,false,false,false,false,false,true,false,false,false,5561,5294,4699,4896,44,55,54,44,1592,1540,1472,1530,1589,1537,1462,1515,0.0,0.0,0.0,0.0,1529.4,1524.5,1525.8,1530.0,4.92,3.48,3.03,3.86,0,0,0,0,-159.78357013762692,14.097288916239968,66.33174171037766,0,-115.69159,-117.97303,-0.029845495,0.039750703,-0.9940247,0.9952668,7.826156,-2.2335742,4.740804,9.418747,401,196,1441,1508.0,-0.011558192,-0.03134557,0.0063222395,0.034001578,0.03340862820011155,0.02356396627688271,-2.6086715998027925,-1.1907721559195599,-39.67294653499092,320.3270534650091,-2.877981966583048,13.109526500162875,-12.898347074382281,-35.15270789072667,0.5891717400548416,7459615.339300248,-13.706961176562462,-8.384242277564116,31.09,NONE,0.0,0.0,0.0,NONE,-7.04921561223163E-10,-7.12145225505174E-11,3.8146973E-5,2,56.99,52.94,43.22,46.78,15.464,15.464,5.509,7.7150164,1279,2742,3.851,12.0,7.535,76,16.7,OK,43,0,0,0,0,0,65,100,0.0,0,0.0,5.6287056E-24,2.69E-43,0.0,3.041665E-35,64,9.096402E-7,-5.2636113E-7,5.6325295E-34,False,False,0,None,1.0360204E30,1.8561355E-19,
179390697,29.345,14.097288568990457,66.33174213528768,13,-115.7409,-116.5028,-0.024781074,0.025621504,-0.97096884,0.9716229,-5.0627556,5.427761,-6.2294707,9.690118,410,213,1435,1507.0,-0.09022255,0.010597913,6.210059E-4,0.090844974,0.09084285435827212,-0.06197581133441521,-1.9938948278791042,-1.4722079986852525,-32.01204037857699,327.987959621423,2.702232198657112,9.049781704697665,-18.16364465554646,-35.15166881764295,0.6146310892979207,7.649488986874916,-164.21608961490875,-158.8933707159104,31.39,2.6448138676757793,,14.0972882,66.3317427,20190513,175201,2019-05-13T17:52:01Z,48.908,0.93,1.76,12.03,8,5,13,-0.03,-0.04,-0.08,0,0,0,0,4,4,14.097279898610186,66.33173784127983,30,91509,48,99,67,3538,3538,4389,4396,167,17544,25,212,17550,0,false,false,false,false,false,false,true,false,false,false,5339,5228,4660,4827,43,55,55,43,1541,1532,1486,1493,1536,1541,1484,1481,0.0,0.0,0.0,0.0,1533.7,1527.6,1526.4,1533.7,4.17,3.14,3.45,3.36,0,0,0,0,-165.5650102633041,14.097288544507261,66.33174185976897,0,-115.51366,-117.860275,-0.026792536,0.02938833,-0.972122,0.9729351,-1.3642844,4.886699,-5.071719,7.173802,410,211,1435,1507.0,-0.04287885,-0.028105497,-0.013868358,0.05311164,0.05126904305725182,-0.02780037715981709,-2.042760364826195,-1.6045135138435607,-39.564883842294996,320.435116157705,-3.7045834967803266,12.865935976481714,-11.970552581354971,-35.312053195916256,0.5904314254027492,7459615.409667366,-59.28661399945209,-53.96389510045375,31.39,NONE,0.0,0.0,0.0,NONE,-1.5138807338686907E-9,-9.579156284970539E-10,-4.5776367E-5,2,53.98,53.07,43.0,45.35,15.456,15.456,5.514,7.6657763,1286,2740,3.849,12.0,7.567,76,16.7,OK,44,0,0,0,0,0,65,100,0.0,0,0.0,1.9372182E-22,2.69E-43,0.0,3.041665E-35,64,1.0270451E-6,-5.667136E-7,5.7987444E-34,False,False,0,None,1.0844548E30,1.9373647E-19,
183307036,30.363,14.097288241632667,66.33174267923602,13,-115.500534,-116.515175,-0.025458634,0.022297189,-0.99160415,0.9921815,1.353802,1.7630594,2.4165509,3.2834244,398,248,1429,1503.0,-0.049808018,0.0463774,0.0017142486,0.0680782,0.06805660773834954,-0.006922746088108979,-0.5724340122474355,-1.0585746920181387,-31.83945526405333,328.16054473594664,-0.7118551863448203,7.763104036042136,-14.841910901490152,-35.21484008743096,0.6542868634559305,7.713662019055557,16.623912441556868,21.946631340555214,31.66,2.8851779423828106,,14.0972874,66.3317427,20190513,175202,2019-05-13T17:52:02Z,48.941,0.93,1.76,11.71,8,5,13,-0.02,-0.04,-0.03,0,0,0,0,4,4,14.097279898610186,66.33173784127983,30,91510,19,100,68,3538,3538,4387,4393,152,17544,25,1,17550,0,false,false,false,false,false,false,true,false,false,false,5314,5341,4584,4970,45,55,54,45,1546,1544,1466,1519,1540,1537,1467,1511,0.0,0.0,0.0,0.0,1533.1,1526.4,1526.4,1533.1,4.25,3.54,3.0,3.46,0,0,0,0,-161.94055063665348,14.097287748855683,66.33174215619508,0,-115.55338,-117.867455,-0.025847504,0.022801451,-0.98784584,0.98844695,-4.8979697,-0.13287972,-4.8809714,6.916043,398,248,1429,1503.0,-0.010447198,-0.014204794,0.0051950547,0.018382292,0.01763292634756741,0.029972438855035862,-0.7115360830991614,-1.1965488740717791,-39.325777465312356,320.67422253468766,-7.370679880188601,11.78471725151437,-11.102648194383429,-35.82214190947581,0.5941374451528552,7459615.478673632,-11.043803757708556,-5.721084858710211,31.67,NONE,0.0,0.0,0.0,NONE,-2.5149093882997488E-9,-5.493691650704693E-10,7.6293945E-6,2,53.64,53.41,41.68,47.83,15.468,15.468,5.511,7.621863,1293,2738,3.844,12.0,7.38,76,16.8,OK,45,0,0,0,0,0,65,100,0.0,0,0.0,2.7330047E-19,2.69E-43,0.0,3.041665E-35,64,1.0171498E-6,-5.6423977E-7,5.810029E-34,False,False,0,None,1.08776244E30,1.9324016E-19,
187156501,31.363,14.097289400662724,66.33174254435363,13,-115.50444,-116.520195,-0.019547373,0.045579404,-0.9801013,0.98135525,-1.5536277,-2.819164,0.17447035,3.2236447,390,208,1441,1507.0,-0.001237704,0.09412666,0.00831214,0.09450106,0.0941347927645366,-0.04029244606177186,-2.436914066332042,-1.0032810548976145,-32.2202538780757,327.7797461219243,0.70771694411734,8.466672708240239,-11.51446616135915,-36.40658938519365,0.6733436067435292,7.800232495758503,87.59809835449055,92.92081725348889,31.97,2.8812716923828106,,14.0972883,66.3317428,20190513,175203,2019-05-13T17:52:03Z,48.906,0.93,1.76,11.46,8,5,13,0.03,0.06,0.0,0,0,0,0,4,4,14.097279898610186,66.33173784127983,30,91511,114,100,69,3538,3538,4382,4390,0,17524,25,3559,675,0,false,false,false,false,false,false,true,false,false,false,5616,5287,4612,4853,45,56,55,44,1582,1537,1462,1506,1574,1539,1473,1493,0.0,0.0,0.0,0.0,1531.3,1525.8,1525.2,1531.3,4.86,3.4,2.83,3.37,0,0,0,0,-158.37742429873248,14.09728906984829,66.33174219265946,0,-115.66298,-117.858246,-0.01929781,0.04632229,-0.9783626,0.9796487,2.9699187,-9.807413,4.936819,11.374443,390,208,1444,1510.0,0.038477436,0.051901598,0.01114858,0.06556356,0.0646087364674927,-0.005529946272567726,-2.5478504952624808,-1.1454339933394337,-39.65450406611643,320.34549593388357,-5.7657979524273735,12.733194172189013,-7.870311393002171,-36.974648568108016,0.6338058594672153,7459615.5739679765,49.37134566010674,54.69406455910509,31.96,NONE,0.0,0.0,0.0,NONE,2.927058425057264E-9,8.615350730423934E-10,2.2888184E-5,2,57.77,52.99,42.76,46.35,15.454,15.454,5.505,7.621863,1293,2738,3.851,12.0,7.38,76,16.8,OK,45,0,0,0,0,0,65,100,0.0,0,0.0,5.5418516E-22,2.69E-43,0.0,3.041665E-35,64,1.0304793E-6,-5.6757216E-7,6.099671E-34,False,False,0,None,1.1721745E30,1.9391183E-19,
191048747,32.375,14.097290785789946,66.3317424863908,13,-115.31078,-116.50315,-0.030303542,0.040165044,-0.99424857,0.99552083,8.25909,0.21456335,5.5696034,9.96389,390,185,1447,1510.0,-0.03965224,0.05222468,0.00297568,0.06563971,0.06557223108626077,-0.00411917245551071,-3.2393633739881396,-0.9262930007968638,-32.3346412321762,327.6653587678238,-2.1687605700171617,6.130833915621596,-13.590747609517576,-36.00018077892307,0.709200532487006,7.874307594757508,70.66512402425526,75.98784292325361,32.28,3.0749286137695293,,14.0972898,66.331743,20190513,175204,2019-05-13T17:52:04Z,48.812,0.93,1.76,11.27,8,5,13,0.03,0.07,0.0,0,0,0,0,4,4,14.097279898610186,66.33173784127983,30,353663,16,99,70,3479,3544,4312,4329,-1388,17200,23,0,16654,0,false,false,false,false,false,false,true,false,false,false,5553,5258,4893,4762,44,56,56,44,1581,1560,1491,1498,1565,1537,1486,1509,0.0,0.0,0.0,0.0,1528.2,1522.0,1522.0,1528.8,5.09,3.93,3.22,2.86,0,0,0,0,-171.9254167946624,14.097290487749293,66.33174203861317,0,-115.337204,-117.85844,-0.02922918,0.0358358,-0.97973555,0.9808264,6.409642,1.2294774,3.875516,7.5904384,390,185,1447,1510.0,-0.009451203,0.041613802,0.014779778,0.045160554,0.042673572301981696,0.022145383216083614,-3.361432304498276,-0.9881874592972467,-39.72145682496607,320.2785431750339,-8.784030790999148,9.12143625413366,-8.396048909815612,-36.4269004199736,0.6642706579328409,7459615.661169531,116.71821198202538,122.04093088102373,32.27,NONE,0.0,0.0,0.0,NONE,2.3595198597015925E-9,6.125519722517085E-10,5.340576E-5,2,55.69,53.04,43.77,49.22,15.437,15.437,5.488,7.5800524,1298,2734,3.848,12.0,7.481,76,16.8,OK,46,0,0,0,0,0,65,100,0.0,0,0.0,2.0386375E-25,2.69E-43,0.0,3.041665E-35,64,1.030392E-6,-5.6754305E-7,6.324073E-34,False,False,0,None,1.2375725E30,1.9390521E-19,
