Tick#,offsetTime,IMU_ATTI(0):Longitude,IMU_ATTI(0):Latitude,IMU_ATTI(0):numSats,IMU_ATTI(0):barometer:Raw,IMU_ATTI(0):barometer:Smooth,IMU_ATTI(0):accel:X,IMU_ATTI(0):accel:Y,IMU_ATTI(0):accel:Z,IMU_ATTI(0):accel:Composite,IMU_ATTI(0):gyro:X,IMU_ATTI(0):gyro:Y,IMU_ATTI(0):gyro:Z,IMU_ATTI(0):gyro:Composite,IMU_ATTI(0):mag:X,IMU_ATTI(0):mag:Y,IMU_ATTI(0):mag:Z,IMU_ATTI(0):mag:Mod,IMU_ATTI(0):velN,IMU_ATTI(0):velE,IMU_ATTI(0):velD,IMU_ATTI(0):velComposite,IMU_ATTI(0):velH,IMU_ATTI(0):GPS-H,IMU_ATTI(0):roll,IMU_ATTI(0):pitch,IMU_ATTI(0):yaw,IMU_ATTI(0):yaw360,IMU_ATTI(0):totalGyro:Z,IMU_ATTI(0):totalGyro:X,IMU_ATTI(0):totalGyro:Y,IMU_ATTI(0):magYaw,IMU_ATTI(0):distanceHP,IMU_ATTI(0):distanceTravelled,IMU_ATTI(0):directionOfTravel[mag],IMU_ATTI(0):directionOfTravel[true],IMU_ATTI(0):temperature,General:relativeHeight,General:absoluteHeight,GPS(0):Long,GPS(0):Lat,GPS(0):Date,GPS(0):Time,GPS:dateTimeStamp,GPS(0):heightMSL,GPS(0):hDOP,GPS(0):pDOP,GPS(0):sAcc,GPS(0):numGPS,GPS(0):numGLNAS,GPS(0):numSV,GPS(0):velN,GPS(0):velE,GPS(0):velD,RC:Aileron,RC:Elevator,RC:Rudder,RC:Throttle,Controller:navHealth,Controller:ctrl_level,HP:Longitude,HP:Latitude,HP:rthHeight,BatBlackBox:tick,BatBlackBox:id,BatBlackBox:rsoc,BatBlackBox:index,BatBlackBox:rm,BatBlackBox:fcc,BatBlackBox:cell_min,BatBlackBox:cell_max,BatBlackBox:current,BatBlackBox:voltage,BatBlackBox:temp,BatBlackBox:flag,BatBlackBox:reserve,BatBlackBox:user_data,OA:avoidObst,OA:emergBrake,OA:radiusLimit,OA:airportLimit,OA:groundForceLanding,OA:horizNearBoundary,OA:vertLowLimit,OA:vertAirportLimit,OA:roofLimit,OA:hitGroundLimit,Motor:Speed:RFront,Motor:Speed:LFront,Motor:Speed:LBack,Motor:Speed:RBack,Motor:EscTemp:RFront,Motor:EscTemp:LFront,Motor:EscTemp:LBack,Motor:EscTemp:RBack,Motor:PPMrecv:RFront,Motor:PPMrecv:LFront,Motor:PPMrecv:LBack,Motor:PPMrecv:RBack,Motor:PPMsend:RFront,Motor:PPMsend:LFront,Motor:PPMsend:LBack,Motor:PPMsend:RBack,Motor:V_out:RFront,Motor:V_out:LFront,Motor:V_out:LBack,Motor:V_out:RBack,Motor:Volts:RFront,Motor:Volts:LFront,Motor:Volts:LBack,Motor:Volts:RBack,Motor:Current:RFront,Motor:Current:LFront,Motor:Current:LBack,Motor:Current:RBack,Motor:Status:RFront,Motor:Status:LFront,Motor:Status:LBack,Motor:Status:RBack,Motor:thrustAngle,IMU_ATTI(1):Longitude,IMU_ATTI(1):Latitude,IMU_ATTI(1):numSats,IMU_ATTI(1):barometer:Raw,IMU_ATTI(1):barometer:Smooth,IMU_ATTI(1):accel:X,IMU_ATTI(1):accel:Y,IMU_ATTI(1):accel:Z,IMU_ATTI(1):accel:Composite,IMU_ATTI(1):gyro:X,IMU_ATTI(1):gyro:Y,IMU_ATTI(1):gyro:Z,IMU_ATTI(1):gyro:Composite,IMU_ATTI(1):mag:X,IMU_ATTI(1):mag:Y,IMU_ATTI(1):mag:Z,IMU_ATTI(1):mag:Mod,IMU_ATTI(1):velN,IMU_ATTI(1):velE,IMU_ATTI(1):velD,IMU_ATTI(1):velComposite,IMU_ATTI(1):velH,IMU_ATTI(1):GPS-H,IMU_ATTI(1):roll,IMU_ATTI(1):pitch,IMU_ATTI(1):yaw,IMU_ATTI(1):yaw360,IMU_ATTI(1):totalGyro:Z,IMU_ATTI(1):totalGyro:X,IMU_ATTI(1):totalGyro:Y,IMU_ATTI(1):magYaw,IMU_ATTI(1):distanceHP,IMU_ATTI(1):distanceTravelled,IMU_ATTI(1):directionOfTravel[mag],IMU_ATTI(1):directionOfTravel[true],IMU_ATTI(1):temperature,IMUEX(0):err,IMUEX(0):rtk_Longitude,IMUEX(0):rtk_Latitude,IMUEX(0):rtk_Alti,IMUEX(1):err,IMUEX(1):rtk_Longitude,IMUEX(1):rtk_Latitude,IMUEX(1):rtk_Alti,BattInfo:Voltage,BattInfo:BatVoltage,BattInfo:AdVoltage,BattInfo:AvgCurrent,BattInfo:R_time,BattInfo:R_CAP_MAH,BattInfo:LowCellVoltage,BattInfo:LowCellVolThreshold,BattInfo:BatCurrent,BattInfo:Remaining%,BattInfo:Temp,BattInfo:status,battery_info:BatDynCnt,battery_info:Vol1Protect,battery_info:Vol2Protect,battery_info:Cap1Protect,battery_info:Cap2Protect,battery_info:Batpresent,battery_info:sopPercentage,battery_info:sopValue,battery_info:sopScale,battery_info:sopFlg,BattInfo:WindHeading:WindDir,battery_info:home_dir,BattInfo:Wind:rangeMin,BattInfo:Wind:rangeMax,battery_info:cap_speed,battery_info:against_wind,battery_info:emergency_land_cap,battery_info:intel_bat_land_cap,battery_info:intel_bat_gh_cap,BattInfo:Smart:SmartGh,BattInfo:Smart:SmartLand,BattInfo:GoHome:CntDown,BattInfo:GoHome:GhCmd,BattInfo:GoHome:CapLevel,BattInfo:GoHome:LandCapLv,Attribute|Value,ConvertDatV3,3.6.6-Tablet
7217968,1.876,,,,,,,,,,,,,,,,,,,,,,,,,,,,,,,,,,,,,,,,,,,,,,,,,,,,,,,,,,,,,,,,,,,,,,,,,,,,,,,,,,,,,,,,,,,,,,,,,,,,,,,,,,,,,,,,,,,,,,,,,,,,,,,,,,,,,,,,,,,,,,,,,,,,,,,,,,,,,,,,,,,,,,,,,,,,,,,OK,,,,,,,,,,,,,,,,,,,,,,,,,,Firmware Date| Oct 17 2018
201556270,52.384,,,,,,,,,,,,,,,,,,,,,,,,,,,,,,,,,,,,,,,,,,,,,,,,,,,,,,,,,,,,,,,,,,,,,,,,,,,,,,,,,,,,,,,,,,,,,,,,,,,,,,,,,,,,,,,,,,,,,,,,,,,,,,,,,,,,,,,,,,,,,,,,,,,,,,,,,,,,,,,,,,,,,,,,,,,,,,,OK,,,,,,,,,,,,,,,,,,,,,,,,,,ACType|MavicEnterprise
205422516,53.388,14.097400389830764,66.33151872659208,10,7.200321,7.2412906,0.062419888,2.7031917E-4,-0.9864629,0.9884358,0.07299283,-0.15211506,-0.08029317,0.18685272,-374,-526,1553,1681.0,0.033162046,-0.015872225,-0.035328537,0.050987788,0.03676477696411014,-0.03676477696411014,-0.07365606393417921,3.6323694551981465,121.83432408870297,121.83432408870294,-0.10131761303953665,0.09876260459257698,0.009242026603790102,117.6750354736948,1.3619819305374248,0.09928998129969663,-44.87878449272882,-39.55602596530312,64.98,,,14.0974015,66.3315184,20190519,143120,2019-05-19T14:31:20Z,36.116,0.88,1.5,35.03,4,6,10,-0.01,0.03,-0.02,0,0,0,0,4,4,14.097418485827456,66.33150886481032,50,1676659,19,100,173,3453,3453,4382,4388,136,17597,23,1,17598,0,false,false,false,false,false,false,false,false,false,false,0,0,0,0,58,73,73,58,945,945,944,947,940,940,940,940,0.0,0.0,0.0,0.0,1482.2,1479.7,1478.5,1482.8,0.0,0.0,0.0,0.0,0,0,0,0,-45.0,14.097400415078107,66.33151804150779,0,7.329795,7.1262903,0.06328185,3.6100578E-4,-0.98729056,0.98931664,0.11801878,0.008392219,-0.07285021,0.13894609,-377,-529,1544,1675.0,0.0013603555,-2.1629129E-4,-0.0010395544,0.0017256947,0.0013774429496814088,-0.0013774429496814088,-0.059990245057713824,3.66332021679092,117.4272381679135,117.42723816791352,-0.059827449682169666,0.10023331074431431,0.008916094364892678,117.75622792526566,1.3007336652313455,0.10311471573295095,-86.47141367487113,-81.14865514744542,64.99,NONE,0.0,0.0,0.0,NONE,-3.9367279438200443E-11,1.598232492071849E-11,0.0,14.926,14.926,5.319,1.5366106,0,739,3.73,12.0,1.535,22,38.6,OK,50,0,0,0,0,0,65,100,0.0,0,0.0,1.4333386E-20,9.0E-44,0.0,-5.9807744E7,62,6.1846084E-12,-6.1846374E-12,6.1857247E-37,False,False,0,None,1.255395E31,1.0842106E-19,dateTime|2019-5-19 14:31:19 GMT
209313301,54.400,14.097399009993614,66.33151928902406,10,7.4724803,7.3621078,0.06279956,0.0012161331,-0.98453766,0.98653924,0.12299354,0.016087994,-0.019939004,0.12563358,-374,-529,1538,1668.0,0.035330854,-0.014827996,-0.05614542,0.06797387,0.038316297483625264,0.04848986447280482,-0.0694116758612457,3.627468199075702,121.8280233109786,121.82802331097861,-0.15868637490744844,0.23218372072805407,-0.04781317666035498,117.62750472142712,1.4489194768873916,0.18823115642708654,-29.37073524798793,-24.04797672056223,64.99,,,14.0973998,66.331519,20190519,143121,2019-05-19T14:31:21Z,36.27,0.88,1.5,34.83,4,6,10,0.02,-0.03,-0.01,0,0,0,0,4,4,14.097418485827456,66.33150886481032,50,1676660,114,100,174,3453,3453,4380,4386,3,17512,23,3477,675,0,false,false,false,false,false,false,false,false,false,false,0,0,0,0,57,73,74,57,945,944,944,946,940,940,940,940,0.0,0.0,0.0,0.0,1482.8,1479.7,1479.1,1482.8,0.0,0.0,0.0,0.0,0,0,0,0,-45.0,14.097399326643451,66.33151860738614,0,7.4592686,7.1271067,0.06261003,-1.3238657E-4,-0.986847,0.9888311,0.1550859,-0.040503837,-0.015575847,0.16104287,-374,-526,1544,1673.0,7.915351E-4,-4.103268E-4,-3.607724E-4,9.6179656E-4,8.915693289021945E-4,0.07772584690352745,-0.04625124362981249,3.6576038684053045,117.41467752436931,117.41467752436932,-0.15473219926201595,0.21910155353695945,-3.60357183955916E-4,117.6324822193326,1.380226534367493,0.23059872745346185,-46.807832540776126,-41.48507401335043,65.0,NONE,0.0,0.0,0.0,NONE,3.684560714199649E-11,5.820165283438898E-12,4.7683716E-7,14.926,14.926,5.321,1.5360425,0,738,3.73,12.0,1.536,22,38.6,OK,51,0,0,0,0,0,65,100,0.0,0,0.0,1.0654707E-20,9.0E-44,0.0,-5.9807744E7,62,6.1846084E-12,-6.1846374E-12,7.0225756E-37,False,False,0,None,1.673045E31,1.0842106E-19,geoDeclination|532 degrees
213235626,55.419,14.097396895296464,66.33152000160104,10,7.5147576,7.422479,0.061055835,3.8970867E-4,-0.98624235,0.9881305,0.15727372,-0.16936149,-0.1806485,0.29334658,-374,-526,1541,1670.0,0.0333686,-0.017178703,-0.04319483,0.057222065,0.03753093738479312,0.08336779337333883,-0.053617173485509415,3.621370134693174,121.82725363250924,121.82725363250927,-0.25019354294948426,0.4039442704226268,-0.12146200868972457,117.74188888104347,1.5691955106999562,0.31459154778165,-57.15967620590154,-51.83691767847584,64.98,,,14.097398,66.3315197,20190519,143122,2019-05-19T14:31:22Z,36.362,0.88,1.5,34.64,4,6,10,-0.01,0.01,-0.01,0,0,0,0,4,4,14.097418485827456,66.33150886481032,50,1810756,16,100,175,3437,3452,4352,4358,-627,17414,22,0,16755,0,false,false,false,false,false,false,false,false,false,false,0,0,0,0,57,73,73,58,945,945,944,946,940,940,940,940,0.0,0.0,0.0,0.0,1482.8,1479.1,1479.7,1482.2,0.0,0.0,0.0,0.0,0,0,0,0,-45.0,14.09739696259221,66.33151934195823,0,7.427561,7.1282997,0.062433165,-2.3922045E-4,-0.9863978,0.9883717,0.22291605,0.11051213,-0.014699741,0.24924,-377,-529,1544,1675.0,0.0012541132,-1.0435397E-4,-2.6051037E-4,0.0012851284,0.0012584472502956464,0.12964869913216,-0.0670876858798537,3.6595200964606,117.3974122747401,117.39741227474008,-0.2146990669124295,0.3856890327990861,-0.0015821950384779806,117.77327718932126,1.510069330984802,0.36459222247096545,-54.14256749489478,-48.81980896746908,64.96,NONE,0.0,0.0,0.0,NONE,-9.919971407256002E-12,2.5147762492747118E-11,-4.7683716E-7,14.925,14.925,5.318,1.5356145,0,738,3.73,12.0,1.534,22,38.6,OK,52,0,0,0,0,0,65,100,0.0,0,0.0,1.5111297E-21,9.0E-44,0.0,-5.9807744E7,62,6.1846084E-12,-6.1846374E-12,9.089708E-37,False,False,0,None,2.5994884E31,1.0842106E-19,geoInclination|7644 degrees
217226817,56.456,14.097394992247487,66.33152059085756,10,7.414349,7.488237,0.061074015,-6.075213E-4,-0.98465365,0.9865461,0.19496396,-0.101621486,-0.12510517,0.25296083,-377,-523,1550,1678.0,0.027305797,-0.015215384,-0.02433459,0.039614223,0.03125882955327633,0.07216678441858823,-0.05194112446426604,3.620735349321467,121.82358053102955,121.82358053102956,-0.3106095907588055,0.5821459347438237,-0.16228600947343294,118.08519706517899,1.673292290896759,0.43651536313371386,-86.68646060581938,-81.36370207839367,65.0,,,14.0973959,66.3315204,20190519,143123,2019-05-19T14:31:23Z,36.467,0.88,1.5,34.44,4,6,10,0.03,0.0,-0.02,0,0,0,0,4,4,14.097418485827456,66.33150886481032,50,1810757,20,100,176,3437,3452,4322,4342,-1435,17414,23,2,17198,0,false,false,false,false,false,false,false,false,false,false,0,0,0,0,55,73,74,56,945,944,944,946,940,940,940,940,0.0,0.0,0.0,0.0,1484.0,1478.5,1479.1,1482.2,0.0,0.0,0.0,0.0,0,0,0,0,-45.0,14.097395214615197,66.33151988640847,0,7.377357,7.129535,0.06348269,0.003735507,-0.9862847,0.9883327,0.2023859,-0.07746835,-0.17401949,0.27792838,-374,-526,1541,1670.0,-2.795708E-4,0.0019582359,-0.0025544125,0.0032307694,0.0019780918091322833,0.09323032143631091,-0.055241566072307985,3.6329154948155105,117.36817785762341,117.36817785762344,-0.1890996890822871,0.5884638913087497,-0.013132906660216857,117.71683605057093,1.6065657434991973,0.4637210516386988,-58.67223372569232,-53.349475198266624,65.01,NONE,0.0,0.0,0.0,NONE,6.76266979444794E-11,2.938472176434334E-11,0.0,14.925,14.925,5.32,1.5352101,0,738,3.73,12.0,1.532,22,38.6,OK,53,0,0,0,0,0,65,100,0.0,0,0.0,3.141606E-22,9.0E-44,0.0,-5.9807744E7,62,6.1846084E-12,-6.1846374E-12,1.1789212E-36,False,False,0,None,3.9468004E31,1.0842106E-19,geoIntensity|5257326 nanoTesla
221080362,57.458,14.097392555040424,66.33152148338736,10,7.40378,7.4699426,0.06286391,4.2610615E-4,-0.98545307,0.9874562,0.1704261,0.015458969,-0.071783446,0.18557182,-374,-526,1544,1673.0,0.020681927,-0.014638854,0.009469712,0.027050205,0.025338472394498966,0.12169820713892582,-0.04495837314737871,3.616300631136894,121.82185009198638,121.82185009198639,-0.3732281409708346,0.7357774671329133,-0.19759770810873398,117.72757949703599,1.8189518818150987,0.5847460992835795,-56.710195891827915,-51.38743736440222,65.01,,,14.0973938,66.3315211,20190519,143124,2019-05-19T14:31:24Z,36.57,0.88,1.5,34.22,4,6,10,-0.02,0.01,-0.02,0,0,0,0,4,4,14.097418485827456,66.33150886481032,50,1810757,20,100,176,3437,3452,4322,4342,-1435,17414,23,2,17198,0,false,false,false,false,false,false,false,false,false,false,0,0,0,0,57,73,73,58,945,945,944,947,940,940,940,940,0.0,0.0,0.0,0.0,1482.8,1478.5,1479.1,1482.2,0.0,0.0,0.0,0.0,0,0,0,0,-45.0,14.097392040949067,66.331520982745,0,7.5464654,7.130165,0.061807502,7.174099E-4,-0.9861869,0.9881221,0.26079702,0.0331811,-0.07438365,0.2732197,-377,-526,1547,1676.0,1.6869932E-4,-6.518138E-4,-7.1997417E-4,9.857401E-4,6.732909436193952E-4,0.18594185251962675,-0.054728841486821514,3.665736253259955,117.3946314431188,117.39463144311878,-0.30182755062251543,0.7943065413313154,-0.03291343419803602,117.8631469535271,1.7914008565727304,0.651513708675774,-61.41116547419883,-56.088406946773134,64.98,NONE,0.0,0.0,0.0,NONE,4.0492658646954065E-11,2.1313426762093365E-11,1.9073486E-6,14.926,14.926,5.319,1.5347329,0,737,3.73,12.0,1.532,22,38.6,OK,54,0,0,0,0,0,65,100,0.0,0,0.0,1.03610834E-22,9.0E-44,0.0,-5.9807744E7,62,6.1846084E-12,-6.1846374E-12,1.45904245E-36,False,False,0,None,6.633378E31,1.0842106E-19,
224929761,58.458,14.09739030117757,66.3315222337418,10,7.216175,7.450765,0.06319363,5.293628E-4,-0.98627573,0.9882983,0.19696672,-0.10879564,-0.1633892,0.27807987,-377,-520,1571,1697.0,0.017290713,-0.0145935025,0.012051774,0.025635608,0.02262607154355366,0.10802085576172336,-0.04176127436655744,3.6123007948903494,121.81549347997411,121.81549347997412,-0.4553482933540124,0.9032400742087316,-0.225125201654452,118.11752253019179,1.9474914491333155,0.7252241641632423,-62.82425357412676,-57.50149504670106,64.99,,,14.0973915,66.3315219,20190519,143125,2019-05-19T14:31:25Z,36.634,0.88,1.5,33.99,4,6,10,-0.02,0.01,-0.02,0,0,0,0,4,4,14.097418485827456,66.33150886481032,50,1810938,48,98,178,3372,3452,4318,4321,-1011,17281,24,212,17280,0,false,false,false,false,false,false,false,false,false,false,0,0,0,0,57,73,73,56,945,946,944,946,940,940,940,940,0.0,0.0,0.0,0.0,1484.0,1479.7,1479.1,1482.2,0.0,0.0,0.0,0.0,0,0,0,0,-45.0,14.097390157009992,66.33152181065184,0,7.1580443,7.131461,0.06256826,0.0010910295,-0.98592657,0.9879105,0.17397568,0.100725636,-0.18984778,0.27650565,-377,-520,1568,1694.0,-5.490645E-4,-8.947689E-4,-9.046175E-4,0.0013857908,0.0010498014863445024,0.12358297599263574,-0.04174522517913114,3.6615589004571523,117.39960191335327,117.39960191335325,-0.38062838735474647,0.9668330228636335,-0.04687074272321449,118.01618620244813,1.9160634729691095,0.784364190998783,-44.1246619033783,-38.801903375952605,65.0,NONE,0.0,0.0,0.0,NONE,5.3788756805983064E-11,1.834185578993417E-11,-2.861023E-6,14.926,14.926,5.319,1.5342273,0,737,3.73,12.0,1.533,22,38.6,OK,55,0,0,0,0,0,65,100,0.0,0,0.0,9.686091E-23,9.0E-44,0.0,-5.9807744E7,62,6.1846084E-12,-6.1846374E-12,1.9024762E-36,False,False,0,None,1.0035485E32,1.0842106E-19,
228820325,59.469,14.097388517327738,66.33152296511751,10,7.3007298,7.4027967,0.061959434,6.516669E-4,-0.98659796,0.9885418,0.10059146,0.021967039,-0.19331664,0.21902628,-377,-523,1556,1684.0,0.012623371,-0.015069218,0.021781739,0.029340671,0.01965784382148296,0.09290595711724951,-0.04087647444584242,3.6191093204937013,121.81264510968444,121.81264510968447,-0.5808660969342588,1.103916718635104,-0.2898805608637707,118.04371285196389,2.06102676218955,0.8494981610146167,-61.556672955344276,-56.23391442791858,64.98,,,14.0973905,66.3315223,20190519,143125,2019-05-19T14:31:25Z,36.688,0.88,1.5,33.84,4,6,10,0.0,0.01,-0.03,0,0,0,0,4,4,14.097418485827456,66.33150886481032,50,1810938,17,98,179,3372,3452,4319,4323,-958,17285,24,0,17280,0,false,false,false,false,false,false,false,false,false,false,0,0,0,0,56,73,73,57,945,945,944,946,940,940,940,940,0.0,0.0,0.0,0.0,1482.8,1479.7,1479.7,1482.2,0.0,0.0,0.0,0.0,0,0,0,0,-45.0,14.097388586852164,66.33152230030348,0,7.216175,7.1317453,0.061480414,7.3841587E-4,-0.9862749,0.9881895,0.18620633,-0.006226218,-0.028487498,0.18847573,-377,-526,1547,1676.0,0.0011560873,5.417113E-4,0.0014749214,0.0019507388,0.001276710186842007,0.08649790390360418,-0.06467764377853724,3.6647591427137,117.39595260987954,117.39595260987954,-0.4610564051204698,1.120950097450137,-0.02261135857487384,117.87706697809877,2.0032958509336187,0.8894129381955849,-53.3634177333067,-48.040659205881,64.99,NONE,0.0,0.0,0.0,NONE,4.90163349054998E-11,-7.189706285150529E-12,1.9073486E-6,14.926,14.926,5.321,1.5337641,0,736,3.73,12.0,1.532,22,38.7,OK,56,0,0,0,0,0,65,100,0.0,0,0.0,5.0359467E-23,9.0E-44,0.0,-5.9807744E7,62,6.1846084E-12,-6.1846374E-12,2.186156E-36,False,False,0,None,1.2867396E32,1.0842106E-19,mcID(SN)|298DG13001W644
232763600,60.494,14.097388103765256,66.33152330280876,10,6.9704394,7.298512,0.061802868,0.0014449256,-0.98544544,0.9873826,0.14718439,-0.029604115,-0.15800534,0.21795718,-377,-529,1538,1669.0,0.011165631,-0.013914184,0.03791705,0.0419044,0.01784028651093368,0.022987778020049268,-0.03846297397442175,3.6302455104714393,121.82034952983435,121.82034952983435,-0.6534952059496656,1.2398004573922452,-0.3266871922894254,117.84017917913089,2.101599531290411,0.9284396239510185,-45.32119855037578,-39.998440022950085,65.01,,,14.0973889,66.3315231,20190519,143127,2019-05-19T14:31:27Z,36.651,0.88,1.5,33.48,4,6,10,-0.01,-0.01,0.0,0,0,0,0,4,4,14.097418485827456,66.33150886481032,50,1810943,16,98,180,3363,3443,4324,4330,-638,17302,24,0,16587,0,false,false,false,false,false,false,false,false,false,false,0,0,0,0,58,74,73,57,946,945,945,947,940,940,940,940,0.0,0.0,0.0,0.0,1482.8,1479.7,1479.7,1482.8,0.0,0.0,0.0,0.0,0,0,0,0,-45.0,14.097388055545004,66.33152272070993,0,7.311299,7.133238,0.06397646,9.1558555E-4,-0.9856356,0.9877101,0.25807554,0.016628603,0.045931276,0.2626579,-377,-529,1541,1672.0,-1.6783239E-4,6.5159315E-4,-0.0010039712,0.0012085941,6.728605488607255E-4,0.05047583791102922,-0.038985889166247865,3.666633846887106,117.39458641996349,117.3945864199635,-0.5120235370750035,1.2739875004256431,-0.0030129068796501154,117.74047291999233,2.0540022909362006,0.9481811879174624,-43.577924614260034,-38.255166086834336,65.0,NONE,0.0,0.0,0.0,NONE,2.4383126259389176E-11,-9.026087990487795E-12,-2.861023E-6,14.924,14.924,5.318,1.5334055,0,736,3.73,12.0,1.535,22,38.6,OK,57,0,0,0,0,0,65,100,0.0,0,0.0,1.0237814E-22,9.0E-44,0.0,-5.9807744E7,62,6.1846084E-12,-6.1846374E-12,2.3622965E-36,False,False,0,None,1.4625519E32,1.0842106E-19,mcVer|v3.4.1.6
236634698,61.500,14.097386958911944,66.3315237890377,10,7.1554017,7.2934628,0.06241152,-7.4586365E-4,-0.9861149,0.98808825,0.24127609,-0.13053639,-0.031588163,0.27613714,-377,-529,1544,1675.0,0.00995251,-0.014607386,0.011235958,0.020944567,0.017675637605515493,0.05627112704374948,-0.035535167512636225,3.6252209294851987,121.82296921511741,121.82296921511738,-0.742167859982034,1.4137370295343934,-0.37747730703725463,117.81637632970639,2.175884137470092,1.004159955472811,-69.34191923311077,-64.01916070568507,65.0,,,14.0973877,66.3315235,20190519,143128,2019-05-19T14:31:28Z,36.649,0.88,1.5,33.3,4,6,10,0.0,0.01,0.0,0,0,0,0,4,4,14.097418485827456,66.33150886481032,50,1810943,20,98,181,3363,3443,4324,4330,-638,17302,24,2,16587,0,false,false,false,false,false,false,false,false,false,false,0,0,0,0,56,74,73,57,946,946,944,947,940,940,940,940,0.0,0.0,0.0,0.0,1482.8,1479.7,1479.7,1482.2,0.0,0.0,0.0,0.0,0,0,0,0,-45.0,14.09738636992136,66.33152328671112,0,7.1421905,7.134049,0.062979594,-1.3398891E-4,-0.9857697,0.9877795,0.24188156,-0.0067674136,-0.23025972,0.33402398,-377,-529,1541,1672.0,6.268878E-5,-0.0013493046,-2.1133664E-4,0.0013671927,0.0013507600758967528,0.09615128751916417,-0.04405717973171439,3.68366024573426,117.41359637215857,117.41359637215857,-0.5829245127295276,1.4389528555816102,-0.04403977487005021,117.70682895681122,2.1510225295816188,1.0540243945655927,-66.96055847967911,-61.63779995225341,65.03,NONE,0.0,0.0,0.0,NONE,1.456527112439325E-10,-3.0975869104983095E-12,-1.9073486E-6,14.926,14.926,5.319,1.533223,0,736,3.73,12.0,1.534,22,38.7,OK,58,0,0,0,0,0,65,100,0.0,0,0.0,8.353393E-23,9.0E-44,0.0,-5.9807744E7,62,6.1846084E-12,-6.1846374E-12,2.7224753E-36,False,False,0,None,2.0216056E32,1.0842106E-19,
240649606,62.544,14.097385835633718,66.3315241436835,9,7.282233,7.2900662,0.061659995,-0.0013312656,-0.9856066,0.98753434,0.22813992,2.8672954E-4,-0.1358741,0.26553658,-374,-529,1544,1674.0,0.012392794,-0.015195885,-0.0035405613,0.019925658,0.019608575519187918,0.041525594663408424,-0.04911294285424393,3.6297880538367187,121.82221397988577,121.82221397988576,-0.8528349799297144,1.5784410031763367,-0.44865105619125384,117.56663567746254,2.238426872427585,1.1001941023479684,-39.81291697937021,-34.49015845194451,64.99,,,14.097387,66.3315239,20190519,143129,2019-05-19T14:31:29Z,36.614,0.93,1.56,33.08,4,5,9,-0.01,0.01,0.0,0,0,0,0,4,4,14.097418485827456,66.33150886481032,50,1812198,48,20,182,660,3469,3708,3712,-1182,14865,42,212,14858,0,false,false,false,false,false,false,false,false,false,false,0,0,0,0,57,75,74,57,945,944,944,947,940,940,940,940,0.0,0.0,0.0,0.0,1484.0,1478.5,1478.5,1482.8,0.0,0.0,0.0,0.0,0,0,0,0,-45.0,14.097385843443744,66.3315236825688,0,7.5147576,7.13497,0.06312722,-1.2388546E-4,-0.98700374,0.98902047,0.1589555,-0.09548687,-0.062174626,0.19557679,-374,-529,1544,1674.0,0.0014631646,0.001043039,0.0012411086,0.002183834,0.0017968808446470347,0.04602325749078693,-0.049627490227586085,3.6613661684765004,117.39714968634404,117.39714968634405,-0.6507382953332712,1.5871965079785355,-0.11360332421404123,117.49357443360715,2.19953333596067,1.1187928701324636,-42.6228078131942,-37.3000492857685,64.99,NONE,0.0,0.0,0.0,NONE,1.0282593858117321E-10,8.786605408447585E-12,-2.3841858E-6,14.925,14.925,5.318,1.5332688,0,735,3.73,12.0,1.538,22,38.7,OK,59,0,0,0,0,0,65,100,0.0,0,0.0,7.4801684E-23,9.0E-44,0.0,-5.9807744E7,62,6.1846084E-12,-6.1846374E-12,2.9585844E-36,False,False,0,None,2.4929637E32,1.0842106E-19,
244564335,63.561,14.097386330526911,66.33152442819872,9,7.081417,7.2937336,0.061856713,-7.952717E-4,-0.9877816,0.98971677,0.2914055,-0.17633963,-0.24548788,0.4198537,-377,-526,1541,1671.0,0.017814718,-0.016640216,-0.0015362402,0.024425827,0.024377468817804823,0.013548155445204976,-0.04713040765375711,3.642108212268191,121.8282499668052,121.82824996680517,-0.9851237965824625,1.7972101587918416,-0.45304371526624865,117.94170929786061,2.2483653130612598,1.1741580621704526,6.342468544956076,11.665227072381777,64.96,,,14.0973872,66.3315241,20190519,143130,2019-05-19T14:31:30Z,36.585,0.93,1.56,32.85,4,5,9,-0.02,-0.01,0.01,0,0,0,0,4,4,14.097418485827456,66.33150886481032,50,1812198,17,20,183,660,3469,3708,3712,-1182,14865,42,0,14858,0,false,false,false,false,false,false,false,false,false,false,0,0,0,0,57,73,74,56,945,946,945,946,940,940,940,940,0.0,0.0,0.0,0.0,1484.0,1479.7,1479.7,1482.8,0.0,0.0,0.0,0.0,0,0,0,0,-45.0,14.097386214635137,66.33152386493646,0,7.018001,7.135772,0.06252164,1.4323974E-4,-0.98712045,0.9890985,0.21968135,0.019562602,0.060851637,0.22879142,-377,-520,1556,1683.0,8.5048436E-5,5.5472003E-5,8.073377E-4,8.1369805E-4,1.0154003750767486E-4,0.025637062830165706,-0.03735671229398848,3.6659537042484134,117.39830666537107,117.39830666537108,-0.755076075672778,1.6652690227280582,-0.15632970938260282,118.06605251736529,2.203898672067283,1.164740937536048,3.505774875371581,8.828533402797282,64.98,NONE,0.0,0.0,0.0,NONE,-1.6259586279958544E-10,2.361988452073601E-11,1.001358E-5,14.925,14.925,5.319,1.5334773,0,735,3.73,12.0,1.532,22,38.7,OK,60,0,0,0,0,0,65,100,0.0,0,0.0,2.1089874E-22,9.0E-44,0.0,-5.9807744E7,62,6.1846084E-12,-6.1846374E-12,3.0054664E-36,False,False,0,None,2.5866014E32,1.0842106E-19,
248430612,64.566,14.097387095367422,66.3315246266865,9,7.2267447,7.2586117,0.06325578,4.4616358E-4,-0.9869018,0.988927,0.064233,-0.11065088,-0.053848717,0.13881347,-377,-526,1544,1674.0,0.025195174,-0.01795973,0.0023273071,0.031028455,0.030941052554964474,0.009517683540424489,-0.05387680600824866,3.638753218530741,121.82486394859221,121.82486394859222,-1.0320695807665352,1.9301577928054787,-0.5231984331992292,117.94127693801967,2.2439204253846956,1.227435511435187,16.4788160695673,21.801574596993003,64.98,,,14.0973877,66.3315244,20190519,143131,2019-05-19T14:31:31Z,36.533,0.93,1.56,32.65,4,5,9,-0.01,0.01,0.0,0,0,0,0,4,4,14.097418485827456,66.33150886481032,50,1812359,16,20,184,664,3473,3751,3753,-327,15017,40,0,14426,0,false,false,false,false,false,false,false,false,false,false,0,0,0,0,57,73,74,58,944,944,944,945,940,940,940,940,0.0,0.0,0.0,0.0,1482.8,1479.1,1479.1,1482.2,0.0,0.0,0.0,0.0,0,0,0,0,-45.0,14.097386882295053,66.3315239010501,0,6.983651,7.1363115,0.062645,-0.001395545,-0.9849655,0.9869566,0.32230845,9.393778E-4,-0.07307264,0.33048937,-377,-526,1544,1674.0,8.8113104E-4,2.053687E-4,0.0013182242,0.0015988381,9.047475870854009E-4,0.029023426731893003,-0.04342336510843242,3.658844410518881,117.399468561283,117.39946856128302,-0.8118398839523918,1.7913984101417129,-0.1830480551852427,117.88226411805397,2.187602254748696,1.200525388482525,112.58012572669978,117.90288425412548,64.98,NONE,0.0,0.0,0.0,NONE,1.4254751476492518E-11,1.6376843685518755E-11,-9.536743E-7,14.925,14.925,5.319,1.5335525,0,735,3.729,12.0,1.529,22,38.7,OK,61,0,0,0,0,0,65,100,0.0,0,0.0,1.1217086E-21,9.0E-44,0.0,-5.9807744E7,62,6.1846084E-12,-6.1846374E-12,2.9678597E-36,False,False,0,None,2.5115328E32,1.0842106E-19,
252321754,65.577,14.09738761593038,66.33152488536157,9,7.131621,7.2667036,0.06278128,6.9683837E-4,-0.98711985,0.9891145,0.18834685,0.13710617,-0.1871166,0.29880637,-377,-526,1544,1674.0,0.026747003,-0.017386824,-0.0015598675,0.031939585,0.03190147004683265,0.004662677684970314,-0.044777077930485194,3.6451176790875706,121.82325560048453,121.82325560048452,-1.1474814452883693,2.1292645513129442,-0.5233981020251032,117.91582118130742,2.2521653646637088,1.2739953712878271,74.59242979085272,79.91518831827842,65.0,,,14.0973884,66.3315246,20190519,143132,2019-05-19T14:31:32Z,36.352,0.93,1.56,32.45,4,5,9,-0.02,0.0,0.01,0,0,0,0,4,4,14.097418485827456,66.33150886481032,50,1812359,20,20,185,664,3473,3749,3752,-629,14993,40,2,14426,0,false,false,false,false,false,false,false,false,false,false,0,0,0,0,58,73,73,57,944,945,945,945,940,940,940,940,0.0,0.0,0.0,0.0,1483.4,1479.1,1479.7,1482.8,0.0,0.0,0.0,0.0,0,0,0,0,-45.0,14.097387664544202,66.33152433104578,0,7.200321,7.1378536,0.061613638,0.0015080506,-0.98462135,0.98654836,0.29633608,0.030895047,-0.016080273,0.29837584,-374,-529,1547,1677.0,-0.0012746484,-0.0025462273,2.1778964E-4,0.002855772,0.002847455279041758,0.055698074979162404,-0.026600830770959892,3.6927089006351914,117.43091444707323,117.43091444707323,-0.8747475936094723,2.0307437485903743,-0.16246175916572198,117.37755005133096,2.2023784733334932,1.2728616603314487,6.950510879392996,12.273269406818697,64.96,NONE,0.0,0.0,0.0,NONE,-4.05510172098783E-10,-9.687645539172443E-11,1.9073486E-6,14.924,14.924,5.318,1.5333955,0,734,3.73,12.0,1.534,22,38.7,OK,62,0,0,0,0,0,65,100,0.0,0,0.0,5.116836E-21,9.0E-44,0.0,-5.9807744E7,62,6.1846084E-12,-6.1846374E-12,2.953717E-36,False,False,0,None,2.4833077E32,1.0842106E-19,
256218354,66.590,14.097388731750158,66.33152496436391,9,7.1342635,7.213453,0.06277033,5.495404E-4,-0.98693424,0.9889285,0.14252956,-0.16077474,-0.1005291,0.2372115,-377,-523,1562,1689.0,0.028444799,-0.019709285,0.016456084,0.038319256,0.03460581675077947,0.015336754483146094,-0.04408015762121572,3.6411411769383792,121.83582816949634,121.83582816949632,-1.2701146118660047,2.2486218278445045,-0.5320375162295768,117.96320593185949,2.229088112731167,1.349781878970486,58.05902033393337,63.38177886135907,65.06,,,14.0973898,66.3315248,20190519,143133,2019-05-19T14:31:33Z,36.17,0.93,1.56,32.2,4,5,9,-0.03,0.01,0.0,0,0,0,0,4,4,14.097418485827456,66.33150886481032,50,1812477,48,18,186,616,3473,3733,3735,-1178,14958,39,212,14955,0,false,false,false,false,false,false,false,false,false,false,0,0,0,0,56,73,73,56,945,946,945,946,940,940,940,940,0.0,0.0,0.0,0.0,1484.0,1479.1,1479.7,1482.8,0.0,0.0,0.0,0.0,0,0,0,0,-45.0,14.097389056488346,66.33152455800531,0,7.10784,7.139104,0.062443484,-9.1548683E-4,-0.9863058,0.9882809,0.27137762,0.058873355,-0.03816182,0.28030023,-377,-523,1559,1687.0,0.0015495137,0.0012889663,-0.0014309793,0.0024718675,0.0020155462774979795,0.06420676051672262,-0.04441073594670453,3.6558194840792493,117.42713681200559,117.42713681200559,-0.9417782933529196,2.23691797672075,-0.216014747412603,117.94513229147499,2.184216137712908,1.3571047144678166,51.57447168055464,56.897230207980336,65.05,NONE,0.0,0.0,0.0,NONE,7.990163447293791E-11,2.119577699342414E-11,-1.9073486E-6,14.923,14.923,5.318,1.5333955,0,734,3.73,12.0,1.534,22,38.7,OK,62,0,0,0,0,0,65,100,0.0,0,0.0,8.055498E-21,9.0E-44,0.0,-5.9807744E7,62,6.1846084E-12,-6.1846374E-12,3.0946966E-36,False,False,0,None,2.6793974E32,1.0842106E-19,
260235502,67.634,14.097392070097163,66.3315249412742,10,7.2373137,7.2119985,0.06203608,-2.3788353E-4,-0.9856047,0.98755515,0.18290572,0.03165795,-0.1033148,0.2124398,-377,-526,1556,1685.0,0.029477363,-0.021871401,0.009301509,0.037865434,0.03670521928172143,0.10604906103968192,-0.0407962443914697,3.645654580295919,121.84115513690152,121.84115513690153,-1.3065459056522628,2.3889868092444004,-0.5426885808068276,117.84522890219867,2.1414964551730256,1.5174948338979046,73.97215385798592,79.29491238541162,65.0,,,14.0973922,66.3315249,20190519,143134,2019-05-19T14:31:34Z,36.005,0.88,1.5,31.94,4,6,10,0.01,-0.02,0.0,0,0,0,0,4,4,14.097418485827456,66.33150886481032,50,1812477,17,18,187,616,3473,3733,3735,-1178,14958,39,0,14955,0,false,false,false,false,false,false,false,false,false,false,0,0,0,0,56,74,73,56,944,945,944,946,940,940,940,940,0.0,0.0,0.0,0.0,1483.4,1479.7,1479.1,1482.8,0.0,0.0,0.0,0.0,0,0,0,0,-45.0,14.097392110283119,66.33152462090574,0,7.189752,7.1394944,0.06218795,-1.6746763E-4,-0.986335,0.9882935,0.12830377,-0.07745015,-0.03429716,0.15374224,-377,-526,1547,1676.0,0.0014634664,-5.2672764E-4,0.0015969578,0.0022292265,0.0015553700841137161,0.1291832712564706,-0.03386143013941676,3.6684406376412446,117.45305428313499,117.45305428313497,-1.0814178890231463,2.378945386822363,-0.23777336362971674,117.83245904215097,2.110849774529173,1.525732930103967,76.25506137023852,81.57781989766423,65.0,NONE,0.0,0.0,0.0,NONE,-2.8509503605826064E-11,2.968329061163991E-11,4.2915344E-6,14.922,14.922,5.317,1.5328506,0,733,3.729,12.0,1.527,22,38.7,OK,64,0,0,0,0,0,65,100,0.0,0,0.0,2.5772036E-18,9.0E-44,0.0,-5.9807744E7,62,6.1846084E-12,-6.1846374E-12,2.6457467E-36,False,False,0,None,1.8683981E32,1.0842106E-19,
264107580,68.640,14.097393785239095,66.33152498648957,8,6.957228,7.2088,0.061218213,-3.7454767E-4,-0.9850449,0.9869454,0.09595555,0.06424892,-0.18434878,0.2175313,-374,-526,1541,1670.0,0.029010013,-0.022509774,-3.0173437E-4,0.03672005,0.03671880719505076,0.0395244483051377,-0.039463125839765474,3.624543817321202,121.84829518697319,121.84829518697319,-1.3862716097202794,2.5266942060904367,-0.5952208642460378,117.71806400309825,2.1045933138622552,1.6264793446748873,138.08704101578854,143.40979954321423,64.99,,,14.0973946,66.3315248,20190519,143135,2019-05-19T14:31:35Z,35.913,0.94,1.71,31.71,3,5,8,-0.02,0.02,0.0,0,0,0,0,4,4,14.097418485827456,66.33150886481032,50,1816762,16,18,188,592,3452,3755,3758,-525,15035,27,0,14437,0,false,false,false,false,false,false,false,false,false,false,0,0,0,0,57,74,73,56,944,945,944,946,940,940,940,940,0.0,0.0,0.0,0.0,1482.2,1478.5,1479.7,1482.2,0.0,0.0,0.0,0.0,0,0,0,0,-45.0,14.097393886363143,66.33152455770947,0,7.139548,7.1406007,0.06280062,-5.502822E-4,-0.98755544,0.9895504,0.21967423,-0.0752643,-0.045531373,0.23663175,-374,-526,1544,1673.0,-7.755344E-4,-3.3461422E-4,-9.9303E-4,0.0013036598,8.446421254904889E-4,0.07824666478424308,-0.03532743273983655,3.6422716757250106,117.46461064629834,117.46461064629835,-1.1374502132771045,2.5050302476203465,-0.2668130646545509,117.65569126586685,2.0617254543760364,1.6249241186455414,25.41390452863318,30.73666305605888,65.0,NONE,0.0,0.0,0.0,NONE,-8.321523896087356E-11,-5.1937392359449265E-11,-1.4305115E-6,14.923,14.923,5.319,1.5322881,0,733,3.729,12.0,1.529,22,38.7,OK,65,0,0,0,0,0,65,100,0.0,0,0.0,2.4878374E-16,9.0E-44,0.0,-5.9807744E7,62,6.1846084E-12,-6.1846374E-12,2.413403E-36,False,False,0,None,1.5135798E32,1.0842106E-19,
267976303,69.646,14.097395413160385,66.33152518698849,9,7.0682054,7.187706,0.061598416,0.0011922698,-0.9865928,0.98851466,0.15572527,0.08440176,-0.036595635,0.18086806,-374,-526,1547,1676.0,0.027321229,-0.019914182,0.01109042,0.035581198,0.033808640709199256,0.04178937357976502,-0.03468750490198206,3.625820293188967,121.8551343986579,121.85513439865792,-1.4892329447993324,2.661575480064762,-0.599044281179833,117.6772528480713,2.0868099346693385,1.7417266927486652,75.98336451411332,81.30612304153902,65.01,,,14.0973957,66.331525,20190519,143136,2019-05-19T14:31:36Z,35.774,0.93,1.56,31.41,4,5,9,0.01,-0.01,0.0,0,0,0,0,4,4,14.097418485827456,66.33150886481032,50,1816762,16,18,188,592,3452,3755,3758,-525,15035,27,0,14437,0,false,false,false,false,false,false,false,false,false,false,0,0,0,0,57,74,74,57,945,945,945,946,940,940,940,940,0.0,0.0,0.0,0.0,1484.0,1479.1,1479.7,1482.8,0.0,0.0,0.0,0.0,0,0,0,0,-45.0,14.09739514606819,66.33152455541725,0,7.202964,7.140686,0.063137256,7.742429E-4,-0.9853042,0.98732525,0.11128981,-0.066491336,-0.06857249,0.14665847,-377,-523,1559,1687.0,-0.0015199619,4.9352227E-4,0.0030790954,0.0034691032,0.0015980764655211456,0.05432830836798598,-0.013136811579764006,3.647019076685596,117.46566169365448,117.46566169365451,-1.1901428196923334,2.722919889969133,-0.33228720652184546,117.92882024083526,2.0321148454779725,1.681158986630758,85.06363882698948,90.38639735441518,64.99,NONE,0.0,0.0,0.0,NONE,-5.947816011995389E-11,-5.6302459114513E-11,2.3841858E-6,14.923,14.923,5.319,1.5317433,0,733,3.729,12.0,1.535,22,38.7,OK,66,0,0,0,0,0,65,100,0.0,0,0.0,1.6724361E-15,9.0E-44,0.0,-5.9807744E7,62,6.1846084E-12,-6.1846374E-12,2.3030626E-36,False,False,0,None,1.4034031E32,1.0842106E-19,
271828571,70.647,14.097396269270872,66.33152550789943,7,6.9598703,7.2083044,0.05968735,-0.0020641414,-0.9855427,0.98735064,0.11390976,0.05456043,0.023067674,0.12839155,-377,-526,1541,1671.0,0.023612931,-0.021373436,0.004573625,0.03217627,0.03184955786788985,0.020373711777246208,-0.03378401155529288,3.6334529365110515,121.85282171455572,121.85282171455572,-1.5524332421779903,2.8327003175116854,-0.6501026166462421,117.94624866882354,2.0995996005798996,1.810118001980754,68.09927857416578,73.42203710159148,64.96,,,14.0973972,66.3315253,20190519,143137,2019-05-19T14:31:37Z,35.575,1.04,1.92,31.2,4,3,7,0.02,-0.02,0.01,0,0,0,0,4,4,14.097418485827456,66.33150886481032,50,1816764,114,18,190,591,3452,3717,3726,-2338,14849,27,3454,14947,0,false,false,false,false,false,false,false,false,false,false,0,0,0,0,57,73,72,56,945,946,945,947,940,940,940,940,0.0,0.0,0.0,0.0,1482.8,1479.7,1479.1,1483.4,0.0,0.0,0.0,0.0,0,0,0,0,-45.0,14.0973961618575,66.33152496569762,0,6.983651,7.1423616,0.06324325,0.0040235445,-0.9850692,0.9871055,-0.009078809,-0.023590194,-0.09783551,0.10104805,-377,-523,1553,1681.0,-1.4031872E-4,-2.9252493E-4,3.7154733E-4,4.932622E-4,3.244382490754615E-4,0.06392115768144363,-0.03422430937888277,3.6666341126804967,117.45397447975625,117.45397447975625,-1.3193767586431522,2.8997219198654203,-0.36842753975245,117.9401980759226,2.048984515307973,1.7539882744333055,57.614632345203354,62.93739087262905,64.98,NONE,0.0,0.0,0.0,NONE,5.382002457464942E-11,-5.38365205760283E-12,4.7683716E-7,14.923,14.923,5.32,1.5314546,0,732,3.729,12.0,1.531,22,38.7,OK,67,0,0,0,0,0,65,100,0.0,0,0.0,9.836533E-15,9.0E-44,0.0,-1.05007105E-23,62,6.1846084E-12,-6.1846374E-12,2.3540772E-36,False,False,0,None,1.4543567E32,1.0842106E-19,
275802344,71.680,14.097397734007904,66.33152563944839,7,6.883243,7.191471,0.062006082,8.764304E-4,-0.98738784,0.9893333,0.17650229,-0.059917547,0.10023343,0.21163626,-374,-529,1541,1671.0,0.020059489,-0.022697488,0.0060618715,0.030891834,0.030291237712483533,0.03458306035008801,-0.03218928848923722,3.631210212447254,121.85510846276958,121.85510846276958,-1.6009766651450048,2.9805631816094,-0.6832264632966368,117.5599865193825,2.082609869587359,1.8969331864285819,91.11472888404421,96.43748741146992,64.98,,,14.0973984,66.3315255,20190519,143138,2019-05-19T14:31:38Z,35.346,1.04,1.92,31.21,4,3,7,0.01,0.01,0.01,0,0,0,0,0,0,14.097418485827456,66.33150886481032,50,1816853,48,17,191,556,3452,3728,3733,-1180,14931,27,212,14925,0,false,false,false,false,false,false,false,false,false,false,0,0,0,0,57,73,72,56,945,945,944,946,940,940,940,940,0.0,0.0,0.0,0.0,1483.4,1478.5,1479.1,1482.2,0.0,0.0,0.0,0.0,0,0,0,0,-45.0,1.174614994125172E-11,4.605176805670947E-11,0,7.18711,7.1436796,0.06145763,-0.0016676397,-0.9858964,0.9878115,0.08220314,-0.1038181,-0.10428143,0.16855317,-377,-529,1544,1675.0,8.0958486E-4,1.853199E-4,-7.1432354E-4,0.0010954585,8.305246097057097E-4,7222925.843517835,-0.05621343779665654,3.658754815669952,117.4520373607902,117.4520373607902,-1.3666786791767198,3.005455272980719,-0.4333839056394019,117.76246922399744,7459589.383720517,7459592.676893779,,,65.01,NONE,0.0,0.0,0.0,NONE,-1.5301786498752636E-11,1.724274574845773E-11,4.7683716E-7,14.922,14.922,5.318,1.5314546,0,732,3.729,12.0,1.531,22,38.7,OK,67,0,0,0,0,0,65,100,0.0,0,0.0,589232.0,2.69E-43,0.0,-1.05007105E-23,62,6.1846084E-12,-6.1846374E-12,9.4E-44,False,False,0,None,0.0,1.0842022E-19,
279740454,72.703,14.097399216147982,66.33152612047283,7,7.1580443,7.1710157,0.06317275,8.8683655E-4,-0.98540884,0.9874321,0.103042,-0.112276904,-0.062420964,0.16468191,-374,-526,1544,1673.0,0.013201161,-0.014644689,0.003828551,0.020084705,0.019716429527473184,0.06340758154252374,-0.04426976402467298,3.631629119387392,121.86010872565977,121.86010872565976,-1.6381427534737412,3.1175097750424023,-0.7009661966156392,117.69095243329073,2.10272783783373,1.9907565103068277,78.44141453474607,83.76417306217178,64.97,,,14.0973994,66.3315258,20190519,143139,2019-05-19T14:31:39Z,35.068,1.06,2.43,31.26,3,4,7,0.01,-0.02,0.03,0,0,0,0,0,0,14.097418485827456,66.33150886481032,50,1816853,48,17,191,556,3452,3728,3733,-1180,14931,27,212,14925,0,false,false,false,false,false,false,false,false,false,false,0,0,0,0,57,73,74,57,945,946,945,946,940,940,940,940,0.0,0.0,0.0,0.0,1483.4,1478.5,1479.1,1482.2,0.0,0.0,0.0,0.0,0,0,0,0,-45.0,1.177543164777289E-11,2.3253863065708524E-11,0,7.007432,7.1470895,0.06194401,0.0011380129,-0.983774,0.9857229,0.08552865,-0.003957803,-0.09771657,0.12992053,-374,-526,1544,1673.0,0.001042689,5.0004927E-4,-5.331278E-4,0.0012733715,0.0011563950943137143,-0.0011539182789617095,-0.06866178880206589,3.6875733872157785,117.48543178873842,117.48543178873842,-1.384768167208808,3.1592157584114746,-0.50254318230714,117.58822363680112,7459589.383723038,7459592.676912479,,,64.96,NONE,0.0,0.0,0.0,NONE,6.128244181208445E-12,1.0884430962119026E-11,9.536743E-7,14.922,14.922,5.318,1.5319792,0,731,3.729,12.0,1.545,22,38.7,OK,69,0,0,0,0,0,65,100,0.0,0,0.0,589232.0,2.69E-43,0.0,-1.05007105E-23,62,6.1846084E-12,-6.1846374E-12,9.4E-44,False,False,0,None,0.0,1.0842022E-19,
283643626,73.718,14.09739835728726,66.3315262228238,7,7.2769485,7.1815977,0.06273807,1.987489E-4,-0.98481065,0.98680705,0.13738176,0.13171805,-0.06012456,0.19959548,-377,-526,1547,1676.0,0.011336665,-0.014129291,-0.0027612182,0.018324332,0.01811509964550947,0.021308388462022116,-0.03775205003404464,3.6287606255398854,121.8604470525995,121.86044705259951,-1.6812328468231714,3.2818087468689723,-0.7450076717495712,117.92960454188459,2.1290121361666055,2.089329293375896,-85.55046483806957,-80.22770631064387,65.01,,,14.0973995,66.331526,20190519,143140,2019-05-19T14:31:40Z,34.822,1.06,2.43,31.19,3,4,7,-0.03,0.03,0.02,0,0,0,0,0,0,14.097418485827456,66.33150886481032,50,1816864,48,17,193,556,3452,3746,3752,0,14998,27,212,3,0,false,false,false,false,false,false,false,false,false,false,0,0,0,0,55,73,73,55,945,946,945,946,940,940,940,940,0.0,0.0,0.0,0.0,1482.8,1479.1,1479.1,1482.2,0.0,0.0,0.0,0.0,0,0,0,0,-45.0,2.003705775180327E-12,-3.3732533133724756E-11,0,7.0444245,7.1495214,0.06274481,6.608041E-4,-0.98528224,0.9872783,0.27700883,-0.091594554,-0.049907245,0.29599693,-377,-526,1553,1682.0,-0.0014975955,1.0193644E-4,5.860016E-4,0.001611391,0.0015010606528941307,-0.0014947229406597033,-0.05030815710477437,3.6621266718068073,117.4880257046753,117.4880257046753,-1.4680828139353999,3.3434092713843047,-0.5117519550154236,117.83393239818378,7459589.383729453,7459592.676962819,,,65.02,NONE,0.0,0.0,0.0,NONE,-1.2724995758181066E-11,-1.52306737526421E-11,-4.7683716E-7,14.921,14.921,5.318,1.5319792,0,731,3.729,12.0,1.545,22,38.7,OK,69,0,0,0,0,0,65,100,0.0,0,0.0,589232.0,2.69E-43,0.0,-1.05007105E-23,62,6.1846084E-12,-6.1846374E-12,9.4E-44,False,False,0,None,0.0,1.0842022E-19,
287497543,74.719,14.097398530973633,66.3315264245245,6,7.163329,7.1828094,0.06201156,3.870721E-4,-0.98617893,0.98812675,-0.025939131,-0.10549896,-0.02273455,0.11099428,-377,-523,1559,1687.0,0.010102014,-0.013785173,0.0032927126,0.017404702,0.01709039721273941,0.006601683035715573,-0.034455468730951726,3.618122524867515,121.85512140861712,121.85512140861715,-1.7361982094665225,3.416991565406916,-0.8165446632955858,118.02230061250032,2.146136365499238,2.129634162337396,-47.64887984536859,-42.32612131794289,65.03,,,14.0973992,66.3315262,20190519,143141,2019-05-19T14:31:41Z,34.556,1.09,2.49,31.1,3,3,6,0.01,0.0,0.01,0,0,0,0,0,0,14.097418485827456,66.33150886481032,50,1816864,48,17,194,556,3452,3746,3752,0,14998,27,212,3,0,false,false,false,false,false,false,false,false,false,false,0,0,0,0,57,74,74,57,945,945,944,947,940,940,940,940,0.0,0.0,0.0,0.0,1482.8,1478.5,1479.7,1482.8,0.0,0.0,0.0,0.0,0,0,0,0,-45.0,14.097398055019065,66.33152578848365,0,7.099913,7.1522217,0.06288386,3.5646977E-4,-0.98544604,0.9874505,0.039943077,-0.09218031,0.063815184,0.11901697,-377,-523,1562,1689.0,0.0011789885,1.5333897E-4,-0.0011365215,0.0016447515,0.0011889182734964442,7447557.412939783,-0.06217925224024188,3.663350643684188,117.48763911083738,117.48763911083739,-1.5124066451374971,3.470108131646328,-0.5312802158988248,117.93214039859262,2.0911762323766068,1.4919183661563693E7,-104.0889447659416,-98.7661862385159,64.98,NONE,0.0,0.0,0.0,NONE,-4.707559057102693E-11,-1.8238323961409835E-11,4.7683716E-7,14.921,14.921,5.316,1.534518,0,730,3.729,12.0,1.537,22,38.7,OK,71,0,0,0,0,0,65,100,0.0,0,0.0,589232.0,2.69E-43,0.0,-1.05007105E-23,62,6.1846084E-12,-6.1846374E-12,9.4E-44,False,False,0,None,0.0,1.0842022E-19,
291354315,75.722,14.097399018932549,66.33152653811987,7,7.224102,7.180157,0.062261034,-1.561162E-4,-0.98449963,0.9864664,0.17393309,-0.18155134,-0.10260473,0.27155358,-377,-526,1556,1685.0,0.008262673,-0.010114861,0.004033687,0.013669412,0.013060711229330463,0.01205928374740486,-0.03264979679791209,3.623840396095346,121.8509203307716,121.8509203307716,-1.839614195692156,3.606680378809739,-0.8880019601847434,117.88686729757268,2.14873382724683,2.209520105641392,55.508354217924946,60.831112745350644,65.0,,,14.0973998,66.3315263,20190519,143142,2019-05-19T14:31:42Z,34.394,1.06,2.43,31.06,3,4,7,-0.01,-0.02,0.01,0,0,0,0,0,0,14.097418485827456,66.33150886481032,50,1816864,48,17,195,556,3452,3746,3752,0,14998,27,212,3,0,false,false,false,false,false,false,false,false,false,false,0,0,0,0,57,73,73,56,945,945,945,945,940,940,940,940,0.0,0.0,0.0,0.0,1482.2,1478.5,1478.5,1482.8,0.0,0.0,0.0,0.0,0,0,0,0,-45.0,-2.934184485932773E-11,-1.9037296402715918E-11,0,6.92552,7.1536794,0.062310208,5.911216E-4,-0.9838641,0.98583543,0.23791705,-0.12165047,0.058529884,0.2735491,-377,-526,1553,1682.0,-8.4233464E-4,-0.0013168788,0.0027668856,0.0031779478,0.0015632330088498512,7442044.31082594,-0.03417170571469767,3.6934253579257756,117.4860395608619,117.48603956086191,-1.479554922348498,3.6681970559066013,-0.5514361529143841,117.74156567595624,7459589.3837282,2.2378774627247393E7,-169.98918397819568,-164.66642545077,65.0,NONE,0.0,0.0,0.0,NONE,-2.3215692238097615E-11,-2.3245496838596986E-11,5.722046E-6,14.921,14.921,5.318,1.5356404,0,730,3.728,12.0,1.535,22,38.7,OK,72,0,0,0,0,0,65,100,0.0,0,0.0,589232.0,2.69E-43,0.0,-1.05007105E-23,62,6.1846084E-12,-6.1846374E-12,9.4E-44,False,False,0,None,0.0,1.0842022E-19,
295252308,76.735,14.097400481044717,66.33152669600565,6,7.0576363,7.1731973,0.06302091,0.0015921369,-0.9848892,0.98690474,0.10512439,0.03612313,-0.14592662,0.183441,-377,-526,1550,1679.0,0.010580727,-0.010331626,-0.0026854996,0.015030175,0.014788315418490506,0.05192617325629742,-0.03801299239457907,3.6328575309396873,121.84809130973917,121.84809130973917,-1.940811710647994,3.759361583999428,-0.9228933204104414,117.90424605414916,2.139438484634741,2.28407014096086,84.99121438157768,90.31397290900338,64.96,,,14.0974009,66.3315266,20190519,143143,2019-05-19T14:31:43Z,34.134,1.09,2.49,31.01,3,3,6,-0.01,0.0,0.02,0,0,0,0,0,0,14.097418485827456,66.33150886481032,50,1816864,48,17,196,556,3452,3746,3752,0,14998,27,212,3,0,false,false,false,false,false,false,false,false,false,false,0,0,0,0,56,74,74,57,944,946,945,945,940,940,940,940,0.0,0.0,0.0,0.0,1483.4,1479.7,1479.1,1482.8,0.0,0.0,0.0,0.0,0,0,0,0,-45.0,2.716323312954539E-11,-1.891598644223479E-11,0,7.181825,7.1562333,0.06308122,3.1627947E-4,-0.98703164,0.9890454,0.14317538,-0.0104054995,-0.0703917,0.15988262,-374,-529,1538,1668.0,-8.652527E-4,0.001217673,-0.0010373101,0.0018186263,0.0014937836336797227,-0.0014875816074210939,-0.034852990517605625,3.6706350355058706,117.45938812409064,117.45938812409065,-1.49531324516488,3.832460186092685,-0.523062662266611,117.4876384291504,7459589.383727518,2.237877462727973E7,,,64.99,NONE,0.0,0.0,0.0,NONE,-2.8788106744205938E-11,2.8361430358284837E-11,-5.2452087E-6,14.921,14.921,5.317,1.5356404,0,730,3.728,12.0,1.535,22,38.7,OK,72,0,0,0,0,0,65,100,0.0,0,0.0,589232.0,2.69E-43,0.0,-1.05007105E-23,62,6.1846084E-12,-6.1846374E-12,9.4E-44,False,False,0,None,0.0,1.0842022E-19,
299118510,77.740,14.097401003062819,66.33152711315113,7,7.012717,7.183275,0.06544572,0.0013525477,-0.98500174,0.98717445,0.25369182,-0.020970909,0.057129603,0.26088908,-377,-529,1544,1675.0,0.011649884,-0.00926229,-0.008700341,0.017239656,0.014883206009825106,0.03677701999720312,-0.02986640016726255,3.6207857323228967,121.84566371274423,121.84566371274423,-2.057493357685118,3.936779037269066,-0.9523106612369476,117.8200958737262,2.174022047173131,2.3529596725889297,45.98878212213623,51.31154064956193,65.0,,,14.0974015,66.3315269,20190519,143144,2019-05-19T14:31:44Z,34.004,1.04,1.92,30.96,4,3,7,-0.01,0.0,0.01,0,0,0,0,0,0,14.097418485827456,66.33150886481032,50,1816864,48,17,196,556,3452,3746,3752,0,14998,27,212,3,0,false,false,false,false,false,false,false,false,false,false,0,0,0,0,56,73,73,57,945,945,944,946,940,940,940,940,0.0,0.0,0.0,0.0,1482.8,1478.5,1478.5,1481.6,0.0,0.0,0.0,0.0,0,0,0,0,-45.0,2.5928956637675162E-11,7.696907350701346E-12,0,6.965155,7.1587696,0.06152079,-0.0010247892,-0.9853608,0.98727995,0.0070573865,-0.042873383,-0.099029765,0.10814263,-377,-526,1538,1668.0,4.1395877E-4,0.0011664834,-0.0030542074,0.003295486,0.001237758222251917,-0.0012348099993326794,-0.04129925566708126,3.6828593249887223,117.45711727359594,117.45711727359594,-1.5671661425677184,3.974907215702648,-0.5325120449788888,117.85649912882567,7459589.383724592,2.2378774627302147E7,,,65.0,NONE,0.0,0.0,0.0,NONE,1.2874541630739317E-11,-2.2915031777496543E-11,-5.722046E-6,14.921,14.921,5.317,1.5364293,0,729,3.729,12.0,1.539,22,38.7,OK,73,0,0,0,0,0,65,100,0.0,0,0.0,589232.0,2.69E-43,0.0,-1.05007105E-23,62,6.1846084E-12,-6.1846374E-12,9.4E-44,False,False,0,None,0.0,1.0842022E-19,
303009447,78.751,14.097400908188996,66.33152767372668,8,6.949301,7.1870675,0.06297588,4.3505803E-5,-0.98636585,0.98837423,0.1548476,-0.011341469,-0.1704194,0.23054105,-377,-526,1550,1679.0,0.012494042,-0.005406931,-0.0023332844,0.01381232,0.013613815474153043,0.048168787557181264,-0.04115931809639101,3.6159130791354563,121.84594247584644,121.84594247584641,-2.1273209164090696,4.082697078774056,-1.00656710729814,117.94752691383685,2.233796893693687,2.4321822479713022,-56.81541549868744,-51.492656971261745,65.01,,,14.0974015,66.3315276,20190519,143145,2019-05-19T14:31:45Z,33.778,0.94,1.81,30.79,4,4,8,0.0,0.0,0.02,0,0,0,0,0,0,14.097418485827456,66.33150886481032,50,1816867,16,17,197,556,3452,3747,3753,0,15003,27,1,17510,0,false,false,false,false,false,false,false,false,false,false,0,0,0,0,58,73,75,57,945,945,945,946,940,940,940,940,0.0,0.0,0.0,0.0,1482.2,1477.9,1479.1,1482.2,0.0,0.0,0.0,0.0,0,0,0,0,-45.0,14.097400537827612,66.33152729471348,0,6.9704394,7.160264,0.062219363,-1.7136242E-4,-0.9860367,0.98799783,0.1391085,-0.08618616,-0.046558157,0.17013785,-377,-520,1562,1688.0,0.0015632297,0.0017704183,-0.0012368344,0.002666051,0.002361793458300987,7376698.428125876,-0.04159056887586957,3.6801270308721326,117.45165126556793,117.45165126556793,-1.6216124079753649,4.131614605295074,-0.5659789042454898,118.00461708438108,2.2003535842559336,2.9838365779352218E7,-12.75834378999087,-7.435585262565168,64.99,NONE,0.0,0.0,0.0,NONE,7.561636037331262E-11,2.2463256774080524E-11,-9.536743E-7,14.921,14.921,5.319,1.5370413,0,729,3.729,12.0,1.538,22,38.7,OK,74,0,0,0,0,0,65,100,0.0,0,0.0,589232.0,2.69E-43,0.0,-1.05007105E-23,62,6.1846084E-12,-6.1846374E-12,9.4E-44,False,False,0,None,0.0,1.0842022E-19,
306906454,79.764,14.097400934548318,66.33152867492825,8,6.941374,7.1562057,0.06273553,6.779609E-4,-0.9862779,0.98827136,0.006610609,-0.07306719,-0.03854978,0.08287702,-377,-526,1547,1676.0,0.011307111,-0.00615743,0.010344432,0.01651581,0.012874963825969837,0.09705112241466991,-0.03617579027068658,3.6131489079923633,121.83931497927401,121.83931497927404,-2.1720005469987025,4.2209524539753245,-1.0301334284033756,117.96414621763064,2.3379638503502704,2.552147696932247,21.188036958256166,26.510795485681868,64.99,,,14.0974017,66.3315281,20190519,143146,2019-05-19T14:31:46Z,33.588,0.94,1.81,30.62,4,4,8,0.02,-0.03,0.01,0,0,0,0,0,0,14.097418485827456,66.33150886481032,50,1816867,18,17,198,537,3446,3783,3792,2907,15144,27,1,15244,0,false,false,false,false,false,false,false,false,false,false,0,0,0,0,57,74,73,57,945,946,945,946,940,940,940,940,0.0,0.0,0.0,0.0,1482.8,1479.7,1479.7,1482.8,0.0,0.0,0.0,0.0,0,0,0,0,-45.0,14.097401321599069,66.33152790156075,0,6.8568196,7.161166,0.062350232,0.0016616471,-0.9862558,0.9882261,0.26050133,-0.111187354,0.033453833,0.28520647,-377,-526,1544,1674.0,-6.514034E-4,-8.3220704E-4,0.0020333081,0.0022915578,0.0010568325146732215,0.07399049999093155,-0.0302568960629335,3.675122671870008,117.43677580878531,117.43677580878534,-1.6515981016934143,4.3258092839942,-0.6169105267597323,117.8289855090653,2.251186631865705,2.9838365872022044E7,80.10290518849447,85.42566371592018,64.97,NONE,0.0,0.0,0.0,NONE,1.0784846509774149E-11,-1.9024747075131554E-11,3.8146973E-6,14.922,14.922,5.319,1.5375108,0,729,3.729,12.0,1.537,22,38.7,OK,75,0,0,0,0,0,65,100,0.0,0,0.0,1.3292038E-8,9.0E-44,0.0,-1.05007105E-23,62,6.1846084E-12,-6.1846374E-12,3.495283E-36,False,False,0,None,3.0793016E32,1.0842106E-19,
310922610,80.807,14.097401194525697,66.33152872587901,7,7.1104827,7.1691093,0.06329411,-2.5970582E-4,-0.9864736,0.98850214,0.11769887,-0.053656258,0.0122386515,0.12992999,-374,-526,1550,1679.0,0.011020278,-0.00739672,-0.0048413402,0.0141278645,0.013272451806895035,-9.000407901241913E-4,-0.0334778722359735,3.6048399390977157,121.85181301339873,121.85181301339873,-2.217940358649943,4.3669780114535985,-1.086876498412724,117.70890219791033,2.339448041228915,2.6230369006303924,-2.581619349214252,2.7411391782114487,64.98,,,14.0974022,66.3315284,20190519,143147,2019-05-19T14:31:47Z,33.404,1.04,1.92,30.44,4,3,7,-0.01,0.01,0.01,0,0,0,0,3,3,14.097418485827456,66.33150886481032,50,1816867,18,17,198,537,3446,3783,3792,2907,15144,27,1,15244,0,false,false,false,false,false,false,false,false,false,false,0,0,0,0,57,73,74,57,945,946,945,946,940,940,940,940,0.0,0.0,0.0,0.0,1482.8,1477.9,1479.7,1483.4,0.0,0.0,0.0,0.0,0,0,0,0,-45.0,14.097401082623383,66.3315283099203,0,7.0444245,7.161897,0.06253861,4.0173717E-4,-0.98706263,0.9890419,0.03597758,0.14691566,-0.101395614,0.18209796,-374,-526,1547,1676.0,0.0011357196,2.2617425E-4,0.0010123159,0.0015381149,0.0011580214960655035,0.043529260539494206,-0.052061542264939344,3.675222223738009,117.43268567620234,117.43268567620237,-1.7108482223432842,4.470424396937322,-0.6698332789523628,117.58157351509612,2.2975203651441505,2.9838365953330986E7,-7.282651814490423,-1.9598932870647228,64.98,NONE,0.0,0.0,0.0,NONE,1.0511317846957969E-10,5.287440699104066E-12,1.4305115E-6,14.92,14.92,5.316,1.537771,0,728,3.729,12.0,1.536,22,38.7,OK,76,0,0,0,0,0,65,100,0.0,0,0.0,5.021502E-8,9.0E-44,0.0,-3.3654391E38,62,6.1846084E-12,-6.1846374E-12,3.498038E-36,False,False,0,None,3.0820746E32,1.0842106E-19,
314824257,81.821,14.09740195975834,66.33152900908334,7,7.3562183,7.195321,0.06319715,2.659969E-4,-0.98570544,0.98772925,0.05119488,-0.05429929,-0.094505206,0.12041828,-377,-526,1544,1674.0,0.010557863,-0.006680875,-0.015598698,0.019985544,0.012494100868107578,0.03332320504569508,-0.02829688700907594,3.6078949814230263,121.84923496471693,121.84923496471691,-2.2724311475109134,4.502265845062661,-1.1079814243864994,117.98315081382128,2.3582909301656225,2.6961244725281577,87.01836690228686,92.34112542971256,64.99,,,14.0974025,66.3315289,20190519,143148,2019-05-19T14:31:48Z,33.153,1.04,1.92,30.17,4,3,7,-0.01,0.0,0.0,0,0,0,0,3,3,14.097418485827456,66.33150886481032,50,1816867,18,17,198,537,3446,3783,3792,2907,15144,27,1,15244,0,false,false,false,false,false,false,false,false,false,false,0,0,0,0,57,73,74,57,944,946,946,945,940,940,940,940,0.0,0.0,0.0,0.0,1484.0,1479.1,1479.7,1483.4,0.0,0.0,0.0,0.0,0,0,0,0,-45.0,14.097401467019003,66.33152865090699,0,7.007432,7.1627903,0.06135497,-6.753551E-4,-0.98546845,0.9873768,0.21217579,-0.033576928,-0.1451816,0.2592753,-374,-526,1541,1670.0,9.3247084E-4,0.0031417718,-0.0014156236,0.003569905,0.003277229183119305,0.03776521996800755,-0.05698366917709762,3.663187273022899,117.40542120417967,117.40542120417967,-1.8106554691565282,4.677288344657253,-0.6733209681895671,117.6481513086082,2.327581526165797,2.98383660341059E7,7.4744300066913345,12.797188534117035,64.93,NONE,0.0,0.0,0.0,NONE,-1.7954946207436786E-10,-5.511654956039794E-11,-1.1920929E-5,14.922,14.922,5.317,1.5379362,0,728,3.729,12.0,1.542,22,38.7,OK,77,0,0,0,0,0,65,100,0.0,0,0.0,9.71977E-8,9.0E-44,0.0,-3.3654391E38,62,6.1846084E-12,-6.1846374E-12,3.9785214E-36,False,False,0,None,3.8782186E32,1.0842106E-19,
318678049,82.823,14.09740191280692,66.33152948320317,7,6.92552,7.181861,0.06313072,-5.1817857E-4,-0.9848239,0.9868454,0.26636368,-0.012759744,-0.06269088,0.27393898,-377,-526,1544,1674.0,0.012408574,-0.0063971095,0.0045037195,0.014668988,0.013960505775448374,0.038717454083221095,-0.02379233144024774,3.6118593575735325,121.84265047577368,121.84265047577367,-2.370053036766328,4.6687439944169355,-1.1462998970114704,117.96867464852578,2.4090641733968696,2.752641659888679,-78.72515957074872,-73.40240104332301,65.04,,,14.0974021,66.3315293,20190519,143149,2019-05-19T14:31:49Z,32.945,1.04,1.92,29.96,4,3,7,0.0,-0.01,0.01,0,0,0,0,3,3,14.097418485827456,66.33150886481032,50,1821762,48,99,201,3469,3469,4389,4396,174,17559,27,212,17564,0,false,false,false,false,false,false,false,false,false,false,0,0,0,0,57,74,74,57,945,946,944,946,940,940,940,940,0.0,0.0,0.0,0.0,1482.8,1478.5,1479.1,1482.8,0.0,0.0,0.0,0.0,0,0,0,0,-45.0,14.097401432335486,66.33152905697982,0,6.909666,7.162863,0.06275561,-2.6376965E-4,-0.9863872,0.9883815,0.27872562,-0.005715304,-0.10515028,0.29795507,-374,-526,1544,1673.0,7.306038E-4,2.742764E-4,-0.0010746346,0.0013280998,7.803905917797035E-4,0.04432796202138246,-0.02895257443138992,3.6751051403385393,117.39018140105463,117.39018140105463,-1.914456635649248,4.827731811211689,-0.6928216660352076,117.57148232808045,2.37080446539275,2.9838366116276264E7,-20.363177745291228,-15.040419217865526,65.03,NONE,0.0,0.0,0.0,NONE,-6.61158004428578E-12,-9.95578232825749E-12,1.9073486E-6,14.921,14.921,5.318,1.5381677,0,727,3.729,12.0,1.538,22,38.7,OK,78,0,0,0,0,0,65,100,0.0,0,0.0,1.5637124E-7,9.0E-44,0.0,-3.3654391E38,62,6.1846084E-12,-6.1846374E-12,4.314915E-36,False,False,0,None,4.5497763E32,1.0842106E-19,
322675408,83.862,14.097401172342414,66.33153017926527,7,6.798689,7.172893,0.063129164,-3.053667E-4,-0.9856252,0.9876449,0.028326835,0.08965891,-0.07052061,0.11753419,-374,-526,1550,1679.0,0.012328059,-0.0049788095,-0.0040567056,0.013900592,0.013295472686723084,0.06771448062664398,-0.026545659949680965,3.613077373963992,121.8392364061195,121.83923640611948,-2.453175142841551,4.803944739206484,-1.1814164969308545,117.68150848471589,2.492885046124283,2.893536702045096,72.11397761274584,77.43673614017155,65.03,,,14.097402,66.3315298,20190519,143150,2019-05-19T14:31:50Z,32.796,1.04,1.92,29.79,4,3,7,0.0,-0.01,0.0,0,0,0,0,3,3,14.097418485827456,66.33150886481032,50,1821762,48,99,202,3469,3469,4389,4396,174,17559,27,212,17564,0,false,false,false,false,false,false,false,false,false,false,0,0,0,0,56,74,73,57,945,945,944,946,940,940,940,940,0.0,0.0,0.0,0.0,1482.2,1477.9,1478.5,1481.6,0.0,0.0,0.0,0.0,0,0,0,0,-45.0,14.097401081735828,66.3315295808611,0,7.197679,7.1632886,0.062981956,2.104789E-4,-0.98679394,0.98880184,0.016224537,-0.029826436,-0.05318544,0.063099466,-374,-526,1547,1676.0,7.877517E-4,-3.7711154E-4,-9.711501E-4,0.0013061004,8.73364647698236E-4,0.0571869544722222,-0.02217484992180438,3.6860027927538406,117.39044816007134,117.39044816007134,-2.017423885795778,5.034907507306551,-0.7687283629146626,117.52164641626322,2.431001073393448,2.9838366233768523E7,31.086291009606615,36.40904953703232,65.03,NONE,0.0,0.0,0.0,NONE,-7.14665451446019E-11,7.738738363234303E-12,-1.9073486E-6,14.92,14.92,5.317,1.5382825,0,727,3.729,12.0,1.533,22,38.7,OK,79,0,0,0,0,0,65,100,0.0,0,0.0,4.2618012E-8,9.0E-44,0.0,-3.3654391E38,62,6.1846084E-12,-6.1846374E-12,4.704573E-36,False,False,0,None,5.3276978E32,1.0842106E-19,
326665388,84.899,14.097401022398504,66.3315306296538,7,6.9360895,7.1660233,0.061955627,5.623698E-4,-0.98667043,0.98861384,0.09564292,-0.08739668,-0.016397344,0.13059334,-377,-523,1553,1681.0,0.011839706,-0.004826136,-0.0071579195,0.014652851,0.012785547889641428,0.03593893609533935,-0.029763861144278474,3.624936314464455,121.84244810321577,121.84244810321576,-2.526068048789835,4.990094684224477,-1.2343334081244086,118.03294813773987,2.5425900203929728,2.96739617420914,-20.58584571999297,-15.26308719256727,64.97,,,14.0974016,66.3315303,20190519,143151,2019-05-19T14:31:51Z,32.664,1.04,1.92,29.63,4,3,7,-0.02,0.02,0.0,0,0,0,0,3,3,14.097418485827456,66.33150886481032,50,1821762,48,99,203,3469,3469,4389,4396,174,17559,27,212,17564,0,false,false,false,false,false,false,false,false,false,false,0,0,0,0,57,72,73,57,945,945,945,946,940,940,940,940,0.0,0.0,0.0,0.0,1482.8,1478.5,1478.5,1484.0,0.0,0.0,0.0,0.0,0,0,0,0,-45.0,14.097400889034697,66.331529934986,0,6.9862933,7.1637864,0.062179606,-1.2007635E-4,-0.98694354,0.98890036,0.2951982,0.029277463,-0.12733597,0.32282132,-380,-526,1547,1677.0,-4.9616204E-4,-9.1542746E-4,-0.0018696912,0.0021400768,0.001041241658460416,0.03782697704727519,-0.02758569273472184,3.6902179641910346,117.38943410723749,117.38943410723749,-2.0787956723944947,5.207441807785833,-0.8015647606429018,118.02931500363957,2.4710659936857238,2.9838366276890106E7,-17.276936155439806,-11.954177628014106,64.99,NONE,0.0,0.0,0.0,NONE,-5.1725586728340294E-11,-2.844509236091659E-12,-4.2915344E-6,14.919,14.919,5.317,1.5382931,0,727,3.728,12.0,1.546,22,38.7,OK,80,0,0,0,0,0,65,100,0.0,0,0.0,2.0639345E-7,9.0E-44,0.0,-3.3654391E38,62,6.1846084E-12,-6.1846374E-12,5.096986E-36,False,False,0,None,6.1111653E32,1.0842106E-19,
