Tick#,offsetTime,IMU_ATTI(0):Longitude,IMU_ATTI(0):Latitude,IMU_ATTI(0):numSats,IMU_ATTI(0):barometer:Raw,IMU_ATTI(0):barometer:Smooth,IMU_ATTI(0):accel:X,IMU_ATTI(0):accel:Y,IMU_ATTI(0):accel:Z,IMU_ATTI(0):accel:Composite,IMU_ATTI(0):gyro:X,IMU_ATTI(0):gyro:Y,IMU_ATTI(0):gyro:Z,IMU_ATTI(0):gyro:Composite,IMU_ATTI(0):mag:X,IMU_ATTI(0):mag:Y,IMU_ATTI(0):mag:Z,IMU_ATTI(0):mag:Mod,IMU_ATTI(0):velN,IMU_ATTI(0):velE,IMU_ATTI(0):velD,IMU_ATTI(0):velComposite,IMU_ATTI(0):velH,IMU_ATTI(0):GPS-H,IMU_ATTI(0):roll,IMU_ATTI(0):pitch,IMU_ATTI(0):yaw,IMU_ATTI(0):yaw360,IMU_ATTI(0):totalGyro:Z,IMU_ATTI(0):totalGyro:X,IMU_ATTI(0):totalGyro:Y,IMU_ATTI(0):magYaw,IMU_ATTI(0):distanceHP,IMU_ATTI(0):distanceTravelled,IMU_ATTI(0):directionOfTravel[mag],IMU_ATTI(0):directionOfTravel[true],IMU_ATTI(0):temperature,General:relativeHeight,General:absoluteHeight,GPS(0):Long,GPS(0):Lat,GPS(0):Date,GPS(0):Time,GPS:dateTimeStamp,GPS(0):heightMSL,GPS(0):hDOP,GPS(0):pDOP,GPS(0):sAcc,GPS(0):numGPS,GPS(0):numGLNAS,GPS(0):numSV,GPS(0):velN,GPS(0):velE,GPS(0):velD,RC:Aileron,RC:Elevator,RC:Rudder,RC:Throttle,Controller:navHealth,Controller:ctrl_level,HP:Longitude,HP:Latitude,HP:rthHeight,BatBlackBox:tick,BatBlackBox:id,BatBlackBox:rsoc,BatBlackBox:index,BatBlackBox:rm,BatBlackBox:fcc,BatBlackBox:cell_min,BatBlackBox:cell_max,BatBlackBox:current,BatBlackBox:voltage,BatBlackBox:temp,BatBlackBox:flag,BatBlackBox:reserve,BatBlackBox:user_data,OA:avoidObst,OA:emergBrake,OA:radiusLimit,OA:airportLimit,OA:groundForceLanding,OA:horizNearBoundary,OA:vertLowLimit,OA:vertAirportLimit,OA:roofLimit,OA:hitGroundLimit,Motor:Speed:RFront,Motor:Speed:LFront,Motor:Speed:LBack,Motor:Speed:RBack,Motor:EscTemp:RFront,Motor:EscTemp:LFront,Motor:EscTemp:LBack,Motor:EscTemp:RBack,Motor:PPMrecv:RFront,Motor:PPMrecv:LFront,Motor:PPMrecv:LBack,Motor:PPMrecv:RBack,Motor:PPMsend:RFront,Motor:PPMsend:LFront,Motor:PPMsend:LBack,Motor:PPMsend:RBack,Motor:V_out:RFront,Motor:V_out:LFront,Motor:V_out:LBack,Motor:V_out:RBack,Motor:Volts:RFront,Motor:Volts:LFront,Motor:Volts:LBack,Motor:Volts:RBack,Motor:Current:RFront,Motor:Current:LFront,Motor:Current:LBack,Motor:Current:RBack,Motor:Status:RFront,Motor:Status:LFront,Motor:Status:LBack,Motor:Status:RBack,Motor:thrustAngle,IMU_ATTI(1):Longitude,IMU_ATTI(1):Latitude,IMU_ATTI(1):numSats,IMU_ATTI(1):barometer:Raw,IMU_ATTI(1):barometer:Smooth,IMU_ATTI(1):accel:X,IMU_ATTI(1):accel:Y,IMU_ATTI(1):accel:Z,IMU_ATTI(1):accel:Composite,IMU_ATTI(1):gyro:X,IMU_ATTI(1):gyro:Y,IMU_ATTI(1):gyro:Z,IMU_ATTI(1):gyro:Composite,IMU_ATTI(1):mag:X,IMU_ATTI(1):mag:Y,IMU_ATTI(1):mag:Z,IMU_ATTI(1):mag:Mod,IMU_ATTI(1):velN,IMU_ATTI(1):velE,IMU_ATTI(1):velD,IMU_ATTI(1):velComposite,IMU_ATTI(1):velH,IMU_ATTI(1):GPS-H,IMU_ATTI(1):roll,IMU_ATTI(1):pitch,IMU_ATTI(1):yaw,IMU_ATTI(1):yaw360,IMU_ATTI(1):totalGyro:Z,IMU_ATTI(1):totalGyro:X,IMU_ATTI(1):totalGyro:Y,IMU_ATTI(1):magYaw,IMU_ATTI(1):distanceHP,IMU_ATTI(1):distanceTravelled,IMU_ATTI(1):directionOfTravel[mag],IMU_ATTI(1):directionOfTravel[true],IMU_ATTI(1):temperature,IMUEX(0):err,IMUEX(0):rtk_Longitude,IMUEX(0):rtk_Latitude,IMUEX(0):rtk_Alti,IMUEX(1):err,IMUEX(1):rtk_Longitude,IMUEX(1):rtk_Latitude,IMUEX(1):rtk_Alti,MotorCtrl:Status,MotorCtrl:PWM:RFront,MotorCtrl:PWM:LFront,MotorCtrl:PWM:LBack,MotorCtrl:PWM:RBack,BattInfo:Voltage,BattInfo:BatVoltage,BattInfo:AdVoltage,BattInfo:AvgCurrent,BattInfo:R_time,BattInfo:R_CAP_MAH,BattInfo:LowCellVoltage,BattInfo:LowCellVolThreshold,BattInfo:BatCurrent,BattInfo:Remaining%,BattInfo:Temp,BattInfo:status,battery_info:BatDynCnt,battery_info:Vol1Protect,battery_info:Vol2Protect,battery_info:Cap1Protect,battery_info:Cap2Protect,battery_info:Batpresent,battery_info:sopPercentage,battery_info:sopValue,battery_info:sopScale,battery_info:sopFlg,BattInfo:WindHeading:WindDir,battery_info:home_dir,BattInfo:Wind:rangeMin,BattInfo:Wind:rangeMax,battery_info:cap_speed,battery_info:against_wind,battery_info:emergency_land_cap,battery_info:intel_bat_land_cap,battery_info:intel_bat_gh_cap,BattInfo:Smart:SmartGh,BattInfo:Smart:SmartLand,BattInfo:GoHome:CntDown,BattInfo:GoHome:GhCmd,BattInfo:GoHome:CapLevel,BattInfo:GoHome:LandCapLv,Attribute|Value,ConvertDatV3,3.6.6-Tablet
3083912631,.000,9.133496850702503,62.69230503910955,15,697.6015,697.419,0.17604613,0.019221257,-0.9850486,1.0008409,0.27157348,-0.08552748,-0.19803618,0.3468219,148,177,1467,1485.0,0.0043346398,0.001549516,-0.008049735,0.009272989,0.004603270838855545,-0.004603270838855545,-1.0984489420472467,10.165979921002025,-34.00662102306325,325.99337897693675,767.3541146208279,649.821420435847,-14.85823424738202,-26.91712561931975,1.4371100360137343,35.57779909964269,-174.33411306804632,-171.81517113641453,65.0,0.1312864648436971,,9.1334964,62.6923055,20190821,112948,2019-08-21T11:29:48Z,784.794,0.81,1.47,8.0,8,7,15,0.0,0.0,-0.01,-9984,-9893,9926,-9626,5,5,9.133491225364322,62.69229237515141,120,,,,,,,,,,,,,,,false,false,false,false,false,false,false,false,false,false,0,0,0,0,52,67,67,52,944,945,945,945,940,940,940,940,0.0,0.0,0.0,0.0,1628.8,1625.1,1623.9,1627.6,0.0,0.0,0.01,0.0,0,0,0,0,-45.0,9.133496865678365,62.692304643655476,0,697.51166,696.8532,0.1758432,0.0185505,-0.9850634,1.000807,0.2274307,-0.025363548,-0.08886794,0.24549042,145,177,1467,1484.0,-0.001005734,4.957711E-4,-0.0017053543,0.0020409613,0.0011212893452765568,-0.0011212893452765568,-1.3113625925914691,10.186817633161862,-34.859504457613966,325.140495542386,766.8241694812341,638.1682213666959,-18.99384844345802,-27.677286139052946,1.3942082304001264,39.482117297632435,-2.547866810773128,-0.028924879141330948,64.97,NONE,0.0,0.0,0.0,NONE,-2.6840791037591887E-11,-2.783971530014903E-11,0.0,,,,,,16.393,16.393,5.85,1.4238586,0,2598,4.094,12.0,1.434,77,32.5,OK,771,0,0,0,0,0,65,100,0.0,0,0.0,0.005160451,2.69E-43,0.0,-1.05007105E-23,62,4.0927678E-13,-4.092786E-13,1.49706235E-36,False,False,0,None,3.3888262E33,1.0842437E-19,Firmware Date| Oct 17 2018
3087824751,1.017,9.133496416931939,62.69230564855634,15,697.51373,697.4493,0.17400265,0.019602299,-0.9853794,1.0008166,0.5946854,0.14089891,-1.1116295,1.2685517,139,171,1458,1474.0,0.0021702063,-2.4019042E-4,-0.011778888,0.011979553,0.002183457497568117,0.06793122254691344,-1.0901733110046548,10.15187672644672,-34.00927062475838,325.99072937524164,767.2456091868262,649.9984822114122,-14.731692891303323,-26.811064668557826,1.4995076688351008,35.670641763654224,-11.12906096556822,-8.610119033936423,64.99,0.8272099101562844,,9.1334963,62.6923058,20190821,112949,2019-08-21T11:29:49Z,784.83,0.81,1.47,8.07,8,7,15,-0.01,0.01,-0.02,0,0,0,0,5,5,9.133491225364322,62.69229237515141,120,,,,,,,,,,,,,,,false,false,false,false,false,false,false,false,false,false,535,515,527,533,56,73,72,57,1350,1361,1357,1353,1342,1342,1342,1342,0.1,0.1,0.1,0.1,1604.9,1601.2,1601.8,1606.7,7.5,7.01,7.53,7.09,0,0,0,0,-68.9624889745782,9.133496569693863,62.69230519371539,0,697.51373,696.8533,0.1763386,0.017877724,-0.98544925,1.0012617,-0.14474684,0.60598254,0.5993322,0.8645031,139,171,1455,1471.0,-0.0019752611,-5.4000027E-4,-0.0012058014,0.0023763867,0.002047744406618816,0.05991483972891387,-1.3081784850500238,10.188946929292158,-34.860127530596124,325.1398724694039,766.4076545923373,638.4441455157075,-18.981099111863102,-27.427220979644726,1.4511980311904449,39.57296410647232,-14.186651931808969,-11.667710000177172,65.0,NONE,0.0,0.0,0.0,NONE,-3.7343710111837126E-11,-1.06005069795707E-10,0.0,1,23.43,23.43,23.43,23.43,16.279,16.279,5.761,1.4697505,0,2597,4.094,12.0,3.576,76,32.5,OK,772,0,0,0,0,0,65,100,0.0,0,0.0,0.025777817,2.69E-43,0.0,-1.05007105E-23,62,4.0927678E-13,-4.092786E-13,1.909777E-36,False,False,0,None,4.7465592E33,1.0842437E-19,ACType|MavicEnterprise
3091798956,2.050,9.133496739381375,62.69230598554736,16,697.51373,697.4488,0.17224523,0.012616287,-0.9836642,0.99871063,1.2662222,-0.43803543,-0.26001996,1.3648459,142,177,1464,1481.0,-0.01152806,-0.008412516,-0.0022248568,0.014443566,0.014271180657952619,0.025349256132090027,-1.0523573098959464,10.06514057656797,-33.979314346259336,326.02068565374066,767.8912332940445,650.8100600566559,-14.336225784688983,-27.294358148120054,1.5393252214531248,35.73135273106797,50.836296775083895,53.35523870671569,64.98,0.8272099101562844,,9.1334963,62.6923061,20190821,112950,2019-08-21T11:29:50Z,784.841,0.75,1.4,8.16,9,7,16,0.0,0.0,-0.01,0,0,0,0,5,5,9.133491225364322,62.69229237515141,120,,,,,,,,,,,,,,,false,false,false,false,false,false,false,false,false,false,1987,1994,2174,2164,56,72,73,56,1205,1208,1222,1222,1200,1201,1215,1213,0.0,0.0,0.0,0.0,1619.6,1615.9,1615.3,1620.2,0.48,0.14,0.8,0.22,0,0,0,0,2.7263109939062815,9.133496639905418,62.69230550011064,0,697.51373,696.8552,0.17952317,0.015899833,-0.98106426,0.99748105,1.0404868,-1.3129079,4.7979207,5.0819664,139,180,1464,1481.0,-0.008425014,-0.0023094513,-6.006837E-4,0.00875644,0.008735812906260293,0.024431072110819227,-1.2322726869104708,10.075386889258592,-34.82194171233869,325.1780582876613,763.8698632520927,638.6931108109075,-20.187141481731476,-28.327656251500418,1.485336685301684,39.66243978246162,-43.61619769813707,-41.09725576650528,64.98,NONE,0.0,0.0,0.0,NONE,-2.52070045599524E-10,-9.85097618105598E-11,0.0,2,10.0,10.31,12.0,11.76,16.275,16.275,5.831,1.6320747,0,2596,4.046,12.0,3.91,76,32.5,OK,773,0,0,0,0,0,65,100,0.0,0,0.0,0.01627016,2.69E-43,0.0,-1.05007105E-23,62,4.0927678E-13,-4.092786E-13,2.1167743E-36,False,False,0,None,5.6383514E33,1.0842437E-19,dateTime|2019-8-21 11:24:55 GMT
3095762139,3.080,9.133496747751494,62.692306106548884,16,697.51373,697.45624,0.06374552,-0.01118261,-1.0585448,1.0605214,-2.938609,-57.948746,-20.682936,61.599323,218,186,1458,1485.0,-0.022299752,0.02862993,-0.0872222,0.09447044,0.03628983081562733,-0.023220555914668206,-0.7705115614303923,5.559626829367961,-34.717679468303615,325.28232053169637,767.0089162739921,651.1625625877435,-18.43377687701374,-29.86946809813888,1.552632797049849,35.7757804177833,-23.937408091526734,-21.418466159894937,64.98,0.8272099101562844,,9.1334962,62.6923064,20190821,112951,2019-08-21T11:29:51Z,784.927,0.75,1.4,8.2,9,7,16,-0.01,0.0,-0.02,0,0,0,10000,5,5,9.133491225364322,62.69229237515141,120,,,,,,,,,,,,,,,false,false,false,false,false,false,false,false,false,false,5167,4970,4593,4439,54,71,71,54,1549,1526,1454,1427,1548,1534,1450,1404,0.0,0.0,0.0,0.0,1585.8,1582.8,1582.2,1587.0,5.58,4.42,3.24,1.78,0,0,0,0,-177.77151489273015,9.13349683652651,62.69230577422511,0,697.51373,696.8651,0.015714306,0.0025845142,-1.0322448,1.0323677,6.627969,-71.91535,-15.98098,73.967155,238,189,1458,1489.0,-0.05455703,0.03034992,-0.109905064,0.12639901,0.062430658095534844,-0.03127761276701892,-0.8327131913075647,3.2746256423704376,-36.02252046806871,323.9774795319313,763.4556394723761,640.1303793107764,-27.991989844187238,-33.236235166949946,1.5171561526268362,39.741182559031714,53.22013160106113,55.73907353269292,64.98,NONE,0.0,0.0,0.0,NONE,2.812448215220568E-10,-1.6917980824589207E-10,-6.1035156E-5,2,50.02,48.94,40.83,36.94,16.307,16.307,5.754,1.8770603,0,2596,4.075,12.0,2.147,76,32.5,OK,774,0,0,0,0,0,65,100,0.0,0,0.0,0.02522564,2.69E-43,0.0,-1.05007105E-23,62,4.0927678E-13,-4.092786E-13,2.411658E-36,False,False,0,None,7.543789E33,1.0842437E-19,geoDeclination|252 degrees
3099611565,4.080,9.133497015829871,62.692306868986364,16,697.9563,697.6581,0.017597703,0.011515233,-1.0429405,1.0431526,0.5867642,-0.79488504,0.57661927,1.1439512,413,195,1416,1487.0,-0.035809126,0.024639156,-0.11778867,0.12555298,0.043467015555334554,0.04236954280518697,-1.3193637988730356,0.3891854247375531,-35.22140129301731,324.7785987069827,764.824895617558,652.1015101562878,-24.642598894293123,-28.301940841750092,0.07502871463047404,35.86838561811182,33.21841981438385,35.737361746015644,64.99,1.2697758281250344,,9.1334967,62.6923067,20190821,112952,2019-08-21T11:29:52Z,785.178,0.75,1.4,8.28,9,7,16,0.08,0.03,-0.21,0,0,0,7978,5,5,9.133497136064141,62.69230619649532,120,,,,,,,,,,,,,,,false,true,false,false,false,false,true,false,false,false,6124,6049,4773,5102,54,71,71,54,1638,1639,1492,1513,1633,1641,1488,1508,0.0,0.0,0.0,0.0,1566.8,1563.8,1563.8,1568.7,5.97,5.38,4.13,3.63,0,0,0,0,-170.0290054028992,9.133497321626145,62.69230582011184,0,698.0831,697.1844,0.011434935,0.0111824395,-1.1078883,1.1080039,10.923441,-0.04134994,6.0012245,12.463466,416,195,1413,1485.0,0.013936538,0.016013648,-0.22132784,0.22234361,0.021228848891678594,0.0040266466005105216,-1.3753731853421702,0.30115855083007387,-36.10198821668813,323.89801178331186,762.5255501807337,637.2824550284586,-31.943845742959077,-28.392751303047238,0.042909091334126806,39.89808339870166,-176.5332674336602,-174.0143255020284,64.99,NONE,0.0,0.0,0.0,NONE,1.2148375548791966E-9,1.3159618731424626E-9,-7.324219E-4,2,66.82,68.4,49.28,50.74,16.231,16.231,5.691,2.183758,0,2594,4.081,12.0,6.752,76,32.5,OK,775,0,0,0,0,0,65,100,0.0,0,0.0,-2.05357986E17,2.68E-43,0.0,-1.05007105E-23,62,5.8238137E-13,-4.730974E-13,6.875559E-39,False,False,0,None,2.2815332E29,1.3281958E-19,geoInclination|7435 degrees
3103495164,5.089,9.133497188778298,62.692308264978124,16,698.70905,698.3296,0.010870003,0.0072224084,-0.84956187,0.84966207,2.8321562,-1.3884511,2.4840794,4.014917,413,214,1428,1501.0,0.0618648,-0.007255111,-1.2470822,1.2486368,0.06228876553207144,0.09175175948678799,-0.7806206698169128,1.033528818146921,-35.29528121401019,324.7047187859898,765.705445837874,653.510706296836,-23.555572321664496,-28.021239264680496,0.23002051331101345,36.135811866367725,-22.74265701762937,-20.223715085997572,64.98,2.0225224101562844,,9.1334964,62.6923081,20190821,112953,2019-08-21T11:29:53Z,785.687,0.75,1.4,8.36,9,7,16,-0.06,-0.04,-0.51,0,8788,0,148,5,5,9.133497136064141,62.69230619649532,120,,,,,,,,,,,,,,,false,true,false,false,false,false,true,false,false,false,5490,5563,4328,4595,54,72,74,54,1523,1522,1398,1431,1511,1504,1392,1421,0.0,0.0,0.0,0.0,1595.7,1591.4,1590.2,1595.0,3.1,2.58,1.82,1.58,0,0,0,0,-174.79586980899978,9.133497183668174,62.6923078587487,0,698.80145,697.9242,0.01011639,0.008516032,-0.80998284,0.8100908,3.4142346,4.001388,3.0746875,6.0927672,410,214,1428,1501.0,0.059756957,-0.0071661514,-1.2404166,1.2418759,0.06018511308856936,0.16451374302015787,-0.9925506954626316,1.1737501667032635,-36.19701950222557,323.80298049777446,763.873843924075,639.9252049235225,-31.14416801352706,-28.530266502073665,0.18485009487348045,40.13825649120204,-6.35338227646598,-3.8344403448341824,64.92,NONE,0.0,0.0,0.0,NONE,-4.901361661290759E-10,1.4444527121638073E-9,-0.0034179688,2,46.6,45.58,32.25,35.15,16.04,16.04,5.657,2.6870108,0,2592,4.081,12.0,8.348,76,32.5,OK,776,0,0,0,0,0,65,100,0.0,0,0.0,919.3281,2.69E-43,0.0,-1.05007105E-23,62,1.1792511E-12,-7.040932E-13,2.2314685E-38,False,False,0,None,1.2037226E30,1.8437609E-19,geoIntensity|5166003 nanoTesla
3107396690,6.103,9.13349387217063,62.69231034372434,16,699.45935,699.00903,-0.0076583223,0.009545271,-1.4254925,1.425545,-10.029007,5.976486,-8.042898,14.177009,685,214,1314,1497.0,0.811213,-0.56090593,-0.88664925,1.3262085,0.9862464191096173,-0.7037484682372308,-0.6517169403067815,-10.392661871995449,-35.372166995894354,324.62783300410564,764.0975225525062,654.1349888370436,-35.15605785742037,-27.639081700794343,0.49028809490867103,36.48007836311949,-37.59939917546521,-35.08045724383341,64.96,2.7728275859375344,,9.1334945,62.69231,20190821,112954,2019-08-21T11:29:54Z,786.467,0.75,1.4,8.36,9,7,16,0.35,-0.26,-0.57,0,5822,0,8802,5,5,9.133497136064141,62.69230619649532,120,,,,,,,,,,,,,,,false,false,false,false,false,false,true,false,false,false,6985,7044,5687,5910,53,71,72,54,1715,1723,1591,1607,1720,1729,1559,1574,0.0,0.0,0.0,0.0,1547.2,1542.9,1541.7,1546.0,6.86,6.26,5.12,4.59,0,0,0,0,-176.14214496938447,9.133493661107876,62.69231021191319,0,699.54047,698.5782,-0.015868617,0.0140605485,-1.4575405,1.4576948,14.144942,21.608875,10.123507,27.740013,685,217,1314,1497.0,0.846221,-0.5943766,-1.0532949,1.4760772,1.0341052207756705,-0.7210628945103292,-0.7572510471096885,-9.70307098086158,-36.232789477510636,323.76721052248934,763.9995354685096,640.9482411820449,-43.41587551301625,-27.289726285219572,0.4803963107849127,40.51635939115091,-30.71335132855031,-28.194409396918513,64.93,NONE,0.0,0.0,0.0,NONE,-9.695359482271495E-9,7.458364982230667E-9,-0.0010375977,2,76.14,77.22,56.05,58.64,16.022,16.022,5.623,3.4064984,0,2590,4.005,12.0,7.054,76,32.6,OK,777,0,0,0,0,0,65,100,0.0,0,0.0,1.3092067E-6,9.0E-44,0.0,-1.05007105E-23,62,2.3955837E-12,-9.627094E-13,6.3110015E-38,False,False,0,None,8.126767E30,2.554946E-19,
3111249170,7.105,9.133485494896687,62.692317483187594,16,703.11743,702.3058,0.0036363213,0.004005025,-1.0158104,1.0158248,-1.2097956,8.012249,-1.3534726,8.215329,635,226,1341,1500.0,0.7243634,-0.5001184,-4.062043,4.1563225,0.8802389933345703,0.02022933547906014,-0.558479083566423,-8.548199020620116,-34.98031516288101,325.019684837119,765.524203228006,656.5554123505038,-36.45227616041899,-29.131301372278756,1.3884300838695434,37.393067596402105,-34.62624052116314,-32.10729858953134,64.97,6.430908640625034,,9.1334855,62.6923166,20190821,112955,2019-08-21T11:29:55Z,789.15,0.75,1.4,8.31,9,7,16,0.3,-0.24,-2.35,0,10000,0,10000,5,5,9.133497136064141,62.69230619649532,120,,,,,,,,,,,,,,,false,false,false,false,false,false,true,false,false,false,6396,6350,5210,5406,55,71,72,54,1631,1640,1519,1532,1627,1625,1505,1523,0.0,0.0,0.0,0.0,1565.6,1560.7,1560.1,1565.6,5.14,4.54,3.74,3.26,0,0,0,0,-173.51813342349388,9.133484937147337,62.692316996003136,0,702.6186,701.5749,2.4463166E-4,0.007699173,-1.021448,1.0214771,-1.4777068,5.509766,-2.8042135,6.3564734,638,214,1347,1505.0,0.6891446,-0.49014565,-4.081647,4.1683335,0.8456731354856093,0.0290872741007846,-0.7728221858711704,-8.753251679307091,-36.376308603921736,323.62369139607824,765.2799435757503,643.1287209097068,-39.153998220475486,-28.585844023002423,1.3525160675065955,41.40965851712652,-39.590653726670354,-37.07171179503855,65.0,NONE,0.0,0.0,0.0,NONE,-1.9049954473657784E-8,1.2803449777369187E-8,-0.010131836,2,63.57,63.11,47.27,49.95,16.012,16.012,5.624,4.314597,0,2587,3.956,12.0,13.41,76,32.6,OK,778,0,0,0,0,0,65,100,0.0,0,0.0,2.9501956E-12,9.0E-44,0.0,-1.05007105E-23,62,4.451639E-11,-4.2375283E-12,2.8045762E-36,False,False,0,None,1.00827344E34,9.976262E-19,
3115165497,8.122,9.133467021968283,62.69232913790754,17,707.06573,706.39014,-0.01632307,0.04534262,-1.0381007,1.0392187,-2.818948,2.8587313,13.173936,13.772123,723,186,1296,1495.0,1.807062,-1.1638452,-3.9989493,4.5400004,2.149420496000708,-0.5751544086990146,-1.2733574478354583,-11.814598858712056,-31.7555525111569,328.2444474888431,766.9818016481875,654.6240986318121,-40.35218395077416,-25.850407838662424,2.977811341572424,39.002222478541526,-33.58437406825366,-31.06543213662186,64.97,10.379211863281284,,9.1334718,62.6923261,20190821,112957,2019-08-21T11:29:57Z,793.222,0.74,1.3,8.18,10,7,17,1.37,-0.91,-3.57,0,9921,4836,10000,5,5,9.133497136064141,62.69230619649532,120,,,,,,,,,,,,,,,false,false,false,false,false,false,true,false,false,false,6396,5900,5147,5605,56,72,72,55,1637,1589,1517,1544,1629,1596,1504,1527,0.0,0.0,0.0,0.0,1567.5,1564.4,1563.2,1568.1,5.57,3.54,3.8,3.94,0,0,0,0,-148.2890908137718,9.13346878916635,62.69232781130228,0,706.6291,705.6622,-0.0217467,0.03553762,-1.0064334,1.0072954,17.960682,-8.614926,20.112673,28.307642,697,198,1311,1497.0,1.7827789,-1.2056246,-4.0203333,4.5601435,2.152168945303416,-0.7200323673573525,-1.6924769230011631,-11.488058399292633,-34.15215360817262,325.8478463918274,766.3474618320613,641.0110474138093,-42.45700228803172,-29.211254881461386,2.8049376232559404,42.876363554600715,-32.232401613796895,-29.713459682165098,64.98,NONE,0.0,0.0,0.0,NONE,-6.322286184489367E-8,4.333887924257242E-8,-0.010070801,2,64.35,56.91,48.33,54.58,15.745,15.745,5.627,5.41762,0,2584,3.997,12.0,9.307,76,32.6,OK,779,0,0,0,0,0,65,100,0.0,0,0.0,3.0765863E-15,9.0E-44,0.0,-1.05007105E-23,62,3.1531044E-9,-3.6275215E-11,7.738576E-34,False,False,0,None,NaN,7.1835284E-18,
3119062555,9.135,9.13343739456796,62.69235571778083,17,711.3972,710.36584,-0.060950823,0.080654755,-0.6932422,0.7005747,-13.678547,0.31200138,-12.351602,18.432636,1076,-3,1053,1505.0,4.43611,-1.745419,-3.5542235,5.9462647,4.767133230214899,-1.4896123391522686,-2.845383654174985,-25.42686014374187,-8.342170681682607,351.6578293183174,788.4237338815755,657.7893730163763,-54.93385699488452,-5.411660471181101,6.293603043063449,42.32650046603915,-24.969876471557804,-22.450934539926006,64.96,14.710693796875034,,9.1334455,62.6923479,20190821,112957,2019-08-21T11:29:57Z,797.142,0.74,1.3,8.07,10,7,17,3.31,-1.65,-3.81,0,8723,0,6674,5,5,9.133497136064141,62.69230619649532,120,,,,,,,,,,,,,,,false,false,false,false,false,false,false,false,false,false,5260,5157,4407,5036,55,71,71,55,1490,1501,1440,1485,1479,1478,1431,1481,0.0,0.0,0.0,0.0,1588.3,1585.2,1585.2,1589.5,2.76,2.52,2.44,2.0,0,0,0,0,-143.0736718607348,9.133436477040018,62.69235655701118,0,711.43134,710.0365,-0.058362585,0.07565627,-0.6510522,0.6580266,-15.777641,-1.185285,-13.083014,20.530565,1076,-6,1053,1505.0,4.5589027,-1.8979236,-3.4366055,6.0163083,4.938188722115084,-1.3873769432020553,-3.003956196605004,-24.98438256541465,-9.882286591569246,350.11771340843075,787.934456698024,646.919774679487,-60.092811540669246,-5.292320840282114,6.397916940759948,46.48106742113894,-24.950026053852447,-22.43108412222065,64.97,NONE,0.0,0.0,0.0,NONE,-9.470827158298322E-8,8.812537719769267E-8,-0.009887695,2,47.85,47.77,36.98,42.26,15.849,15.849,5.607,6.5193734,0,2582,3.926,12.0,9.281,76,32.7,OK,780,0,0,0,0,0,65,100,0.0,0,0.0,1.0728397E-14,9.0E-44,0.0,-1.2335205,63,2.0740845E-7,-2.956871E-10,6.259775E-29,False,False,0,None,-1.7257726E-34,5.1791198E-17,
3122910304,10.135,9.133408250374123,62.69240498356606,17,713.5113,713.79126,-0.12614678,0.10923351,-1.1735395,1.1853439,3.619704,-0.9884421,7.69573,8.5617485,-176,14,1473,1483.0,4.8457875,-1.1609321,-4.06083,6.4280453,4.982912811772014,0.6932796879945151,0.7274099123334332,25.21108356711458,-8.201791472957451,351.79820852704256,789.0121447268053,659.00326591443,-6.328642548949596,0.5752856379037453,11.883676077676938,48.009307758176554,-13.56036860941321,-11.041426677781413,64.93,16.824768503906284,,9.1334149,62.6923947,20190821,112958,2019-08-21T11:29:58Z,800.365,0.74,1.3,7.88,10,7,17,6.37,-1.44,-3.52,0,0,0,10000,5,5,9.133497136064141,62.69230619649532,120,,,,,,,,,,,,,,,false,false,false,false,false,false,false,false,false,false,5758,5532,5313,5866,56,73,73,56,1560,1576,1533,1580,1556,1556,1532,1567,0.0,0.0,0.0,0.0,1569.3,1563.2,1563.2,1568.1,4.35,4.14,3.66,3.64,0,0,0,0,-98.10950717908577,9.133408276744037,62.69240619295497,0,714.2442,713.4702,-0.12753083,0.11157989,-1.1409334,1.1534483,26.973995,1.9050251,13.904948,30.406796,-181,17,1470,1481.0,4.9701395,-1.2338219,-4.0869303,6.5519156,5.120996167310172,0.5825945644734176,1.1916258290578308,25.07599072907718,-9.417298305060893,350.5827016949391,792.1160179096761,655.3281808206349,0.36332465842040873,1.6936093472799039,12.007581817848761,52.190541573883074,-15.047201712906567,-12.52825978127477,64.95,NONE,0.0,0.0,0.0,NONE,-6.23173656513966E-8,1.1381702680967581E-7,-0.010192871,2,57.65,55.88,49.17,55.04,15.809,15.809,5.563,6.5193734,0,2582,3.958,12.0,9.281,76,32.7,OK,780,0,0,0,0,0,65,100,0.0,0,0.0,3.1706548E-10,9.0E-44,0.0,-1.2335205,63,7.124967E-6,-1.7079532E-9,9.169972E-21,False,False,0,None,-7.6012665E-27,2.8119633E-16,
3126765366,11.137,9.133402364289225,62.69243064732235,17,717.42786,717.08405,-0.019225208,0.07530339,-0.55412585,0.5595495,-1.6398441,-22.325806,-2.3277042,22.506641,-143,-190,1452,1471.0,1.2417126,0.061672375,-1.5688671,2.0017486,1.2432431707511056,1.6207100172564293,-7.6229103158481095,22.7547038485944,-5.978335755732262,354.02166424426775,784.9131206212672,649.8979886701842,-9.228164048956476,-0.5657633181555027,14.658497209808386,50.8919263881654,-2.249098584073086,0.26984334755871137,64.95,20.741333445312534,,9.1334007,62.692428,20190821,112959,2019-08-21T11:29:59Z,803.963,0.74,1.3,7.71,10,7,17,2.1,-0.18,-3.58,0,0,0,0,5,5,9.133497136064141,62.69230619649532,120,,,,,,,,,,,,,,,false,false,false,false,false,false,false,false,false,false,4541,4080,3720,4203,55,73,73,55,1452,1405,1328,1393,1442,1405,1335,1381,0.0,0.0,0.0,0.0,1594.4,1590.8,1590.2,1594.4,3.0,1.48,1.47,1.73,0,0,0,0,-126.47947248265476,9.13340305631598,62.69243061726518,0,717.5442,716.58105,-0.027107177,0.075920165,-0.5773941,0.5829945,-6.3637457,-23.934023,-1.3930109,24.80474,-135,-197,1452,1471.0,1.2501022,0.1979692,-1.4030712,1.8895916,1.2656805709130048,1.4579928155029254,-7.564608176026703,21.57723363935291,-7.522602125347217,352.4773978746528,791.2585151333118,649.9588206289665,-3.4025816976873164,0.5736308952084561,14.643734374971428,54.94164472103826,10.407729049688164,12.926670981319962,64.91,NONE,0.0,0.0,0.0,NONE,4.527929957824155E-9,4.0937106669357535E-8,-0.0059814453,2,39.56,34.16,28.25,35.45,15.692,15.692,5.712,7.471635,0,2580,3.942,12.0,10.44,76,32.7,OK,781,0,0,0,0,0,65,100,0.0,0,0.0,7.974813E-8,9.0E-44,0.0,-1.2335205,63,2.5768578E-4,-1.0637737E-8,3.523878E-16,False,False,0,None,-1.5229494E-22,1.5053132E-15,
3130647778,12.146,9.133401531200667,62.692432205717196,17,718.0842,717.3526,0.008967697,0.091386504,-1.0144556,1.018603,-8.224687,-10.985148,-12.062863,18.271059,451,-123,1404,1479.0,0.011675477,-0.021354396,0.05727587,0.062232245,0.0243377685546875,0.15248778863496507,-6.108046200261589,1.7636097495927245,-7.587024210263517,352.4129757897365,784.3590390584645,652.8596305740721,-30.503227682344708,-3.137766856642407,14.836112988887827,51.260278821040906,170.00287813565527,172.52182006728705,65.0,21.397705515625034,,9.1334017,62.6924321,20190821,113001,2019-08-21T11:30:01Z,804.498,0.74,1.3,7.54,10,7,17,-0.12,0.02,-0.77,0,0,0,0,5,5,9.133497136064141,62.69230619649532,120,,,,,,,,,,,,,,,false,false,false,false,false,false,false,false,false,false,6311,5710,4574,5151,55,73,73,55,1629,1573,1449,1512,1622,1563,1445,1506,0.0,0.0,0.0,0.0,1570.5,1565.6,1565.6,1569.9,5.52,3.78,2.75,3.06,0,0,0,0,-152.83917362887735,9.13340237574558,62.69243146266226,0,718.15717,716.8375,0.006761982,0.10393484,-1.0417618,1.0469555,6.205991,-4.479167,1.6230762,7.8237863,454,-123,1398,1475.0,-0.041963816,0.11829066,0.06862407,0.14304861,0.12551351953965612,-0.026199494925793987,-5.558493026462829,1.7636175719746285,-9.08695418378858,350.9130458162114,788.9754630713323,652.5808301375585,-22.856241591159133,-1.497416050735079,14.743924698599375,55.3617649831211,147.3075637732729,149.8265057049047,65.01,NONE,0.0,0.0,0.0,NONE,7.35671925404052E-9,-3.0837741871785703E-10,1.8310547E-4,2,64.03,55.61,38.77,47.84,15.959,15.959,5.642,8.257626,0,2576,3.905,12.0,8.452,76,32.7,OK,782,0,0,0,0,0,65,100,0.0,0,0.0,9.2162736E-8,9.0E-44,0.0,-1.2335205,63,4.5983493E-4,-1.3722061E-8,8.842653E-16,False,False,0,None,-3.7121669E-22,1.9226837E-15,
3134497585,13.147,9.133402267635791,62.69242879522134,17,717.91547,717.1707,0.0068914834,0.11381585,-1.0338337,1.0401028,5.1855397,-3.8310869,10.496853,12.318725,542,-74,1377,1481.0,-0.21332249,0.040719703,0.033871237,0.21979953,0.21717407301694727,0.16370341394743146,-5.025582041222374,-2.032162734069783,-7.591018045663229,352.40898195433675,784.7941642302071,654.3400769234586,-35.6543997794402,-5.437823098401343,14.46588458600625,51.64251464523712,176.14375890122002,178.6627008328518,65.09,21.228943308593784,,9.133402,62.6924289,20190821,113002,2019-08-21T11:30:02Z,804.258,0.74,1.3,7.41,10,7,17,-0.29,0.03,-0.09,0,0,0,0,5,5,9.133497136064141,62.69230619649532,120,,,,,,,,,,,,,,,false,false,false,false,false,false,false,false,false,false,6215,5779,4255,5068,56,73,73,56,1608,1576,1439,1493,1607,1580,1403,1487,0.0,0.0,0.0,0.0,1571.7,1568.7,1567.5,1571.7,4.56,3.66,3.02,2.94,0,0,0,0,-154.9384982777273,9.133401984267916,62.69242809378792,0,717.99396,716.73895,0.007997273,0.10842795,-1.0244138,1.0301671,6.0250874,1.6395345,5.06043,8.03727,548,-77,1371,1478.0,-0.13712096,0.12547803,-0.016820652,0.18662752,0.1858679553212441,0.18906040653342734,-4.833925726048318,-2.2935775140619787,-9.057610341293728,350.94238965870625,788.2701091107356,652.2404760539428,-28.31794531519746,-4.503971070410691,14.39727365511417,55.74128356818644,172.14248982442302,174.6614317560548,65.08,NONE,0.0,0.0,0.0,NONE,5.097421821231843E-9,-3.760491342322839E-9,1.2207031E-4,2,60.95,55.32,38.16,47.3,15.877,15.877,5.636,8.785008,0,2575,4.002,12.0,6.846,76,32.7,OK,783,0,0,0,0,0,65,100,0.0,0,0.0,4.615049E-8,9.0E-44,0.0,-1.2335205,63,4.2834133E-4,-1.324162E-8,3.3617899E-16,False,False,0,None,-1.4505711E-22,1.815456E-15,
3138386034,14.157,9.133403652945663,62.6924271446305,17,717.82227,717.11694,0.009968861,0.10083813,-1.0132599,1.018314,-5.3343554,1.7955062,-4.156434,6.996794,521,-108,1380,1479.0,0.032594904,0.070139006,-0.016904777,0.07916868,0.07734279355026101,0.1172683583052352,-5.894395276854291,-0.40939390424951394,-7.618088412005005,352.381911587995,785.1229125235417,652.9186702531301,-33.423568895782,-3.8383099525093884,14.26928196728733,51.84653547656003,100.83580676457765,103.35474869620946,65.1,21.135742625000034,,9.1334037,62.6924275,20190821,113003,2019-08-21T11:30:03Z,804.105,0.74,1.3,7.34,10,7,17,0.01,0.07,-0.01,0,0,0,0,5,5,9.133497136064141,62.69230619649532,120,,,,,,,,,,,,,,,false,false,false,false,false,false,false,false,false,false,6168,5759,4300,5003,55,75,73,56,1609,1582,1456,1489,1610,1548,1413,1508,0.0,0.0,0.0,0.0,1571.7,1566.8,1566.2,1571.7,4.59,3.52,3.26,2.72,0,0,0,0,-157.03371693973034,9.13340335903762,62.692426448013215,0,717.5606,716.64825,0.0110075325,0.11141864,-1.00647,1.0126781,1.2447368,-1.4387896,-1.9078419,2.6943173,524,-108,1380,1480.0,0.086449146,0.105131656,-0.06790608,0.15210968,0.13611069065781073,0.05781500167345266,-5.661632473121924,-0.5340931629010007,-9.156121816674599,350.8438781833254,788.0531985395702,653.7461527455922,-27.555373646646384,-3.2106050641715855,14.20134261997013,55.95657518671043,158.46324064923485,160.98218258086663,65.09,NONE,0.0,0.0,0.0,NONE,5.29347618205637E-9,2.090113678291099E-9,-1.8310547E-4,2,59.96,54.34,38.79,47.1,15.86,15.86,5.633,9.020418,0,2573,3.961,12.0,7.876,76,32.7,OK,784,0,0,0,0,0,65,100,0.0,0,0.0,3.9605766E-8,9.0E-44,0.0,-1.2335205,63,3.920421E-4,-1.2687738E-8,1.6199424E-16,False,False,0,None,-7.31861E-23,1.7340798E-15,
3142235472,15.158,9.133405353609186,62.692427630388835,17,717.94586,717.1155,0.017005367,0.10702144,-1.0127976,1.0185783,13.258679,-2.41874,3.791376,14.000621,489,-117,1392,1480.0,0.13740487,0.051275242,-0.021631321,0.14824696,0.1466603176163301,-0.04451075035824076,-6.125180767125469,0.5601390910545959,-7.461980009135846,352.53801999086414,785.6961029346807,652.772294755288,-31.767224541519017,-3.665061354747234,14.291544865437901,51.96343682020125,36.083773199763485,38.602715131395286,65.1,21.259338816406284,,9.133405,62.6924281,20190821,113004,2019-08-21T11:30:04Z,804.091,0.74,1.3,7.3,10,7,17,0.15,0.04,-0.05,0,0,0,0,5,5,9.133497136064141,62.69230619649532,120,,,,,,,,,,,,,,,false,false,false,false,false,false,false,false,false,false,6131,5804,4239,5093,57,74,74,57,1617,1591,1423,1486,1608,1575,1409,1486,0.0,0.0,0.0,0.0,1571.7,1566.2,1566.2,1570.5,5.06,3.85,2.54,2.8,0,0,0,0,-155.5958592935595,9.133405081864229,62.692427049865,0,718.00543,716.6306,0.013253507,0.10972331,-1.017213,1.0231994,-1.562293,-0.634972,-0.5029837,1.759813,492,-120,1392,1481.0,0.15377448,0.07010066,-0.09433086,0.19354329,0.16899909558068307,-0.05858366326015507,-6.10396418353014,0.2938832406035591,-9.05558513521832,350.94441486478166,788.4509228671842,653.5752093295778,-26.129985066608523,-3.290205857349906,14.23513866661548,56.07647594219793,36.29263617460667,38.81157810623847,65.12,NONE,0.0,0.0,0.0,NONE,3.8837497954351995E-9,3.383585676984697E-9,-1.8310547E-4,2,60.88,55.92,35.46,46.63,15.86,15.86,5.639,9.058737,0,2571,3.958,12.0,7.874,76,32.8,OK,785,0,0,0,0,0,65,100,0.0,0,0.0,7.453673E-8,9.0E-44,0.0,-1.2335205,63,3.8072467E-4,-1.2514934E-8,1.6361716E-16,False,False,0,None,-7.390988E-23,1.7148081E-15,
3146104149,16.163,9.133406135108167,62.69242879334537,17,717.9224,717.2131,0.01198425,0.10126731,-0.9945714,0.9997854,-5.059303,7.254287,1.4200791,8.957558,448,-104,1404,1477.0,0.0752599,0.05398155,-0.047443327,0.10406214,0.09261781791237562,0.0419689974121384,-5.873780864739774,2.145922940005286,-7.586854662350383,352.4131453376496,785.8591701169946,653.3676728250002,-30.55998776896296,-4.596357220919185,14.400884891109055,52.10061617777276,2.8465053051785016,5.365447236810299,65.02,21.235901316406284,,9.1334057,62.6924294,20190821,113005,2019-08-21T11:30:05Z,804.149,0.74,1.3,7.27,10,7,17,0.12,0.05,-0.1,0,0,0,0,5,5,9.133497136064141,62.69230619649532,120,,,,,,,,,,,,,,,false,false,false,false,false,false,false,false,false,false,6156,5720,4421,5055,56,74,74,57,1601,1569,1434,1503,1605,1558,1426,1493,0.0,0.0,0.0,0.0,1569.9,1565.0,1567.5,1570.5,4.78,3.66,2.79,3.14,0,0,0,0,-155.97109400009379,9.133406065735103,62.69242840946871,0,717.9504,716.6728,0.010974227,0.10594969,-0.9951287,1.0008131,5.7358303,2.6593935,6.650281,9.175966,451,-108,1401,1475.0,0.08472768,0.0755797,-0.09816083,0.15008871,0.1135388561179445,0.04489184677780332,-5.90299730623277,2.0184940371245608,-9.122706702399494,350.8772932976005,788.7321362389097,654.9669621410038,-24.546229434736208,-4.191550161228075,14.361629325496168,56.24007461709257,46.288168391534015,48.807110323165816,64.99,NONE,0.0,0.0,0.0,NONE,3.911757774079076E-9,1.884528719187429E-9,-2.4414062E-4,2,60.4,54.26,39.12,46.41,15.854,15.854,5.634,8.986973,0,2569,3.956,12.0,7.814,76,32.8,OK,786,0,0,0,0,0,65,100,0.0,0,0.0,1.3224053E-7,9.0E-44,0.0,-1.2335205,63,3.9343536E-4,-1.2708884E-8,2.2013797E-16,False,False,0,None,-9.914212E-23,1.736438E-15,
3149960398,17.166,9.133407346688323,62.69242911007121,17,718.25446,717.32324,0.0108424,0.10389553,-0.9936206,0.99909645,16.384926,1.0347553,16.836872,23.516308,498,-111,1386,1476.0,-2.786424E-4,0.06378422,-0.024580287,0.06835711,0.06378483011883171,0.007193159806065899,-5.843291788634654,0.2846557109062961,-7.546066109078339,352.4539338909217,785.5733737473907,653.6222041187657,-32.362691754596334,-3.477569348410733,14.414469011221936,52.197779793831174,108.2154339257667,110.7343758573985,65.0,21.567932566406284,,9.1334068,62.6924293,20190821,113006,2019-08-21T11:30:06Z,804.164,0.74,1.3,7.24,10,7,17,-0.03,0.04,-0.1,0,0,0,0,5,5,9.133497136064141,62.69230619649532,120,,,,,,,,,,,,,,,false,false,false,false,false,false,false,false,false,false,6134,5703,4415,5109,57,74,73,57,1612,1573,1441,1494,1601,1560,1430,1493,0.0,0.0,0.0,0.0,1569.3,1565.0,1565.6,1571.7,4.87,3.61,2.51,2.92,0,0,0,0,-154.06257701453984,9.133407250437479,62.692428481928,0,718.2933,716.7339,0.007975542,0.10134376,-0.99453086,0.9997129,5.557187,5.160164,0.51286054,7.600832,501,-111,1383,1475.0,0.007606496,0.068658,-0.06652179,0.095900625,0.06907807338551317,-0.008243818111117678,-5.897315788980343,0.2197121120287617,-9.120919458943941,350.87908054105606,788.4206343125384,654.8577063463647,-26.467090877389317,-3.5808852868687575,14.349828172475572,56.34311059956454,101.93896529008839,104.45790722172019,64.97,NONE,0.0,0.0,0.0,NONE,3.939765586245514E-9,8.566039565050712E-11,-1.8310547E-4,2,60.82,54.63,37.83,47.48,15.845,15.845,5.631,8.849289,0,2567,3.955,12.0,7.882,76,32.9,OK,787,0,0,0,0,0,65,100,0.0,0,0.0,2.098459E-7,9.0E-44,0.0,-1.2335205,63,4.1994452E-4,-1.31133815E-8,2.2550905E-16,False,False,0,None,-1.007674E-22,1.7868332E-15,
3153814666,18.167,9.13340822091037,62.6924287162874,17,718.5952,717.44025,0.0053880773,0.110726826,-0.98115844,0.9874013,0.84102637,-6.536628,-2.9363267,7.2150426,516,-114,1383,1480.0,-0.009659941,0.09250478,-0.002198713,0.09303377,0.09300778555198769,-0.030615401537934482,-6.405741755077702,-0.201770363396707,-8.139954965795381,351.86004503420463,785.2346942483055,653.2747395030212,-33.13446245270248,-4.587513021087209,14.358808641038001,52.270423067098974,122.42655418492795,124.94549611655975,65.04,21.908691843750034,,9.1334079,62.692429,20190821,113007,2019-08-21T11:30:07Z,804.162,0.74,1.3,7.24,10,7,17,-0.01,0.08,-0.09,0,389,0,0,5,5,9.133497136064141,62.69230619649532,120,,,,,,,,,,,,,,,false,false,false,false,false,false,false,false,false,false,6087,5678,4494,5212,58,74,74,58,1614,1566,1451,1502,1609,1566,1417,1505,0.0,0.0,0.0,0.0,1568.7,1565.0,1564.4,1568.7,4.98,3.41,2.9,2.84,0,0,0,0,-151.30577178608948,9.133408024131723,62.692428295841445,0,718.5916,716.7722,0.0013327373,0.10404222,-0.98924714,0.99470425,-5.7346377,0.7598977,0.46121278,5.803123,518,-117,1383,1481.0,0.009516441,0.07640643,-0.03619228,0.0850787,0.0769967840004196,-0.032509433691989165,-6.599244962252993,-0.4056592997661343,-9.693122614766951,350.30687738523307,788.9286597493177,654.7707961608784,-25.825491705792583,-4.80485635923395,14.31764263132007,56.42011384932752,100.81609257198457,103.33503450361637,65.0,NONE,0.0,0.0,0.0,NONE,4.0704686316623735E-9,1.4562267146469216E-10,-1.2207031E-4,2,60.04,54.51,39.03,50.12,15.84,15.84,5.627,8.681371,0,2565,3.955,12.0,7.855,76,32.9,OK,788,0,0,0,0,0,65,100,0.0,0,0.0,2.4663314E-7,9.0E-44,0.0,-1.2335205,63,4.339069E-4,-1.3326431E-8,2.0649397E-16,False,False,0,None,-9.3051357E-23,1.8343754E-15,
3157712469,19.180,9.133407599604208,62.69243942372356,17,718.84064,717.5177,-0.059625037,0.1186143,-1.060693,1.0689688,3.1758182,6.0637846,6.9967637,9.788259,1041,-58,1083,1503.0,2.974954,-0.14812976,0.012952754,2.9786675,2.9786393737100374,-1.8029147645198376,-5.385698345182092,-23.51602536533128,-9.370098044251414,350.6299019557486,782.1856823832902,651.4933254806989,-55.492918832097025,-4.806489777626264,15.502331123067103,53.47769098760636,-5.518216618457359,-2.9992746868255615,65.01,22.154114207031284,,9.1334079,62.6924364,20190821,113008,2019-08-21T11:30:08Z,804.153,0.74,1.3,7.21,10,7,17,2.11,-0.06,-0.07,0,7462,0,0,5,5,9.133497136064141,62.69230619649532,120,,,,,,,,,,,,,,,false,false,false,false,false,false,false,false,false,false,6169,5645,4843,5650,57,74,74,57,1616,1563,1468,1573,1616,1563,1463,1550,0.0,0.0,0.0,0.0,1562.6,1559.5,1558.8,1563.2,5.0,3.49,3.1,4.03,0,0,0,0,-134.78395358988473,9.133407279396893,62.692437052755,0,718.9394,716.82245,-0.04907306,0.11936338,-1.0639306,1.0717295,-3.894876,-1.8468966,-1.1296129,4.456132,1041,-55,1086,1505.0,2.7172241,-0.19569148,-0.033855524,2.724472,2.724261780583046,-1.7623225135362848,-5.131965187242419,-23.357081938388863,-10.799355378441845,349.2006446215581,786.4396995762858,656.8136318081878,-52.125365489219604,-4.61407309880083,15.255492247109764,57.44429313967482,-7.138993473162494,-4.620051541530697,65.03,NONE,0.0,0.0,0.0,NONE,-6.600508585521884E-9,4.4629065507465776E-8,-1.2207031E-4,2,60.2,53.44,44.97,54.47,15.831,15.831,5.615,8.508114,0,2561,3.953,12.0,7.869,75,32.9,OK,789,0,0,0,0,0,65,100,0.0,0,-1.973987E30,1.529719E-6,-4.9077794E29,-3.4453023E28,1.464021E-27,64,4.5275688E-4,-1.3614058E-8,5.8837767E-15,False,False,0,None,-2.1141702E-21,1.8985602E-15,
3161686537,20.213,9.133400371611527,62.69247428973871,17,719.45874,718.4551,-0.08863312,0.12424658,-1.0393372,1.0504831,-12.609185,5.4610233,-2.6777856,13.999459,478,-144,1395,1481.0,3.81675,-0.44385093,-2.269177,4.4624825,3.8424711503563436,-0.07188828760800225,-7.5705340498888125,1.978034908764954,-7.823910116821323,352.1760898831787,783.5127167451631,646.541851567071,-30.702828698699822,-4.460675067337412,19.33194171790054,57.373195398277446,-8.747074506758384,-6.228132575126586,64.98,22.772217234375034,,9.1334017,62.6924712,20190821,113009,2019-08-21T11:30:09Z,804.741,0.74,1.3,7.18,10,7,17,4.27,-0.48,-0.74,0,2741,0,7257,5,5,9.133497136064141,62.69230619649532,120,,,,,,,,,,,,,,,false,false,false,false,false,false,false,false,false,false,6039,5718,5161,5910,56,74,73,56,1566,1543,1482,1559,1570,1537,1463,1537,0.0,0.0,0.0,0.0,1573.6,1569.9,1568.7,1572.9,3.26,2.49,2.48,2.92,0,0,0,0,-122.66480509799345,9.133400445157914,62.69247573682666,0,719.4396,717.6891,-0.0852252,0.11374996,-0.9698264,0.9801865,-17.24219,-0.6923806,-10.258586,20.075136,475,-151,1398,1484.0,3.9405107,-0.53842425,-2.2250912,4.5572534,3.9771253266206563,0.2012248787134152,-8.162230879143621,1.5291692459857142,-9.571939026942447,350.42806097305754,788.3177767980127,654.383883585782,-27.015716651404606,-5.464622968475673,19.4866099487985,61.7648078275154,-5.7015405955067635,-3.182598663874966,64.98,NONE,0.0,0.0,0.0,NONE,-2.8035857179209273E-8,9.102272607061409E-8,-0.0053100586,2,55.55,51.1,44.15,54.5,15.781,15.781,5.551,8.359469,0,2558,3.95,12.0,8.571,75,32.9,OK,790,0,0,0,0,0,65,100,0.0,0,-3.2380393E28,6.609363E-5,-4.9077794E29,-5.6515153E26,1.464021E-27,64,9.5948577E-4,-2.0601084E-8,1.3638516E-9,False,False,0,None,-2.1321513E-16,2.8220294E-15,
3165626493,21.237,9.133391129440824,62.69250687096877,17,721.5029,720.39136,-0.06881668,0.121832356,-0.9388687,0.9492383,-13.7494955,-0.91857827,-9.16099,16.547392,486,-157,1398,1488.0,2.987682,-0.39658207,-1.7413211,3.4807644,3.0138881603265477,0.5539813619594822,-7.532132883785406,1.3750834841583799,-7.9483884723383715,352.05161152766163,783.4538006343417,647.2525434312711,-30.219141226398513,-3.0413265372038047,22.95989511738576,61.02843840377934,-13.54706617729222,-11.028124245660422,64.9,24.816406687500034,,9.1333915,62.692504,20190821,113010,2019-08-21T11:30:10Z,806.711,0.74,1.3,7.13,10,7,17,3.26,-0.49,-1.69,0,3030,0,6507,5,5,9.133497136064141,62.69230619649532,120,,,,,,,,,,,,,,,false,false,false,false,false,false,false,false,false,false,5842,5402,4698,5442,57,74,74,58,1575,1551,1465,1535,1576,1546,1457,1525,0.0,0.0,0.0,0.0,1566.2,1563.8,1562.6,1566.8,4.25,3.21,2.88,3.31,0,0,0,0,-132.99746686817312,9.133391102723017,62.69250744177869,0,721.2752,719.60596,-0.06665565,0.13079609,-0.9476201,0.9589236,2.1685743,-3.1921291,-0.50578237,3.8920712,486,-157,1398,1488.0,2.996313,-0.42023772,-1.7490344,3.494798,3.025639010946373,0.4485573794814668,-7.695292162250747,1.0399997821804998,-9.665286145850812,350.3347138541492,788.2678489686114,653.9932155935804,-30.051684706234724,-3.5369753061975646,23.02190573128261,65.32327630565767,-13.34178797211428,-10.822846040482483,64.9,NONE,0.0,0.0,0.0,NONE,-2.2126215917042793E-8,7.327387582948909E-8,-0.004638672,2,56.01,51.19,42.3,51.8,15.671,15.671,5.621,8.311475,0,2556,3.939,12.0,10.784,75,32.9,OK,791,0,0,0,0,0,65,100,0.0,0,-3.4491124E26,4.3593903E-4,-4.9077794E29,-6.019947E24,1.464021E-27,64,0.007367611,-5.492826E-8,1.1192529E-8,False,False,0,None,-1.5672142E-15,6.949438E-15,
3169490097,22.241,9.133382841667931,62.692529596543096,17,721.2185,721.1085,-0.052939385,0.11027638,-0.99060065,0.9981248,-4.013442,5.998603,-13.725617,15.507531,402,-114,1431,1490.0,2.1682856,-0.3220613,0.08803293,2.1938405,2.192073400876513,0.3594715168638678,-7.79777767074628,4.06497534639608,-16.887088225969833,343.1129117740302,774.9789292549651,646.1008899449263,-26.853073827426265,-9.178530021194312,25.516015792653725,63.59136657336684,-11.095063508171782,-8.576121576539984,64.93,24.531982859375034,,9.1333834,62.6925278,20190821,113011,2019-08-21T11:30:11Z,807.703,0.74,1.3,7.06,10,7,17,2.45,-0.41,-0.98,0,775,-5184,851,5,5,9.133497136064141,62.69230619649532,120,,,,,,,,,,,,,,,false,false,false,false,false,false,false,false,false,false,5781,5260,4790,5491,57,74,74,57,1577,1522,1483,1557,1568,1514,1482,1538,0.0,0.0,0.0,0.0,1567.5,1562.0,1562.6,1565.6,4.51,2.97,3.64,4.02,0,0,0,0,-121.87877223374866,9.1333830815806,62.692530149307245,0,721.6536,720.3336,-0.054194584,0.10115333,-0.9849617,0.99162424,9.74861,1.6698867,-5.9072065,11.520373,399,-111,1431,1489.0,2.1588287,-0.33328333,0.0046398463,2.1844087,2.1844036531547397,0.36296846140910777,-7.980461584516276,3.8185350551374486,-19.098992904861557,340.9010070951384,781.6241204854143,657.4251182308608,-24.933284024181283,-10.194449177917539,25.573070856679657,67.8836381015439,-13.652603494629894,-11.133661562998096,64.92,NONE,0.0,0.0,0.0,NONE,-1.6235240495457165E-8,5.1207755507034474E-8,0.0,2,56.5,49.12,44.06,53.23,15.772,15.772,5.635,8.376533,0,2556,3.91,12.0,7.879,75,32.9,OK,792,0,0,0,0,0,65,100,0.0,0,-1.6542498E26,8.8071445E-4,-4.9077794E29,-1.5743096E24,1.464021E-27,64,0.017793655,-8.7583E-8,1.1590887E-8,False,False,0,None,-1.6116665E-15,1.0959821E-14,
3173339572,23.242,9.13337577304652,62.69254389709534,17,721.2388,721.2489,-0.021018729,0.053930923,-0.93501,0.9367999,-19.704826,42.495804,-11.853701,48.318565,302,36,1461,1492.0,1.2500651,-0.42919552,-0.016945533,1.3218013,1.3216926539120315,0.3080758224488023,-9.502327158564887,7.783321977204275,-39.839770464590416,320.1602295354096,752.7465734701079,644.5643618437468,-19.794786608138526,-29.27595968085999,27.146492455867644,65.22539177588096,-22.594612938625442,-20.075671006993645,65.03,24.552246531250034,,9.1333757,62.6925427,20190821,113012,2019-08-21T11:30:12Z,807.783,0.74,1.3,7.07,10,7,17,1.4,-0.44,-0.31,0,0,-3619,736,5,5,9.133497136064141,62.69230619649532,120,,,,,,,,,,,,,,,false,false,false,false,false,false,false,false,false,false,5161,4928,4737,5364,57,74,74,57,1542,1506,1455,1531,1539,1514,1438,1517,0.0,0.0,0.0,0.0,1569.3,1566.2,1565.0,1568.7,4.17,3.13,2.95,3.77,0,0,0,0,-89.20057588668249,9.133375072117111,62.69254386720335,0,721.79346,720.3405,-0.023141416,0.058008756,-0.9619217,0.963947,-4.2325263,21.51869,-4.9113946,22.474209,270,20,1470,1494.0,1.2154659,-0.41157767,-0.01640402,1.2833638,1.2832589565539005,0.29514669780840563,-9.922149535024543,8.342808601952541,-41.641699108318726,318.35830089168127,762.1734299217375,660.2521382811966,-15.9386633088358,-29.79667040009094,27.151434087131516,69.47047730020358,-30.441698170757544,-27.922756239125746,65.08,NONE,0.0,0.0,0.0,NONE,-1.9530843785378697E-8,3.537772334476653E-8,-2.4414062E-4,2,53.93,49.17,41.93,50.78,15.839,15.839,5.642,8.406265,1093,2553,3.939,12.0,6.367,75,32.9,OK,793,0,0,0,0,0,65,100,0.0,0,-2.8578322E28,8.4216514E-4,-4.9077794E29,-1.5743096E24,1.464021E-27,64,0.017897606,-8.7783086E-8,1.3312106E-8,False,False,0,None,-1.8311633E-15,1.0982156E-14,
3177223003,24.251,9.133369367854355,62.69254660734725,17,721.8098,721.2522,-0.0844866,0.087111816,-1.1142224,1.1208113,-6.6335497,-21.254274,-6.9475355,23.32416,901,195,1206,1517.0,0.47380656,-0.52795553,-0.018936064,0.70963955,0.7093868321847782,-0.2689732905233812,-3.771873687764977,-23.264284722841037,-43.12252967989684,316.87747032010316,744.1792026691234,645.1025310882674,-48.802245917458,-37.4587456364815,27.515564735074985,65.7177703497492,-62.450039556210854,-59.93109762457906,65.17,25.123291453125034,,9.1333693,62.6925467,20190821,113013,2019-08-21T11:30:13Z,807.773,0.74,1.3,7.1,10,7,17,-0.03,-0.22,-0.06,-2765,9998,-259,1021,5,5,9.133497136064141,62.69230619649532,120,,,,,,,,,,,,,,,false,false,false,false,false,false,false,false,false,false,6162,5582,5150,5627,58,76,76,58,1609,1550,1511,1575,1603,1545,1515,1557,0.0,0.0,0.0,0.0,1562.0,1557.0,1557.0,1561.3,4.76,3.52,3.88,4.0,0,0,0,0,-132.45393995988658,9.133368509458194,62.69254649732482,0,721.3542,720.30756,-0.08061877,0.10125544,-1.1052486,1.1128012,2.768262,-11.998683,8.547183,14.98953,913,201,1197,1518.0,0.57494146,-0.60976374,-0.029866835,0.8386069,0.8380748484012792,-0.39763588008020107,-3.901040384998489,-23.837345883760868,-44.73476275396406,315.26523724603595,757.0430239643173,666.0313750344113,-48.81730312257517,-38.224303094163396,27.514089076911766,69.97197659271188,-61.85010723125836,-59.33116529962656,65.18,NONE,0.0,0.0,0.0,NONE,-1.6636697187426105E-8,6.133280884269888E-9,0.0,2,60.19,53.31,47.08,54.76,15.821,15.821,5.607,8.308429,1105,2551,3.949,12.0,7.191,75,32.9,OK,794,0,0,0,0,0,65,100,0.0,0,-2.5345249E30,3.7691553E-4,-4.9077794E29,-1.5743096E24,1.464021E-27,64,0.017039776,-8.6145995E-8,1.3838931E-8,False,False,0,None,-1.948745E-15,1.0799359E-14,
3181105349,25.260,9.133336126476362,62.692559551913725,17,720.38983,721.233,-0.13890652,0.060477074,-1.0659844,1.0766964,-1.0284868,7.157191,3.802902,8.169776,924,186,1185,1514.0,2.5171375,-2.8211277,-0.0449827,3.7811065,3.7808388730847176,-1.576445431441977,-4.489410843711665,-23.596749188652765,-43.41126741429297,316.588732585707,744.2523927528648,643.154176244589,-48.874354624886415,-36.230202351529044,29.344746685106703,67.94301601186366,-50.66031585817565,-48.14137392654386,65.04,23.703308542968784,,9.1333422,62.6925574,20190821,113014,2019-08-21T11:30:14Z,807.852,0.74,1.3,7.15,10,7,17,2.13,-2.33,-0.06,-3077,10000,0,797,5,5,9.133497136064141,62.69230619649532,120,,,,,,,,,,,,,,,false,false,false,false,false,false,false,false,false,false,5283,5132,5148,5581,58,75,75,59,1499,1509,1511,1561,1487,1503,1532,1547,0.0,0.0,0.0,0.0,1568.1,1563.2,1563.2,1568.1,3.5,2.9,3.29,3.82,0,0,0,0,-61.73435910978901,9.13333391726292,62.69256004092427,0,720.3069,720.40765,-0.13853255,0.052720383,-1.0406067,1.0511104,6.208739,5.2115088,7.1395435,10.801914,927,186,1182,1513.0,2.6122835,-2.9492092,-0.11261629,3.9413884,3.9397791971988307,-1.6405917885933299,-4.5407278814255605,-23.61919206852511,-45.05224028978886,314.94775971021113,761.5216150593998,669.2476426568113,-49.96254675704717,-36.06007501133114,29.428639373746254,72.29700878398896,-48.14588169708139,-45.6269397654496,65.07,NONE,0.0,0.0,0.0,NONE,-1.1053790187703497E-7,4.5348587439609764E-8,-1.2207031E-4,2,49.36,46.33,47.86,51.86,15.783,15.783,5.617,8.158443,1124,2549,3.949,12.0,8.141,75,32.9,OK,795,0,0,0,0,0,65,100,0.0,0,-5.3642456E29,7.4560226E-6,-4.9077794E29,-1.5743096E24,1.464021E-27,64,0.019390106,-9.0629804E-8,1.6044515E-8,False,False,0,None,-2.3134706E-15,1.1299827E-14,
3184955027,26.260,9.133261879890691,62.69259176514149,17,720.19385,721.0285,-0.18770857,0.082367696,-1.0598328,1.0794742,57.48178,11.833186,0.9315076,58.694523,936,330,1149,1518.0,4.7536416,-4.5896697,0.0522914,6.607943,6.607736226541642,-1.3974093051127454,4.499190215730521,-23.46230590942785,-41.30401897309068,318.6959810269093,747.6635032457835,656.4247092892324,-49.03364977973714,-31.33834902282622,33.9459440481147,73.15757952666442,-46.95628328346753,-44.43734135183573,64.88,23.507324656250034,,9.1332715,62.6925876,20190821,113015,2019-08-21T11:30:15Z,807.936,0.74,1.3,7.19,10,7,17,4.24,-4.39,-0.05,9998,8446,1371,946,5,5,9.133497136064141,62.69230619649532,120,,,,,,,,,,,,,,,false,false,false,false,false,false,false,false,false,false,5418,5253,5562,5673,59,75,74,59,1531,1524,1549,1550,1524,1510,1549,1545,0.0,0.0,0.0,0.0,1565.0,1560.7,1560.7,1565.6,3.84,2.78,4.23,3.59,0,0,0,0,-26.07535558394875,9.133258630438679,62.69259296829471,0,720.2463,720.4235,-0.19256592,0.08587846,-1.0640718,1.0847605,45.54763,10.192976,-16.675589,49.563683,933,355,1146,1519.0,4.8555727,-4.7109175,-0.06954612,6.765661,6.765303324393144,-1.4618643672521605,6.144211878742087,-23.1661705218069,-42.628501509793146,317.3714984902069,762.3937878571454,683.8681258065877,-50.424676196080064,-30.270850565920735,34.129861687747436,77.60774561264918,-45.40569188584928,-42.88674995421748,64.86,NONE,0.0,0.0,0.0,NONE,-2.2710710666422234E-7,1.0149037789789368E-7,-1.2207031E-4,2,49.82,46.58,52.37,52.27,15.806,15.806,5.601,8.0349,1141,2547,3.936,12.0,7.799,75,32.9,OK,796,0,0,0,0,0,65,100,0.0,0,-4.0319237E27,7.764526E-9,-4.9077794E29,-1.5743096E24,1.464021E-27,64,0.019852161,-9.1510195E-8,2.5750643E-8,False,False,0,None,-3.3967512E-15,1.1398056E-14,
3188816457,27.264,9.13318611203804,62.692655870780534,17,719.4206,720.78455,-0.07019774,0.045275595,-1.1277653,1.1308546,-4.133289,60.84801,10.754471,61.92918,454,720,1227,1493.0,7.2950306,-1.1832235,0.118811145,7.3913193,7.390364595950865,0.6894681902422759,26.292583083585182,3.0071880964646995,-5.82715544226547,354.17284455773455,774.4378436098998,683.2253071364278,-10.040502210724243,-10.938106129797914,41.994567253734196,81.38426862860179,-14.266862871119512,-11.747920939487715,64.77,22.734070261718784,,9.133193,62.6926416,20190821,113016,2019-08-21T11:30:16Z,808.09,0.74,1.3,7.2,10,7,17,7.11,-2.89,-0.12,8327,0,8109,0,5,5,9.133497136064141,62.69230619649532,120,,,,,,,,,,,,,,,false,false,false,false,false,false,false,false,false,false,4347,4448,4091,4752,59,75,75,59,1437,1485,1385,1490,1435,1472,1367,1491,0.0,0.0,0.0,0.0,1576.1,1571.7,1571.7,1573.6,3.09,3.94,1.83,3.34,0,0,0,0,-85.10090754621223,9.13318693780565,62.69265149899735,0,719.3884,720.4011,-0.085556254,0.04366465,-1.1293875,1.1334648,2.3762488,50.649693,20.282478,54.611507,501,732,1209,1499.0,7.472696,-1.6783254,-0.0343125,7.6589255,7.658848411110838,-0.21991866256407988,25.739865630030696,-0.28037996763104456,-8.301339193931419,351.6986608060686,787.8171162281582,709.0830920360339,-13.6096028179001,-15.207469835444664,41.52881470425977,85.1684596641703,-16.604372432899915,-14.085430501268116,64.76,NONE,0.0,0.0,0.0,NONE,-1.5897333542458858E-7,1.5901986610414592E-7,-2.4414062E-4,2,40.56,44.08,30.3,47.93,15.816,15.816,5.648,7.946273,1152,2545,3.949,12.0,7.933,75,32.9,OK,797,0,0,0,0,0,65,100,0.0,0,-2.7846899E26,4.5696244E-10,-4.9077794E29,-1.5743096E24,1.464021E-27,64,0.019509317,-9.085718E-8,5.3296628E-8,False,False,0,None,-6.7672647E-15,1.1325197E-14,
3192790635,28.297,9.133187190433816,62.6926989183719,17,723.2413,721.9738,-0.05113911,0.07740225,-1.4792873,1.4821934,-28.702196,-11.636899,-1.2810133,30.997974,-85,-252,1461,1485.0,1.4580797,0.4088261,-3.2554588,3.5904245,1.514310128794037,3.12033404256188,-9.348183342026006,21.32047305986206,-0.9246750507404264,359.0753249492596,769.0787442156471,645.5420664174801,12.813604815335689,1.4123807408710807,46.44291019432582,86.20050299471527,11.765380237814494,14.284322169446291,64.77,26.554748972656284,,9.1331855,62.6926958,20190821,113017,2019-08-21T11:30:17Z,808.792,0.74,1.3,7.13,10,7,17,3.85,0.54,-0.89,0,0,0,10000,5,5,9.133497136064141,62.69230619649532,120,,,,,,,,,,,,,,,false,false,false,false,false,false,false,false,false,false,7525,7269,6244,6855,60,75,75,59,1743,1737,1636,1684,1737,1724,1625,1670,0.0,0.0,0.0,0.0,1528.2,1522.0,1524.5,1528.8,6.42,6.04,5.08,4.92,0,0,0,0,-152.91005502714307,9.133188227200264,62.692699804332776,0,723.65173,721.6915,-0.04059611,0.078341186,-1.4032099,1.4059813,-27.425402,-8.573661,-9.873681,30.38338,-73,-267,1452,1478.0,1.3807919,0.3777612,-3.3956695,3.6850863,1.4315340384947683,3.769222491578593,-10.396633903816022,20.555930727701707,-1.2030108455911706,358.79698915440883,782.0612146369253,674.5779614752731,8.229653823626755,0.07467375239511433,46.51760906977228,90.58393733738518,14.296735434561782,16.81567736619358,64.78,NONE,0.0,0.0,0.0,NONE,2.4161607951709E-8,6.13670657722999E-8,-0.006225586,2,77.97,75.8,62.86,71.13,15.824,15.824,5.449,7.865431,1163,2543,3.945,12.0,6.925,75,32.9,OK,798,0,0,0,0,0,65,100,0.0,0,-3.483394E28,2.1890513E-8,-4.9077794E29,-1.5743096E24,1.464021E-27,64,0.04483128,-1.3319463E-7,7.41443E-8,False,False,0,None,-9.459664E-15,1.6328629E-14,
3196705449,29.314,9.133189250226508,62.692700491240366,18,727.63196,725.9384,0.015904186,0.09749867,-0.91655725,0.9218656,13.051763,9.33235,5.47938,16.954788,521,-129,1383,1483.0,-0.29806942,0.07959494,-3.9401908,3.9522505,0.3085137517065119,-0.10798003353760305,-5.487585919869025,0.18051795820290986,-3.586916936965307,356.4130830630347,766.7015982790501,650.770120590621,-8.459989100722787,-0.4196028344747867,46.57185513303039,86.82757642334263,-177.82102210758833,-175.30208017595655,65.02,30.945435007812534,,9.1331882,62.6927003,20190821,113018,2019-08-21T11:30:18Z,813.103,0.72,1.19,7.03,11,7,18,-0.42,-0.04,-3.35,0,0,0,10000,5,5,9.133497136064141,62.69230619649532,120,,,,,,,,,,,,,,,false,false,false,false,false,false,false,false,false,false,6281,5950,4771,5335,58,75,75,58,1651,1609,1472,1549,1642,1598,1482,1545,0.0,0.0,0.0,0.0,1552.1,1549.1,1547.8,1552.1,5.59,4.42,3.4,3.98,0,0,0,0,-157.160319128141,9.133189265078252,62.69269983122924,0,727.6497,725.8234,0.015821647,0.08993966,-0.9539611,0.9583221,4.3766546,5.4313955,1.52372,7.13981,521,-129,1383,1483.0,-0.23360145,0.0054525663,-3.9800892,3.9869425,0.2336650825592247,-0.18154545335734038,-5.440027900710131,0.1766320686252459,-3.5736151889368575,356.42638481106314,780.8812954409531,677.6698446030358,-11.003479692899534,-0.29392500601710264,46.50251535122109,91.04913537183154,166.4680932927826,168.9870352244144,65.02,NONE,0.0,0.0,0.0,NONE,2.240642346003875E-10,-5.2766728924651694E-9,-0.0099487305,2,63.63,59.96,44.45,51.98,15.63,15.63,5.583,7.907518,1156,2540,3.901,12.0,14.356,75,32.9,OK,799,0,0,0,0,0,65,100,0.0,0,-4.6187667E28,3.3450984E-8,-4.9077794E29,-1.5743096E24,-1.4206701E23,63,2.8322756,-1.0567386E-6,2.6920253E-8,False,False,0,None,-3.5272891E-15,1.1079029E-13,
3200571047,30.319,9.133188280667373,62.692698439479095,18,730.9998,729.92456,0.007588906,0.1059545,-1.1045059,1.1096023,22.070612,-66.80701,1.6716053,70.37814,857,-111,1224,1498.0,0.3888909,0.018418327,-3.85302,3.8726397,0.3893268185253095,-0.15696270266431914,-5.328305137985116,-20.47273308375358,-4.5205373966746505,355.4794626033254,767.1933607083611,652.5749059170694,-27.730080444633792,-0.48281748407944447,46.37391944781779,87.11876581174982,16.23217635339194,18.751118285023736,65.16,34.313293894531284,,9.1331889,62.6926986,20190821,113019,2019-08-21T11:30:19Z,816.79,0.72,1.19,6.92,11,7,18,0.06,0.03,-3.71,0,9388,0,10000,5,5,9.133497136064141,62.69230619649532,120,,,,,,,,,,,,,,,false,false,false,false,false,false,false,false,false,false,6814,6397,4764,5242,58,75,75,58,1704,1687,1451,1538,1694,1636,1482,1563,0.0,0.0,0.0,0.0,1546.0,1539.9,1541.1,1546.0,7.02,6.32,2.11,2.38,0,0,0,0,-164.39754687787678,9.133188808782252,62.69269779976509,0,730.9941,729.8878,0.011441767,0.10347045,-1.1488777,1.1535845,12.33626,-36.840557,-3.5950649,39.017105,901,-108,1194,1499.0,0.55699164,0.0145622585,-3.9974172,4.0360622,0.5571819684689541,-0.3311487799158921,-5.050671401439371,-22.278468125673122,-4.426350476206977,355.57364952379305,779.6449429210343,677.632045778317,-31.468377992392053,0.3723796297226193,46.29786484869461,91.35743842241746,3.4194426397383406,5.938384571370138,65.19,NONE,0.0,0.0,0.0,NONE,1.867200855901875E-9,-5.48225475653889E-10,-0.010009766,2,74.34,71.84,38.63,43.52,15.64,15.64,5.57,8.192199,1114,2537,3.87,12.0,8.824,75,33.0,OK,800,0,0,0,0,0,65,100,0.0,0,-4.6187667E28,2.6627616E-8,-4.9077794E29,-1.5743096E24,-1.4206701E23,63,197.71877,-8.944483E-6,9.2075565E-9,False,False,0,None,-1.3456846E-15,8.2668947E-13,
3204434068,31.323,9.133189801598265,62.69272099134404,18,735.4584,733.86804,-0.06709288,0.12329875,-1.0427984,1.0522037,-6.7039633,-4.754906,2.0101638,8.461266,1024,-104,1107,1511.0,4.4033966,0.018880725,-3.815066,5.826233,4.403437156252204,-1.904534514951353,-5.91778712066561,-22.71048931915767,-5.0630208211375685,354.93697917886243,766.6143389496103,651.6807644927597,-31.14444627465398,-1.1880159399278185,48.714827983740086,89.63018407773951,-1.4611587687166903,1.057783162915107,65.16,38.771851023437534,,9.1331911,62.6927205,20190821,113020,2019-08-21T11:30:20Z,820.527,0.72,1.19,6.86,11,7,18,4.03,0.12,-3.75,-55,9998,0,10000,5,5,9.133497136064141,62.69230619649532,120,,,,,,,,,,,,,,,false,false,false,false,false,false,false,false,false,false,6616,6136,5507,5990,59,75,74,59,1667,1618,1552,1606,1661,1615,1553,1590,0.0,0.0,0.0,0.0,1546.0,1542.9,1542.9,1546.6,5.58,4.14,4.09,4.06,0,0,0,0,-142.4998669543935,9.133190355610491,62.69272167274222,0,735.2689,733.9346,-0.068055525,0.11493529,-1.0372659,1.0458308,-3.6647842,0.87524825,-1.1489183,3.9391263,1024,-108,1104,1509.0,4.574376,-0.0049244445,-4.0049877,6.079874,4.574378866753558,-1.9291852144312367,-6.197111925215959,-22.574322614110308,-5.159348936823943,354.84065106317604,781.5009289668461,679.2540374619217,-32.884673770554144,-1.3013814137313513,48.7774963306385,94.01637105926821,-2.494956785817885,0.023985145813912014,65.2,NONE,0.0,0.0,0.0,NONE,-1.2696966202426544E-9,1.0186706857480684E-7,-0.010009766,2,68.64,60.81,52.82,59.75,15.652,15.652,5.539,8.558305,1066,2535,3.87,12.0,9.903,75,33.0,OK,801,0,0,0,0,0,65,100,0.0,0,-4.6187667E28,1.0330722E-7,-4.9077794E29,-1.5743096E24,-1.4206701E23,63,13611.501,-7.512283E-5,3.6727819E-9,False,False,0,None,-5.9139163E-16,6.116469E-12,
