Tick#,offsetTime,IMU_ATTI(0):Longitude,IMU_ATTI(0):Latitude,IMU_ATTI(0):numSats,IMU_ATTI(0):barometer:Raw,IMU_ATTI(0):barometer:Smooth,IMU_ATTI(0):accel:X,IMU_ATTI(0):accel:Y,IMU_ATTI(0):accel:Z,IMU_ATTI(0):accel:Composite,IMU_ATTI(0):gyro:X,IMU_ATTI(0):gyro:Y,IMU_ATTI(0):gyro:Z,IMU_ATTI(0):gyro:Composite,IMU_ATTI(0):mag:X,IMU_ATTI(0):mag:Y,IMU_ATTI(0):mag:Z,IMU_ATTI(0):mag:Mod,IMU_ATTI(0):velN,IMU_ATTI(0):velE,IMU_ATTI(0):velD,IMU_ATTI(0):velComposite,IMU_ATTI(0):velH,IMU_ATTI(0):GPS-H,IMU_ATTI(0):roll,IMU_ATTI(0):pitch,IMU_ATTI(0):yaw,IMU_ATTI(0):yaw360,IMU_ATTI(0):totalGyro:Z,IMU_ATTI(0):totalGyro:X,IMU_ATTI(0):totalGyro:Y,IMU_ATTI(0):magYaw,IMU_ATTI(0):distanceHP,IMU_ATTI(0):distanceTravelled,IMU_ATTI(0):directionOfTravel[mag],IMU_ATTI(0):directionOfTravel[true],IMU_ATTI(0):temperature,General:relativeHeight,General:absoluteHeight,GPS(0):Long,GPS(0):Lat,GPS(0):Date,GPS(0):Time,GPS:dateTimeStamp,GPS(0):heightMSL,GPS(0):hDOP,GPS(0):pDOP,GPS(0):sAcc,GPS(0):numGPS,GPS(0):numGLNAS,GPS(0):numSV,GPS(0):velN,GPS(0):velE,GPS(0):velD,RC:Aileron,RC:Elevator,RC:Rudder,RC:Throttle,Controller:navHealth,Controller:ctrl_level,HP:Longitude,HP:Latitude,HP:rthHeight,BatBlackBox:tick,BatBlackBox:id,BatBlackBox:rsoc,BatBlackBox:index,BatBlackBox:rm,BatBlackBox:fcc,BatBlackBox:cell_min,BatBlackBox:cell_max,BatBlackBox:current,BatBlackBox:voltage,BatBlackBox:temp,BatBlackBox:flag,BatBlackBox:reserve,BatBlackBox:user_data,OA:avoidObst,OA:emergBrake,OA:radiusLimit,OA:airportLimit,OA:groundForceLanding,OA:horizNearBoundary,OA:vertLowLimit,OA:vertAirportLimit,OA:roofLimit,OA:hitGroundLimit,Motor:Speed:RFront,Motor:Speed:LFront,Motor:Speed:LBack,Motor:Speed:RBack,Motor:EscTemp:RFront,Motor:EscTemp:LFront,Motor:EscTemp:LBack,Motor:EscTemp:RBack,Motor:PPMrecv:RFront,Motor:PPMrecv:LFront,Motor:PPMrecv:LBack,Motor:PPMrecv:RBack,Motor:PPMsend:RFront,Motor:PPMsend:LFront,Motor:PPMsend:LBack,Motor:PPMsend:RBack,Motor:V_out:RFront,Motor:V_out:LFront,Motor:V_out:LBack,Motor:V_out:RBack,Motor:Volts:RFront,Motor:Volts:LFront,Motor:Volts:LBack,Motor:Volts:RBack,Motor:Current:RFront,Motor:Current:LFront,Motor:Current:LBack,Motor:Current:RBack,Motor:Status:RFront,Motor:Status:LFront,Motor:Status:LBack,Motor:Status:RBack,Motor:thrustAngle,IMU_ATTI(1):Longitude,IMU_ATTI(1):Latitude,IMU_ATTI(1):numSats,IMU_ATTI(1):barometer:Raw,IMU_ATTI(1):barometer:Smooth,IMU_ATTI(1):accel:X,IMU_ATTI(1):accel:Y,IMU_ATTI(1):accel:Z,IMU_ATTI(1):accel:Composite,IMU_ATTI(1):gyro:X,IMU_ATTI(1):gyro:Y,IMU_ATTI(1):gyro:Z,IMU_ATTI(1):gyro:Composite,IMU_ATTI(1):mag:X,IMU_ATTI(1):mag:Y,IMU_ATTI(1):mag:Z,IMU_ATTI(1):mag:Mod,IMU_ATTI(1):velN,IMU_ATTI(1):velE,IMU_ATTI(1):velD,IMU_ATTI(1):velComposite,IMU_ATTI(1):velH,IMU_ATTI(1):GPS-H,IMU_ATTI(1):roll,IMU_ATTI(1):pitch,IMU_ATTI(1):yaw,IMU_ATTI(1):yaw360,IMU_ATTI(1):totalGyro:Z,IMU_ATTI(1):totalGyro:X,IMU_ATTI(1):totalGyro:Y,IMU_ATTI(1):magYaw,IMU_ATTI(1):distanceHP,IMU_ATTI(1):distanceTravelled,IMU_ATTI(1):directionOfTravel[mag],IMU_ATTI(1):directionOfTravel[true],IMU_ATTI(1):temperature,IMUEX(0):err,IMUEX(0):rtk_Longitude,IMUEX(0):rtk_Latitude,IMUEX(0):rtk_Alti,IMUEX(1):err,IMUEX(1):rtk_Longitude,IMUEX(1):rtk_Latitude,IMUEX(1):rtk_Alti,BattInfo:Voltage,BattInfo:BatVoltage,BattInfo:AdVoltage,BattInfo:AvgCurrent,BattInfo:R_time,BattInfo:R_CAP_MAH,BattInfo:LowCellVoltage,BattInfo:LowCellVolThreshold,BattInfo:BatCurrent,BattInfo:Remaining%,BattInfo:Temp,BattInfo:status,battery_info:BatDynCnt,battery_info:Vol1Protect,battery_info:Vol2Protect,battery_info:Cap1Protect,battery_info:Cap2Protect,battery_info:Batpresent,battery_info:sopPercentage,battery_info:sopValue,battery_info:sopScale,battery_info:sopFlg,BattInfo:WindHeading:WindDir,battery_info:home_dir,BattInfo:Wind:rangeMin,BattInfo:Wind:rangeMax,battery_info:cap_speed,battery_info:against_wind,battery_info:emergency_land_cap,battery_info:intel_bat_land_cap,battery_info:intel_bat_gh_cap,BattInfo:Smart:SmartGh,BattInfo:Smart:SmartLand,BattInfo:GoHome:CntDown,BattInfo:GoHome:GhCmd,BattInfo:GoHome:CapLevel,BattInfo:GoHome:LandCapLv,Attribute|Value,ConvertDatV3,3.6.6-Tablet
7162465,1.861,,,,,,,,,,,,,,,,,,,,,,,,,,,,,,,,,,,,,,,,,,,,,,,,,,,,,,,,,,,,,,,,,,,,,,,,,,,,,,,,,,,,,,,,,,,,,,,,,,,,,,,,,,,,,,,,,,,,,,,,,,,,,,,,,,,,,,,,,,,,,,,,,,,,,,,,,,,,,,,,,,,,,,,,,,,,,,,OK,,,,,,,,,,,,,,,,,,,,,,,,,,Firmware Date| Oct 17 2018
171857757,44.665,,,,,,,,,,,,,,,,,,,,,,,,,,,,,,,,,,,,,,,,,,,,,,,,,,,,,,,,,,,,,,,,,,,,,,,,,,,,,,,,,,,,,,,,,,,,,,,,,,,,,,,,,,,,,,,,,,,,,,,,,,,,,,,,,,,,,,,,,,,,,,,,,,,,,,,,,,,,,,,,,,,,17.321,17.321,6.185,1.265249,0,3640,4.326,12.0,1.265,99,25.6,OK,42,0,0,0,0,0,65,100,0.0,0,0.0,589232.0,2.69E-43,0.0,-5.9807744E7,62,1.9531325E-4,-1.9531422E-4,9.4E-44,False,False,0,None,0.0,1.0842022E-19,ACType|MavicEnterprise
175771522,45.682,,,0,23.722748,23.942122,0.058073863,-0.0015802011,-0.9819364,0.9836534,0.2566173,0.1080122,0.22551964,0.35829902,-89,-2,1472,1474.0,0.03289186,-0.024326742,-0.008073172,0.04169941,0.040910446891345965,-0.040910446891345965,0.07869714810295568,3.44560737340562,129.63928610270966,129.63928610270966,0.20942521074751108,0.3124041172470828,0.07294346093708566,95.26706171518872,,0.0,,,39.66,,,0.0,0.0,20151018,43,2015-10-18T00:00:43Z,-17.0,99.99,99.99,3.75E7,0,0,0,0.0,0.0,0.0,0,0,0,0,0,0,,,,1179,19,55,27,2029,3703,3976,3978,0,15907,28,1,15936,0,false,false,false,false,false,false,false,false,false,false,0,0,0,0,47,58,58,47,944,946,945,944,940,940,940,940,0.0,0.0,0.0,0.0,1720.8,1716.5,1716.5,1720.8,0.0,0.0,0.0,0.0,0,0,0,0,-45.0,-7.076953134491601E-11,-6.966101226426801E-11,0,23.63555,23.855732,0.0578932,-0.0025550332,-0.982308,0.98401576,0.2552873,-0.06281704,0.19543196,0.3275839,-89,0,1487,1489.0,-0.0010596236,-0.0010450955,0.0013020636,0.001977472,0.0014882965422576657,-0.0014882965422576657,0.10750498601867944,3.3541586025548353,-15.037418477460088,344.9625815225399,0.1600101102653741,0.2532117673729519,0.005443500930352373,123.50084268357215,,7.978784012870882E-5,,,39.65,NONE,0.0,0.0,0.0,NONE,-1.954758363833697E-11,-7.107071389157823E-12,-1.9073486E-6,17.322,17.322,6.188,1.26648,0,3639,4.326,12.0,1.292,99,25.6,OK,43,0,0,0,0,0,65,100,0.0,0,0.0,589232.0,2.69E-43,0.0,-5.9807744E7,62,1.9531325E-4,-1.9531422E-4,9.4E-44,False,False,0,None,0.0,1.0842022E-19,dateTime|2015-10-18 0:0:42 GMT
179822358,46.735,0.0,0.0,0,23.595915,23.93368,0.05773032,-0.0011635115,-0.9814232,0.9831204,0.1888489,0.022324266,0.10807707,0.21873029,-89,-2,1478,1480.0,0.031772763,-0.025205627,0.0018028198,0.04059658,0.040556529463118045,-0.040556529463118045,0.0729432061237497,3.4520932821004644,129.64021306519464,129.64021306519464,0.3649010543972483,0.6299996429162674,0.10160198400381092,87.67674751568194,,0.0,,,39.99,,,0.0,0.0,20151018,44,2015-10-18T00:00:44Z,-17.0,99.99,99.99,3.75E7,0,0,0,0.0,0.0,0.0,0,0,0,0,0,0,,,,1182,48,55,28,2029,3703,3959,3961,0,15834,28,212,5,0,false,false,false,false,false,false,false,false,false,false,0,0,0,0,47,59,59,47,944,946,944,945,940,940,940,940,0.0,0.0,0.0,0.0,1721.4,1715.9,1716.5,1721.4,0.0,0.0,0.0,0.0,0,0,0,0,-45.0,2.0423941166848184E-11,-3.149030806022184E-11,0,23.590631,23.858147,0.058426958,-0.0013627103,-0.9803669,0.98210734,0.17600982,0.087294474,0.11826392,0.22931668,-89,0,1478,1480.0,-0.001400328,9.10938E-4,0.0021683238,0.0027372167,0.0016705468384563982,-0.0016601053823879408,0.10252780696927562,3.3659842926496664,-14.773071235412516,345.22692876458746,0.3526061230727774,0.5470699865500706,0.04217146441838578,128.0184822016382,,1.3571796356745395E-4,,,39.93,NONE,0.0,0.0,0.0,NONE,2.3237069777378494E-12,-3.9371251259169464E-11,5.722046E-6,17.32,17.32,6.188,1.268215,0,3639,4.326,12.0,1.264,99,25.6,OK,44,0,0,0,0,0,65,100,0.0,0,0.0,589232.0,2.69E-43,0.0,-5.9807744E7,62,1.9531325E-4,-1.9531422E-4,9.4E-44,False,False,0,None,0.0,1.0842022E-19,
183746868,47.755,0.0,0.0,0,23.598558,23.930885,0.056598086,-0.0025786655,-0.98080987,0.9824449,0.32115534,0.12532249,0.1565096,0.37860498,-89,-2,1478,1480.0,0.032938033,-0.023668751,-0.0065400065,0.041084006,0.04056012597230512,-0.04056012597230512,0.06100290252722186,3.4379213512170144,129.63728519388738,129.63728519388735,0.5399630867201126,0.9410153443409024,0.12752386143298813,93.342484045863,,0.0,,,40.27,,,0.0,0.0,20151018,45,2015-10-18T00:00:45Z,-17.0,99.99,99.99,3.75E7,0,0,0,0.0,0.0,0.0,0,0,0,0,0,0,,,,1182,48,55,29,2029,3703,3959,3961,0,15834,28,212,5,0,false,false,false,false,false,false,false,false,false,false,0,0,0,0,46,57,57,46,944,945,943,945,940,940,940,940,0.0,0.0,0.0,0.0,1722.6,1717.1,1716.5,1721.4,0.0,0.0,0.0,0.0,0,0,0,0,-45.0,-5.871490918117076E-11,1.709001773690787E-11,0,23.239202,23.860952,0.05997841,-0.0018586554,-0.9796489,0.981485,0.26783913,0.14637299,0.04357349,0.30832046,-89,-2,1475,1477.0,3.389982E-4,-9.071384E-4,8.226123E-4,0.001270634,9.68410984156359E-4,-9.582874984904049E-4,0.09228985597604238,3.348627467937025,-14.808554924770476,345.1914450752295,0.5427464383801447,0.8094514985791323,0.11875728389507192,121.5962822690995,,1.8682207206424358E-4,,,40.27,NONE,0.0,0.0,0.0,NONE,-1.8381547042044466E-11,1.1733569881762468E-12,1.9073486E-6,17.32,17.32,6.188,1.2698125,0,3638,4.325,12.0,1.277,99,25.6,OK,45,0,0,0,0,0,65,100,0.0,0,0.0,589232.0,2.69E-43,0.0,-5.9807744E7,62,1.9531325E-4,-1.9531422E-4,9.4E-44,False,False,0,None,0.0,1.0842022E-19,
187600618,48.757,0.0,0.0,0,23.342253,23.894684,0.057240155,-0.002457506,-0.98077816,0.9824501,0.3271129,0.041436937,0.1747674,0.37318027,-89,-2,1481,1483.0,0.035418782,-0.020653153,0.005981636,0.04143456,0.04100052237614036,-0.04100052237614036,0.062344246861017694,3.442840883915924,129.61647667729642,129.61647667729642,0.6902167105371082,1.2100155080586783,0.14977104911621747,88.43652608777819,,0.0,,,40.56,,,0.0,0.0,20151018,46,2015-10-18T00:00:46Z,-17.0,99.99,99.99,3.75E7,0,0,0,0.0,0.0,0.0,0,0,0,0,0,0,,,,1182,48,55,30,2029,3703,3959,3961,0,15834,28,212,5,0,false,false,false,false,false,false,false,false,false,false,0,0,0,0,45,59,58,46,943,945,944,944,940,940,940,940,0.0,0.0,0.0,0.0,1721.4,1715.3,1715.9,1721.4,0.0,0.0,0.0,0.0,0,0,0,0,-45.0,-5.96581961507938E-11,1.0280050379194667E-10,0,23.590631,23.863184,0.059526764,-0.0015038508,-0.9805688,0.98237514,0.2548661,0.0222981,0.23791209,0.34936526,-89,0,1484,1486.0,0.0015968397,-8.6442713E-4,0.001413801,0.0023012965,0.0018158004689559795,-0.001806284283531899,0.10055663503915087,3.3480354365260863,-14.842942429367183,345.15705757063284,0.7518274829347668,1.1442066010771363,0.14411922643449693,129.94487336866473,,2.2515509582123744E-4,,,40.63,NONE,0.0,0.0,0.0,NONE,6.002735392516558E-13,1.6824391462509818E-11,3.8146973E-6,17.319,17.319,6.189,1.271053,0,3638,4.326,12.0,1.272,99,25.6,OK,46,0,0,0,0,0,65,100,0.0,0,0.0,589232.0,2.69E-43,0.0,-5.9807744E7,62,1.9531325E-4,-1.9531422E-4,9.4E-44,False,False,0,None,0.0,1.0842022E-19,
191457334,49.759,0.0,0.0,0,23.44002,23.89921,0.058309365,-0.0019325092,-0.9807294,0.9824632,0.34084442,0.08717489,0.20245855,0.40591112,-89,-5,1481,1483.0,0.035149764,-0.021142337,-6.548163E-4,0.041023567,0.041018341178875116,-0.041018341178875116,0.059068803723502476,3.44731689899141,129.59122072954338,129.59122072954335,0.8749066502435174,1.5324244506231313,0.20750944974580013,88.11938656509861,,0.0,,,40.85,,,0.0,0.0,20151018,47,2015-10-18T00:00:47Z,-17.0,99.99,99.99,3.75E7,0,0,0,0.0,0.0,0.0,0,0,0,0,0,0,,,,1182,48,55,31,2029,3703,3959,3961,0,15834,28,212,5,0,false,false,false,false,false,false,false,false,false,false,0,0,0,0,46,58,58,46,943,946,944,944,940,940,940,940,0.0,0.0,0.0,0.0,1721.4,1716.5,1715.3,1719.6,0.0,0.0,0.0,0.0,0,0,0,0,-45.0,1.0621808899464555E-10,4.0150090443434296E-11,0,23.524572,23.86525,0.058320105,-3.7554558E-4,-0.97932833,0.98106337,0.39499456,0.014290233,0.23136172,0.45798817,-89,-5,1478,1480.0,6.055448E-4,0.0016720705,0.0022851934,0.0028956197,0.0017783430692506561,-0.0017586728184431537,0.09973097589667511,3.363710180820334,-14.84204040726051,345.1579595927395,0.931033802244426,1.4203705609443094,0.2874485822369971,105.68890085719093,,3.29146171977852E-4,,,40.87,NONE,0.0,0.0,0.0,NONE,6.732684746022857E-12,2.1940573026210945E-11,7.6293945E-6,17.318,17.318,6.187,1.271053,0,3638,4.325,12.0,1.272,99,25.6,OK,46,0,0,0,0,0,65,100,0.0,0,0.0,589232.0,2.69E-43,0.0,-5.9807744E7,62,1.9531325E-4,-1.9531422E-4,9.4E-44,False,False,0,None,0.0,1.0842022E-19,
195355553,50.772,0.0,0.0,0,23.358107,23.888103,0.059387825,-0.0025047506,-0.97958416,0.9813859,0.28239313,0.011534579,0.21044287,0.35237074,-89,-2,1481,1483.0,0.03272733,-0.02064917,0.0029889203,0.03881237,0.038697111861088505,-0.038697111861088505,0.06471074183726833,3.451161765296648,129.57564602933874,129.5756460293387,1.016875523006923,1.8808184858228227,0.2768972649373322,85.11277443012915,,0.0,,,41.21,,,0.0,0.0,20151018,48,2015-10-18T00:00:48Z,-17.0,99.99,99.99,3.75E7,0,0,0,0.0,0.0,0.0,0,0,0,0,0,0,,,,1183,16,55,32,2029,3703,3957,3959,0,15828,28,1,17514,0,false,false,false,false,false,false,false,false,false,false,0,0,0,0,45,58,58,45,943,945,944,944,940,940,940,940,0.0,0.0,0.0,0.0,1722.6,1715.3,1716.5,1721.4,0.0,0.0,0.0,0.0,0,0,0,0,-45.0,-3.3372698901815035E-11,1.898077478904308E-12,0,23.511362,23.86758,0.05965493,0.0012706798,-0.9810267,0.98283964,0.27380723,0.09819859,0.19781536,0.35177305,-89,-2,1478,1480.0,1.2549046E-4,-0.0014421163,-3.8954226E-4,0.0014990632,0.0014475660161717655,-0.0014316805646103928,0.10056280404984144,3.376943753379551,-14.934723636665156,345.0652763633348,1.103072863906439,1.69849875926595,0.35250903241269776,111.22994281639389,,4.076752545332136E-4,,,41.14,NONE,0.0,0.0,0.0,NONE,-2.87106441367277E-11,-1.3968909049914043E-11,-1.9073486E-6,17.318,17.318,6.186,1.2719046,0,3638,4.325,12.0,1.266,99,25.6,OK,47,0,0,0,0,0,65,100,0.0,0,0.0,589232.0,2.69E-43,0.0,-1.05007105E-23,62,1.9531325E-4,-1.9531422E-4,9.4E-44,False,False,0,None,0.0,1.0842022E-19,
199221807,51.777,0.0,0.0,0,23.196926,23.84892,0.059633832,-0.0023251707,-0.9801983,0.9820134,0.30529618,0.26128742,0.16348334,0.43382448,-89,-2,1478,1480.0,0.0330114,-0.02095414,0.015307395,0.04198982,0.039100236844028566,-0.039100236844028566,0.05780236448315277,3.456525675963128,129.56458259654937,129.56458259654937,1.1715901360285135,2.1927854444161947,0.3458492327222554,85.54353527201917,,0.0,,,41.51,,,0.0,0.0,20151018,49,2015-10-18T00:00:49Z,-17.0,99.99,99.99,3.75E7,0,0,0,0.0,0.0,0.0,0,0,0,0,0,0,,,,1184,18,55,33,2031,3706,4000,4009,3574,16010,27,1,16078,0,false,false,false,false,false,false,false,false,false,false,0,0,0,0,47,58,59,46,943,945,944,944,940,940,940,940,0.0,0.0,0.0,0.0,1722.0,1716.5,1715.9,1721.4,0.0,0.0,0.0,0.0,0,0,0,0,-45.0,6.8362162399720975E-12,1.4262248291378227E-11,0,23.45323,23.869661,0.059409145,-0.0017302218,-0.98116344,0.98296195,0.23119918,0.1837775,0.29467216,0.4172037,-89,-2,1481,1483.0,2.1574556E-4,9.288078E-5,-1.1379372E-4,2.610019E-4,2.348893062268719E-4,-2.3023412087300112E-4,0.11198070326371806,3.381009912306474,-14.93866092670068,345.06133907329934,1.2498469332389055,1.9850205902947848,0.42614307872163837,107.06794241792075,,4.646383996082504E-4,,,41.43,NONE,0.0,0.0,0.0,NONE,1.375295697961519E-11,-1.1116563964208764E-11,3.8146973E-6,17.317,17.317,6.184,1.2722775,0,3637,4.325,12.0,1.275,99,25.6,OK,48,0,0,0,0,0,65,100,0.0,0,0.0,589232.0,2.69E-43,0.0,-1.05007105E-23,62,1.9531325E-4,-1.9531422E-4,9.4E-44,False,False,0,None,0.0,1.0842022E-19,
203118323,52.790,0.0,0.0,0,23.564207,23.868095,0.05716942,-6.50065E-4,-0.9802061,0.981872,0.40191528,0.10148029,0.11750767,0.43086216,-89,-2,1484,1486.0,0.034690425,-0.018023118,-0.0032171807,0.0392251,0.039092946108321674,-0.039092946108321674,0.05223221104384198,3.44815971863117,129.56059630276903,129.560596302769,1.3436656458733078,2.504071504664934,0.4041808494108037,82.91416147226559,,0.0,,,41.82,,,0.0,0.0,20151018,50,2015-10-18T00:00:50Z,-17.0,99.99,99.99,3.75E7,0,0,0,0.0,0.0,0.0,0,0,0,0,0,0,,,,1199,19,56,34,2043,3706,3971,3974,0,15908,27,1,15936,0,false,false,false,false,false,false,false,false,false,false,0,0,0,0,47,58,58,46,944,945,945,944,940,940,940,940,0.0,0.0,0.0,0.0,1720.8,1715.9,1715.9,1720.8,0.0,0.0,0.0,0.0,0,0,0,0,-45.0,-1.0544996881533182E-10,-2.606128351763889E-10,0,23.426807,23.87247,0.059879947,-0.0015666769,-0.980249,0.9820775,0.19328263,0.19491357,0.24650155,0.36893424,-92,-2,1478,1480.0,-0.0038509767,-0.0015784163,-0.0017708221,0.004522967,0.004161900931512546,-0.004129298005099173,0.09699801509600105,3.3946421698815885,-14.92709698236002,345.07290301764,1.4827757257809113,2.3051029630291127,0.5481570437240525,133.83072769827675,,5.483642089339594E-4,,,41.8,NONE,0.0,0.0,0.0,NONE,-1.7819967067211323E-11,9.767517160079447E-12,5.722046E-6,17.318,17.318,6.186,1.2725745,0,3637,4.325,12.0,1.276,99,25.7,OK,49,0,0,0,0,0,65,100,0.0,0,0.0,589232.0,2.69E-43,0.0,-1.05007105E-23,62,1.9531325E-4,-1.9531422E-4,9.4E-44,False,False,0,None,0.0,1.0842022E-19,
207086384,53.821,0.0,0.0,0,23.558924,23.871347,0.057185344,-0.0021285545,-0.98072,0.9823881,0.24163619,0.08379513,0.22717796,0.34208113,-89,-5,1481,1483.0,0.035783485,-0.017198522,0.001837716,0.039744485,0.039701976355856615,-0.039701976355856615,0.06137614642528393,3.4345670968700737,129.56321725890095,129.56321725890098,1.4995794538965976,2.775995737650367,0.4292638523333144,91.00779665286991,,0.0,,,42.13,,,0.0,0.0,20151018,51,2015-10-18T00:00:51Z,-17.0,99.99,99.99,3.75E7,0,0,0,0.0,0.0,0.0,0,0,0,0,0,0,,,,1219,48,56,35,2043,3706,3959,3960,0,15834,28,212,3,0,false,false,false,false,false,false,false,false,false,false,0,0,0,0,47,59,59,48,944,944,944,944,940,940,940,940,0.0,0.0,0.0,0.0,1721.4,1715.9,1715.3,1720.2,0.0,0.0,0.0,0.0,0,0,0,0,-45.0,3.47776945082871E-11,-1.091117419439384E-10,0,23.482296,23.874367,0.058579195,-0.002220302,-0.98242277,0.98417014,0.28090742,0.11526326,0.18053892,0.35325474,-89,-5,1478,1480.0,-0.0016246703,5.138147E-4,-0.0012039564,0.0020864012,0.0017039833726593824,-0.0016817248616722072,0.11113048906113096,3.3695038152454906,-14.917109409529434,345.0828905904706,1.6994905144785148,2.6395509466582063,0.592439693882883,104.1094591983379,,6.335014123750384E-4,,,42.12,NONE,0.0,0.0,0.0,NONE,2.3791329258236637E-12,-1.8614754320730205E-11,3.8146973E-6,17.315,17.315,6.185,1.2730403,0,3637,4.325,12.0,1.277,99,25.6,OK,50,0,0,0,0,0,65,100,0.0,0,0.0,589232.0,2.69E-43,0.0,-1.05007105E-23,62,1.9531325E-4,-1.9531422E-4,9.4E-44,False,False,0,None,0.0,1.0842022E-19,
210943384,54.823,0.0,0.0,0,23.582705,23.86428,0.058578186,-0.0029472243,-0.98241526,0.98416454,0.16224048,-0.0055468907,0.21197559,0.2669951,-89,-5,1468,1470.0,0.032741502,-0.016267827,0.007901155,0.03740423,0.03656019869922419,-0.03656019869922419,0.07172237324424861,3.431319611615442,129.5637746022715,129.5637746022715,1.7003150569803904,3.0823790974927663,0.48555537578107855,98.14079143272194,,0.0,,,42.4,,,0.0,0.0,20151018,52,2015-10-18T00:00:52Z,-17.0,99.99,99.99,3.75E7,0,0,0,0.0,0.0,0.0,0,0,0,0,0,0,,,,1219,48,56,36,2043,3706,3959,3960,0,15834,28,212,3,0,false,false,false,false,false,false,false,false,false,false,0,0,0,0,46,59,59,46,944,944,944,944,940,940,940,940,0.0,0.0,0.0,0.0,1720.8,1716.5,1715.9,1720.2,0.0,0.0,0.0,0.0,0,0,0,0,-45.0,-4.211888823185292E-11,1.5205535265435553E-11,0,23.527216,23.876017,0.06021594,-0.0025042058,-0.9801306,0.9819818,0.3464239,-0.12052983,0.24155238,0.4391862,-89,-5,1468,1470.0,2.7603292E-4,-6.921572E-4,5.423367E-4,9.2163164E-4,7.45168258146888E-4,-7.289532507166046E-4,0.11509124291331288,3.3713970996809226,-14.925980835649908,345.0740191643501,1.8949822312468874,2.9732270685080535,0.6214084924675427,107.567512660856,,7.028286715591672E-4,,,42.42,NONE,0.0,0.0,0.0,NONE,-2.8244229470340004E-11,-2.3927279705323584E-11,3.8146973E-6,17.315,17.315,6.186,1.2736167,0,3636,4.324,12.0,1.276,99,25.6,OK,51,0,0,0,0,0,65,100,0.0,0,0.0,589232.0,2.69E-43,0.0,-1.05007105E-23,62,1.9531325E-4,-1.9531422E-4,9.4E-44,False,False,0,None,0.0,1.0842022E-19,
214866623,55.843,0.0,0.0,0,23.44002,23.887255,0.057357337,-0.0025302144,-0.98155326,0.98323095,0.26014146,0.014841384,0.1430091,0.29722962,-89,-8,1459,1461.0,0.031166602,-0.01568954,-0.0114291515,0.036717083,0.0348929606122316,-0.0348929606122316,0.07624211740552193,3.428893813297432,129.56471790078214,129.56471790078217,1.8687452352913771,3.40477432536008,0.5118223938717764,99.02450899732699,,0.0,,,42.67,,,0.0,0.0,20151018,53,2015-10-18T00:00:53Z,-17.0,99.99,99.99,3.75E7,0,0,0,0.0,0.0,0.0,0,0,0,0,0,0,,,,1219,48,56,36,2043,3706,3959,3960,0,15834,28,212,3,0,false,false,false,false,false,false,false,false,false,false,0,0,0,0,47,58,58,46,944,944,944,945,940,940,940,940,0.0,0.0,0.0,0.0,1720.8,1715.9,1714.0,1720.8,0.0,0.0,0.0,0.0,0,0,0,0,-45.0,6.951695683669765E-11,-6.441959918525708E-11,0,23.627623,23.87736,0.05879208,-0.0016818903,-0.9810305,0.9827921,0.368818,0.13445573,0.1715454,0.4284074,-89,-8,1465,1467.0,-9.3136326E-4,0.0010612797,-1.533606E-4,0.0014203069,0.001412002830635612,-0.001397049022808928,0.12273085692317579,3.368716738434658,-14.915030585442386,345.08496941455763,2.0710601991967468,3.2948916297566426,0.668644792667288,103.92748086418322,,7.584076687209615E-4,,,42.7,NONE,0.0,0.0,0.0,NONE,2.939562521835616E-11,1.2130963482618783E-12,-1.9073486E-6,17.313,17.313,6.183,1.274218,0,3636,4.324,12.0,1.277,99,25.7,OK,52,0,0,0,0,0,65,100,0.0,0,0.0,589232.0,2.69E-43,0.0,-1.05007105E-23,62,1.9531325E-4,-1.9531422E-4,9.4E-44,False,False,0,None,0.0,1.0842022E-19,
218779559,56.860,0.0,0.0,0,23.500792,23.881449,0.059579846,-0.0027037514,-0.98144585,0.98325634,0.29848975,0.035125993,0.18110967,0.35089982,-89,-5,1475,1477.0,0.028488338,-0.015193619,-0.0036929497,0.03249722,0.032286707067195594,-0.032286707067195594,0.07888342868962196,3.418287171191968,129.55768258261756,129.55768258261753,2.027870544565782,3.7624747156600353,0.5864812270478752,97.25706290805078,,0.0,,,43.04,,,0.0,0.0,20151018,54,2015-10-18T00:00:54Z,-17.0,99.99,99.99,3.75E7,0,0,0,0.0,0.0,0.0,0,0,0,0,0,0,,,,1219,48,56,37,2043,3706,3959,3960,0,15834,28,212,3,0,false,false,false,false,false,false,false,false,false,false,0,0,0,0,47,60,60,47,944,945,944,944,940,940,940,940,0.0,0.0,0.0,0.0,1721.4,1715.3,1715.9,1719.6,0.0,0.0,0.0,0.0,0,0,0,0,-45.0,6.546354178914498E-11,-1.6824391421545565E-11,0,23.42945,23.87813,0.056592755,-0.0019243052,-0.9817031,0.98333484,0.346685,0.06407447,0.28384766,0.45262071,-89,-5,1475,1477.0,-3.4687368E-4,0.00102726,-0.0035810333,0.0037415752,0.001084243713286942,-0.0010790207624731063,0.11854111426087575,3.369721870641555,-14.941824164753443,345.0581758352466,2.249362336983411,3.628085636225231,0.7323379328503125,104.93814353373548,,8.385174533632866E-4,,,43.05,NONE,0.0,0.0,0.0,NONE,-2.0136271908559905E-11,-1.645209633785982E-11,3.8146973E-6,17.315,17.315,6.184,1.2753694,0,3636,4.323,12.0,1.305,99,25.7,OK,53,0,0,0,0,0,65,100,0.0,0,0.0,589232.0,2.69E-43,0.0,-1.05007105E-23,62,1.9531325E-4,-1.9531422E-4,9.4E-44,False,False,0,None,0.0,1.0842022E-19,
222645851,57.865,0.0,0.0,0,23.582705,23.877401,0.05892651,-0.0018987833,-0.98116237,0.98293215,0.20996791,0.042146817,0.15361819,0.26355535,-86,-8,1468,1470.0,0.027672168,-0.013784476,0.0014868155,0.03095111,0.030915377975834463,-0.030915377975834463,0.0749846626521609,3.4181621796062163,129.55132605178787,129.5513260517879,2.1905463817778466,4.036776244194905,0.6713077955333727,80.39705741155517,,0.0,,,43.32,,,0.0,0.0,20151018,55,2015-10-18T00:00:55Z,-17.0,99.99,99.99,3.75E7,0,0,0,0.0,0.0,0.0,0,0,0,0,0,0,,,,1219,48,56,38,2043,3706,3959,3960,0,15834,28,212,3,0,false,false,false,false,false,false,false,false,false,false,0,0,0,0,48,59,59,48,943,945,944,944,940,940,940,940,0.0,0.0,0.0,0.0,1720.8,1715.3,1715.9,1719.6,0.0,0.0,0.0,0.0,0,0,0,0,-45.0,-2.7094337000435953E-11,5.1351623349320346E-11,0,23.38453,23.87751,0.05767841,-0.002528632,-0.98264176,0.9843363,0.2614692,0.17190786,0.35927087,0.47643888,-89,-5,1468,1470.0,7.191477E-4,-4.3959112E-4,1.7050256E-4,8.5993303E-4,8.428604280658133E-4,-8.301393488424999E-4,0.10545551561447682,3.3625793436882057,-14.964193468470889,345.0358065315291,2.464703559370737,3.9306583782014886,0.8067233619136864,109.60182676383296,,9.030142434087135E-4,,,43.29,NONE,0.0,0.0,0.0,NONE,-1.42622155930763E-11,2.7951413099677564E-11,-1.9073486E-6,17.314,17.314,6.186,1.2779257,0,3635,4.323,12.0,1.305,99,25.7,OK,54,0,0,0,0,0,65,100,0.0,0,0.0,589232.0,2.69E-43,0.0,-1.05007105E-23,62,1.9531325E-4,-1.9531422E-4,9.4E-44,False,False,0,None,0.0,1.0842022E-19,
226504997,58.868,0.0,0.0,0,23.516645,23.895576,0.05796691,-0.0017782422,-0.9834185,0.98512703,0.32540035,0.029184127,0.11589861,0.34665486,-92,-8,1459,1461.0,0.02538199,-0.0124258185,-0.011262477,0.030421862,0.028260331927204205,-0.028260331927204205,0.08179897284007541,3.4101135234127065,129.5418232477056,129.54182324770557,2.3429173119331166,4.324096698722669,0.6924985706196105,116.61646174570797,,0.0,,,43.61,,,0.0,0.0,20151018,56,2015-10-18T00:00:56Z,-17.0,99.99,99.99,3.75E7,0,0,0,0.0,0.0,0.0,0,0,0,0,0,0,,,,1220,16,56,39,2043,3706,3958,3960,3,15828,28,1,17513,0,false,false,false,false,false,false,false,false,false,false,0,0,0,0,47,59,59,48,943,946,944,944,940,940,940,940,0.0,0.0,0.0,0.0,1720.2,1714.6,1715.9,1720.2,0.0,0.0,0.0,0.0,0,0,0,0,-45.0,-2.3010659913017218E-11,3.2101039229666946E-11,0,23.508718,23.877499,0.05863605,-0.0021563116,-0.9811221,0.98287505,0.28776875,0.051621083,0.3265966,0.43833882,-89,-11,1459,1461.0,4.8160317E-4,-3.4091092E-4,-2.5489717E-4,6.4275536E-4,5.900524351428444E-4,-5.878707248698927E-4,0.10863703077942882,3.3560699462364796,-14.952328222233373,345.04767177776665,2.712595598537709,4.226053791039872,0.8757718479630864,104.02002575367113,,9.501530290992146E-4,,,43.59,NONE,0.0,0.0,0.0,NONE,-1.1559546735364353E-11,2.6763415296626454E-11,-1.9073486E-6,17.313,17.313,6.185,1.2817804,0,3635,4.323,12.0,1.307,99,25.7,OK,55,0,0,0,0,0,65,100,0.0,0,0.0,589232.0,2.69E-43,0.0,-1.05007105E-23,62,1.9531325E-4,-1.9531422E-4,9.4E-44,False,False,0,None,0.0,1.0842022E-19,mcID(SN)|298DG13001W644
230608650,59.934,0.0,0.0,0,23.506077,23.867258,0.059729133,-0.0027181455,-0.98179656,0.9836155,0.42896196,0.14957888,0.1254241,0.4712891,-89,-8,1459,1461.0,0.022447122,-0.011102847,0.0063615744,0.025838267,0.025042892239795434,-0.025042892239795434,0.0860247722365924,3.416823588932905,129.53489298684045,129.53489298684042,2.4655511993764376,4.649199776692299,0.7843432069144252,100.49050903403939,,0.0,,,43.9,,,0.0,0.0,20151018,57,2015-10-18T00:00:57Z,-17.0,99.99,99.99,3.75E7,0,0,0,0.0,0.0,0.0,0,0,0,0,0,0,,,,1222,18,56,40,2045,3706,4002,4010,3587,16010,27,1,16080,0,false,false,false,false,false,false,false,false,false,false,0,0,0,0,48,60,59,48,943,946,944,944,940,940,940,940,0.0,0.0,0.0,0.0,1720.2,1715.9,1714.6,1719.6,0.0,0.0,0.0,0.0,0,0,0,0,-45.0,-9.464962030138893E-12,-2.7215189108267695E-11,0,23.511362,23.877846,0.05940332,-0.00216104,-0.98178226,0.9835801,0.35510683,0.043029353,0.14658141,0.38657275,-89,-11,1459,1461.0,-3.7577673E-4,-1.4854774E-4,-0.0024503495,0.0024834427,4.040724908452928E-4,-3.9772900553397555E-4,0.11341615612760303,3.3665998800056163,-14.932020074283963,345.06797992571603,2.8838837323456534,4.52133195241878,0.9024544198031148,102.85333246213357,,0.0010009193790599896,,,43.89,NONE,0.0,0.0,0.0,NONE,-5.544719610325944E-12,3.164089923649956E-11,1.9073486E-6,17.311,17.311,6.184,1.2862784,0,3634,4.324,12.0,1.309,99,25.7,OK,56,0,0,0,0,0,65,100,0.0,0,0.0,589232.0,2.69E-43,0.0,-1.05007105E-23,62,1.9531325E-4,-1.9531422E-4,9.4E-44,False,False,0,None,0.0,1.0842022E-19,mcVer|v3.4.1.6
234465335,60.936,0.0,0.0,0,23.410954,23.843573,0.058863554,-0.0016329987,-0.9836547,0.9854157,0.29955524,0.08333617,0.067023724,0.318073,-92,-8,1462,1464.0,0.021716492,-0.011220677,0.0069469605,0.025412003,0.02444400977184979,-0.02444400977184979,0.09247006681240433,3.416818382034832,129.52674828551517,129.52674828551517,2.6098971214234967,4.982722742506613,0.8476730999392168,114.41717867950439,,0.0,,,44.21,,,0.0,0.0,20151018,58,2015-10-18T00:00:58Z,-17.0,99.99,99.99,3.75E7,0,0,0,0.0,0.0,0.0,0,0,0,0,0,0,,,,4370,19,100,41,3677,3677,4391,4393,171,17595,26,1,17601,0,false,false,false,false,false,false,false,false,false,false,0,0,0,0,47,59,59,46,943,946,944,944,940,940,940,940,0.0,0.0,0.0,0.0,1720.2,1714.6,1715.3,1720.2,0.0,0.0,0.0,0.0,0,0,0,0,-45.0,8.323186564393539E-13,-6.1742421035359654E-12,0,23.569492,23.87756,0.059392158,-0.0021222131,-0.9829188,0.9847138,0.2879922,0.1462896,0.07179315,0.33089942,-89,-11,1453,1455.0,-4.27982E-5,2.1950515E-5,-7.792541E-4,7.8073714E-4,4.8098972550599576E-5,-4.550024095451997E-5,0.12093215060760766,3.362237186334565,-14.947869560480157,345.05213043951983,2.979340543893948,4.812669503802784,0.9710731385533121,104.47810435463468,,0.001046282199128004,,,44.18,NONE,0.0,0.0,0.0,NONE,-2.1940703703813978E-11,1.7343094688443412E-11,-3.8146973E-6,17.312,17.312,6.184,1.2905464,0,3634,4.323,12.0,1.289,99,25.7,OK,57,0,0,0,0,0,65,100,0.0,0,0.0,589232.0,2.69E-43,0.0,-5.9807744E7,62,1.9531325E-4,-1.9531422E-4,9.4E-44,False,False,0,None,0.0,1.0842022E-19,
238363395,61.950,0.0,0.0,0,23.447947,23.797731,0.059335448,-0.0013673529,-0.9811186,0.9829122,0.23245075,-0.061161224,0.26079503,0.35466617,-89,-11,1459,1461.0,0.019993922,-0.010241967,0.013616609,0.026269123,0.02246452256284682,-0.02246452256284682,0.09842474495255957,3.411648229364859,129.51488578346328,129.51488578346328,2.7944250319866093,5.325210317621668,0.8919324624728987,98.50374182964687,,0.0,,,44.57,,,0.0,0.0,20151018,59,2015-10-18T00:00:59Z,-17.0,99.99,99.99,3.75E7,0,0,0,0.0,0.0,0.0,0,0,0,0,0,0,,,,4370,48,100,42,3677,3677,4391,4393,171,17595,26,212,17601,0,false,false,false,false,false,false,false,false,false,false,0,0,0,0,48,61,60,48,943,945,944,944,940,940,940,940,0.0,0.0,0.0,0.0,1719.6,1716.5,1714.0,1720.2,0.0,0.0,0.0,0.0,0,0,0,0,-45.0,1.3988857142838397E-10,8.314311386017901E-11,0,23.371319,23.877157,0.059205174,-0.0020443369,-0.98095006,0.9827372,0.29217938,0.16223848,0.16277821,0.37173492,-89,-8,1465,1467.0,0.0012669561,0.002094394,0.0015197074,0.0028811758,0.0024477876212073693,-0.0024296478356176554,0.1253257708860569,3.3636344158428084,-14.963783054511554,345.03621694548843,3.2078795181900928,5.204729482045794,1.042602506197995,104.4742161261698,,0.0010987418582020863,,,44.52,NONE,0.0,0.0,0.0,NONE,-3.69170840211999E-12,2.5282601134422402E-11,1.9073486E-6,17.31,17.31,6.183,1.2936213,0,3633,4.323,12.0,1.292,99,25.7,OK,58,0,0,0,0,0,65,100,0.0,0,0.0,589232.0,2.69E-43,0.0,-5.9807744E7,62,1.9531325E-4,-1.9531422E-4,9.4E-44,False,False,0,None,0.0,1.0842022E-19,
242306860,62.974,0.0,0.0,0,23.360748,23.795313,0.05839928,-0.0021029436,-0.98178035,0.98351794,0.28810367,-0.010424021,0.14946167,0.32473245,-89,-11,1453,1455.0,0.016047757,-0.0106980875,-0.0014978491,0.019344848,0.01928677211539035,-0.01928677211539035,0.1022325797373458,3.403709571359554,129.50024526401359,129.50024526401359,2.959694720299347,5.62040167890801,0.919380101228279,100.74026947168333,,0.0,,,44.87,,,0.0,0.0,20151018,100,2015-10-18T00:01:00Z,-17.0,99.99,99.99,3.75E7,0,0,0,0.0,0.0,0.0,0,0,0,0,0,0,,,,4370,48,100,43,3677,3677,4391,4393,171,17595,26,212,17601,0,false,false,false,false,false,false,false,false,false,false,0,0,0,0,48,60,60,48,943,945,944,945,940,940,940,940,0.0,0.0,0.0,0.0,1719.6,1715.3,1714.6,1720.2,0.0,0.0,0.0,0.0,0,0,0,0,-45.0,3.795868998349543E-12,-1.0584893102039206E-10,0,23.199568,23.877632,0.058217477,-0.0028098146,-0.97972625,0.9814585,0.33091772,0.1450804,0.16696571,0.39803568,-92,-8,1453,1455.0,-0.0016211699,8.07498E-6,1.20584155E-4,0.0016256683,0.0016211899579286525,-0.001595922305760432,0.11696495541600686,3.3691648143947552,-14.97799736749021,345.0220026325098,3.332073583962732,5.546123306760783,1.1245931771409374,120.46508356723255,,0.001169710249520038,,,44.86,NONE,0.0,0.0,0.0,NONE,2.391588240779524E-12,-3.227672904494725E-11,0.0,17.309,17.309,6.183,1.2955434,0,3633,4.323,12.0,1.299,99,25.7,OK,59,0,0,0,0,0,65,100,0.0,0,0.0,589232.0,2.69E-43,0.0,-5.9807744E7,62,1.9531325E-4,-1.9531422E-4,9.4E-44,False,False,0,None,0.0,1.0842022E-19,
246254355,64.000,0.0,0.0,0,23.397741,23.829145,0.05839436,-0.0023413962,-0.98113483,0.98287386,0.25532678,-0.021078397,0.14575262,0.29475394,-89,-11,1459,1461.0,0.014681852,-0.013038151,-0.014523795,0.024423162,0.019635431518151707,-0.019635431518151707,0.09134662008327255,3.3883247357190167,129.49138976572803,129.49138976572806,3.1206022395995956,5.951323789092953,0.9292347249986133,101.09948854771191,,0.0,,,45.13,,,0.0,0.0,20151018,101,2015-10-18T00:01:01Z,-17.0,99.99,99.99,3.75E7,0,0,0,0.0,0.0,0.0,0,0,0,0,0,0,,,,4370,48,100,44,3677,3677,4391,4393,171,17595,26,212,17601,0,false,false,false,false,false,false,false,false,false,false,0,0,0,0,47,60,60,48,943,945,944,944,940,940,940,940,0.0,0.0,0.0,0.0,1720.2,1714.6,1714.6,1720.8,0.0,0.0,0.0,0.0,0,0,0,0,-45.0,4.5497649136657143E-11,4.618132304840752E-12,0,23.569492,23.877895,0.056794528,-0.002531304,-0.98218864,0.98383254,0.30451337,0.08449792,0.357485,0.4771413,-86,-8,1459,1461.0,1.6163322E-6,7.0049E-4,-0.0011856675,0.0013771333,7.004918816074633E-4,-6.87694318174513E-4,0.10790459780231235,3.3537715300575184,-15.022933880727226,344.97706611927276,3.5167988063883975,5.816845052238887,1.1764445684698608,92.66825097824099,,0.001222906104858963,,,45.17,NONE,0.0,0.0,0.0,NONE,-1.4606699662587403E-11,-5.262328297345765E-12,5.722046E-6,17.311,17.311,6.184,1.2969134,0,3633,4.323,12.0,1.299,99,25.7,OK,60,0,0,0,0,0,65,100,0.0,0,0.0,589232.0,2.69E-43,0.0,-5.9807744E7,62,1.9531325E-4,-1.9531422E-4,9.4E-44,False,False,0,None,0.0,1.0842022E-19,
250111446,65.003,0.0,0.0,0,23.791447,23.86266,0.059198726,-0.001012003,-0.98078746,0.9825729,0.20569874,-0.14054887,0.091299735,0.265333,-86,-8,1465,1467.0,0.017291093,-0.012343457,-0.014957814,0.025982283,0.02124483097149272,-0.02124483097149272,0.09474320778210082,3.4009725198214453,129.48315919457494,129.4831591945749,3.254097388651353,6.259831046416218,0.965944259759502,84.19705950923874,,0.0,,,45.47,,,0.0,0.0,20151018,102,2015-10-18T00:01:02Z,-17.0,99.99,99.99,3.75E7,0,0,0,0.0,0.0,0.0,0,0,0,0,0,0,,,,4370,48,100,45,3677,3677,4391,4393,171,17595,26,212,17601,0,false,false,false,false,false,false,false,false,false,false,0,0,0,0,48,59,59,48,943,945,944,944,940,940,940,940,0.0,0.0,0.0,0.0,1720.2,1715.3,1714.6,1721.4,0.0,0.0,0.0,0.0,0,0,0,0,-45.0,-6.06872363595337E-11,-9.764170675013255E-11,0,23.413595,23.878336,0.058828335,-0.004753516,-0.9811525,0.982926,0.3602091,0.09505589,0.11959068,0.3912648,-86,-11,1465,1467.0,-0.0014892913,-0.0010691419,-0.0021136813,0.0027979817,0.0018333175207289616,-0.0018169652080670426,0.11106010737442285,3.3722931473185764,-15.011107535580495,344.9888924644195,3.6703269769351845,6.086798471193504,1.249417699800057,88.65832623637843,,0.0013236016670843914,,,45.49,NONE,0.0,0.0,0.0,NONE,-1.3745309747421933E-11,-3.200901122680302E-11,-5.722046E-6,17.31,17.31,6.184,1.2978591,0,3632,4.323,12.0,1.294,99,25.7,OK,61,0,0,0,0,0,65,100,0.0,0,0.0,589232.0,2.69E-43,0.0,-5.9807744E7,62,1.9531325E-4,-1.9531422E-4,9.4E-44,False,False,0,None,0.0,1.0842022E-19,
254033762,66.022,0.0,0.0,0,23.535143,23.84759,0.05957552,-0.0017912933,-0.981294,0.9831024,0.329827,0.03428379,0.067469895,0.33839834,-89,-11,1459,1461.0,0.016292704,-0.011067695,-4.9821066E-4,0.019702647,0.019696347010009625,-0.019696347010009625,0.0861165893206594,3.380081875227739,129.47246917788837,129.47246917788834,3.4020215466787027,6.583143887209386,1.0240313342083496,102.08443375314916,,0.0,,,45.78,,,0.0,0.0,20151018,171536,2015-10-18T17:15:36Z,-17.0,99.99,99.99,3.75E7,0,0,0,0.0,0.0,0.0,0,0,0,0,0,0,,,,6369,16,100,46,3705,3706,4348,4363,-2290,17346,25,0,17403,0,false,false,false,false,false,false,false,false,false,false,0,0,0,0,48,60,61,47,943,945,944,944,940,940,940,940,0.0,0.0,0.0,0.0,1719.6,1715.3,1713.4,1720.2,0.0,0.0,0.0,0.0,0,0,0,0,-45.0,3.626850885514044E-11,7.158105072809268E-11,0,23.40831,23.877623,0.05701613,-0.002476649,-0.9820673,0.9837241,0.31417838,0.03922049,0.33003104,0.45734757,-89,-11,1462,1464.0,0.0010114734,5.262586E-4,0.0011259051,0.0016024009,0.0011401870447955845,-0.0011189132314611795,0.11247868274139065,3.338165587014616,-14.990872952141002,345.009127047859,3.856957381879691,6.4408854217446665,1.260787980092241,105.01196399212505,,0.0014261976765680843,,,45.8,NONE,0.0,0.0,0.0,NONE,-5.5396672204373106E-11,-1.1737752941589588E-11,0.0,17.309,17.309,6.184,1.2982761,0,3632,4.323,12.0,1.295,99,25.8,OK,62,0,0,0,0,0,65,100,0.0,0,0.0,589232.0,2.69E-43,0.0,-5.9807744E7,62,1.9531325E-4,-1.9531422E-4,9.4E-44,False,False,0,None,0.0,1.0842022E-19,
257947389,67.039,0.0,0.0,0,23.358107,23.830637,0.058260385,-0.0032016444,-0.98156995,0.98330265,0.29490224,0.09678766,0.20242979,0.37055767,-89,-11,1459,1461.0,0.016648669,-0.009879478,-0.002415548,0.01950941,0.019359293592488124,-0.019359293592488124,0.11326556717179591,3.367085018005039,129.4610514655176,129.46105146551758,3.5796270442760076,6.930372770675789,1.0330120216047987,102.80820166302189,,0.0,,,46.07,,,0.0,0.0,20151018,171537,2015-10-18T17:15:37Z,-17.0,99.99,99.99,3.75E7,0,0,0,0.0,0.0,0.0,0,0,0,0,0,0,,,,6369,16,100,46,3705,3706,4348,4363,-2290,17346,25,0,17403,0,false,false,false,false,false,false,false,false,false,false,0,0,0,0,47,60,60,48,943,945,944,944,940,940,940,940,0.0,0.0,0.0,0.0,1720.2,1714.0,1714.6,1720.8,0.0,0.0,0.0,0.0,0,0,0,0,-45.0,3.5624247503052486E-12,5.866366616560201E-11,0,23.313187,23.877527,0.058579963,-0.001831173,-0.9816204,0.98336846,0.28088507,0.11040845,0.09549976,0.31655434,-89,-11,1462,1464.0,0.0026414392,1.6286863E-4,0.001892913,0.0032537435,0.002646455592920728,-0.0026426113394368306,0.1410102643673679,3.316673060017239,-14.983765564317162,345.01623443568286,4.0076326544907666,6.7530924597098965,1.3006934935925356,106.30228360496606,,0.0014950289031322415,,,46.05,NONE,0.0,0.0,0.0,NONE,2.6001831316779053E-11,2.4119701874825478E-11,1.9073486E-6,17.308,17.308,6.183,1.2981398,0,3632,4.323,12.0,1.289,99,25.8,OK,63,0,0,0,0,0,65,100,0.0,0,0.0,589232.0,2.69E-43,0.0,-5.9807744E7,62,1.9531325E-4,-1.9531422E-4,9.4E-44,False,False,0,None,0.0,1.0842022E-19,
261977099,68.087,0.0,0.0,0,23.56685,23.810131,0.05859031,-0.0019719875,-0.9812059,0.9829556,0.3550569,0.041702185,0.11918058,0.37684014,-89,-11,1462,1464.0,0.012178117,-0.008173934,0.005191461,0.015558631,0.01466696084606719,-0.01466696084606719,0.11517276049968121,3.3666739823727907,129.44022398285716,129.44022398285716,3.7260450693316916,7.2135453259715225,1.089650546552452,102.11029878775409,,0.0,,,46.37,,,0.0,0.0,20151018,171538,2015-10-18T17:15:38Z,-17.0,99.99,99.99,3.75E7,0,0,0,0.0,0.0,0.0,0,0,0,0,0,0,,,,6645,48,98,48,3610,3706,4320,4330,-1306,17360,27,208,17356,0,false,false,false,false,false,false,false,false,false,false,0,0,0,0,48,59,61,49,943,945,944,943,940,940,940,940,0.0,0.0,0.0,0.0,1720.2,1715.3,1714.6,1719.6,0.0,0.0,0.0,0.0,0,0,0,0,-45.0,1.2432198311635312E-10,-1.3313104957200058E-10,0,23.614412,23.878172,0.057857066,-0.0016390667,-0.98257834,0.9842816,0.4108167,0.07321789,0.21351886,0.46874464,-92,-8,1465,1467.0,-0.0020165083,0.0018569037,-6.0923124E-4,0.0028081238,0.002741239985283262,-0.002717176470263174,0.14592671294656723,3.3488372387008605,-15.005226715440696,344.9947732845593,4.140629965811547,7.090335185913882,1.3000570741378086,118.1098013946638,,0.001557061532417239,,,46.37,NONE,0.0,0.0,0.0,NONE,2.1421085388220294E-11,3.4385006837927275E-11,5.722046E-6,17.307,17.307,6.184,1.297559,0,3631,4.322,12.0,1.295,98,25.8,OK,64,0,0,0,0,0,65,100,0.0,0,0.0,589232.0,2.69E-43,0.0,-5.9807744E7,62,1.9531325E-4,-1.9531422E-4,9.4E-44,False,False,0,None,0.0,1.0842022E-19,
265838351,69.090,0.0,0.0,0,23.352821,23.827272,0.058399033,-0.002139458,-0.9829758,0.98471135,0.34515882,0.016070679,0.11284477,0.36349252,-86,-11,1462,1464.0,0.009269669,-0.009968626,-7.4171484E-4,0.013632696,0.013612504395453235,-0.013612504395453235,0.12004938711844258,3.3673206122624,129.42701812055324,129.42701812055327,3.8773999710493827,7.510543723758651,1.1529825186972882,89.91672950622211,,0.0,,,46.66,,,0.0,0.0,20151018,171539,2015-10-18T17:15:39Z,-17.0,99.99,99.99,3.75E7,0,0,0,0.0,0.0,0.0,0,0,0,0,0,0,,,,6647,23,98,49,3610,3706,4325,4337,-590,17362,27,774,16793,0,false,false,false,false,false,false,false,false,false,false,0,0,0,0,48,60,60,49,943,945,945,943,940,940,940,940,0.0,0.0,0.0,0.0,1720.8,1714.6,1714.6,1719.6,0.0,0.0,0.0,0.0,0,0,0,0,-45.0,-1.0843813353221782E-11,5.312525386812289E-11,0,23.284122,23.878012,0.05820221,-3.161584E-4,-0.97896737,0.980696,0.35255206,0.1344493,0.11309702,0.39390418,-86,-11,1459,1461.0,8.2676136E-4,-1.09948356E-4,-9.957514E-5,8.399632E-4,8.340401589661526E-4,-8.085403485909038E-4,0.13659043689422892,3.3596775884490757,-15.05520598387141,344.9447940161286,4.295357620624989,7.454509319712959,1.3254824259578935,91.38866411301395,,0.001628018150829753,,,46.69,NONE,0.0,0.0,0.0,NONE,5.794365164707896E-11,3.11556606934039E-11,0.0,17.307,17.307,6.184,1.2968603,0,3631,4.322,12.0,1.295,98,25.8,OK,65,0,0,0,0,0,65,100,0.0,0,0.0,589232.0,2.69E-43,0.0,-5.9807744E7,62,1.9531325E-4,-1.9531422E-4,9.4E-44,False,False,0,None,0.0,1.0842022E-19,
269776618,70.114,0.0,0.0,0,23.553638,23.825378,0.05852929,-5.018804E-4,-0.98105234,0.98279685,0.15951799,0.03064737,0.12513915,0.20504892,-89,-11,1456,1458.0,0.007119068,-0.010914884,0.0010247258,0.013071568,0.013031339752779533,-0.013031339752779533,0.11741489226160447,3.3768264030672914,129.4195376831999,129.4195376831999,4.009675877709352,7.793939957944477,1.1641288236093876,102.44000578162326,,0.0,,,47.04,,,0.0,0.0,20151018,171540,2015-10-18T17:15:40Z,-17.0,99.99,99.99,3.75E7,0,0,0,0.0,0.0,0.0,0,0,0,0,0,0,,,,7344,48,91,50,3353,3706,4249,4258,-1121,17012,30,212,17021,0,false,false,false,false,false,false,false,false,false,false,0,0,0,0,48,60,61,47,943,945,945,943,940,940,940,940,0.0,0.0,0.0,0.0,1720.8,1714.6,1715.3,1720.8,0.0,0.0,0.0,0.0,0,0,0,0,-45.0,7.70520106829674E-11,4.196476746837473E-11,0,23.471727,23.877493,0.059861384,-0.0013364814,-0.9818739,0.9836979,0.3879724,0.12911773,0.043466076,0.41119736,-92,-11,1453,1455.0,6.936345E-4,0.0011275449,0.0016195268,0.0020917347,0.001323815075886491,-0.00131418959856948,0.13369499936294155,3.369475814540371,-15.020206434427767,344.9797935655722,4.393135465404733,7.785094072111562,1.3640880308381382,114.1203096872633,,0.0016818580947826202,,,47.01,NONE,0.0,0.0,0.0,NONE,4.309237189313507E-11,3.507939991587011E-11,-1.9073486E-6,17.306,17.306,6.181,1.2963833,0,3631,4.321,12.0,1.301,98,25.8,OK,66,0,0,0,0,0,65,100,0.0,0,0.0,589232.0,2.69E-43,0.0,-1.05007105E-23,62,1.9531325E-4,-1.9531422E-4,9.4E-44,False,False,0,None,0.0,1.0842022E-19,
273691427,71.131,0.0,0.0,0,23.56685,23.830471,0.062026773,-2.1398067E-5,-0.98065,0.9826097,0.3449797,0.098141775,0.08313518,0.36817694,-89,-14,1456,1458.0,0.0047491128,-0.01489279,-0.0062282225,0.016826764,0.015631674294736116,-0.015631674294736116,0.10569624111162226,3.3915689949079884,129.40026024695774,129.4002602469577,4.161166199249265,8.105847505451193,1.226080195569518,99.22361103186465,,0.0,,,47.3,,,0.0,0.0,20151018,171541,2015-10-18T17:15:41Z,-17.0,99.99,99.99,3.75E7,0,0,0,0.0,0.0,0.0,0,0,0,0,0,0,,,,7344,17,91,51,3353,3706,4249,4259,-1047,17024,30,0,17021,0,false,false,false,false,false,false,false,false,false,false,0,0,0,0,48,61,61,48,943,945,945,944,940,940,940,940,0.0,0.0,0.0,0.0,1719.6,1714.0,1714.0,1719.6,0.0,0.0,0.0,0.0,0,0,0,0,-45.0,-2.7387038977112315E-11,-3.1122195967172392E-12,0,23.376602,23.877943,0.05864423,-2.838513E-4,-0.9809287,0.9826802,0.32245046,0.027596813,0.19840135,0.37960368,-83,-11,1456,1458.0,-1.344543E-4,-0.0012168279,8.598805E-4,0.0014960422,0.0012242336459648766,-0.0012118018605862292,0.10914929668653799,3.374672919998878,-15.026942036495829,344.9730579635042,4.492888411912478,8.05386933231914,1.4232429561438338,78.30902176483818,,0.0017424611698797518,,,47.26,NONE,0.0,0.0,0.0,NONE,-1.3223665245842635E-11,-8.424744983284396E-12,-1.9073486E-6,17.306,17.306,6.181,1.2961468,0,3630,4.322,12.0,1.292,98,25.9,OK,67,0,0,0,0,0,65,100,0.0,0,0.0,589232.0,2.69E-43,0.0,-1.05007105E-23,62,1.9531325E-4,-1.9531422E-4,9.4E-44,False,False,0,None,0.0,1.0842022E-19,
277586685,72.144,0.0,0.0,0,23.479654,23.79574,0.058686122,-9.7613176E-4,-0.9828604,0.9846114,0.32727796,0.14480905,0.15763909,0.39106345,-92,-11,1465,1467.0,0.004241763,-0.015345515,0.012739003,0.020390183,0.015920972540682424,-0.015920972540682424,0.09847334501725796,3.3883243498414064,129.39221631291431,129.39221631291434,4.319142636291891,8.408671578022824,1.2562443154921767,111.24185466734079,,0.0,,,47.6,,,0.0,0.0,20151018,171542,2015-10-18T17:15:42Z,-17.0,99.99,99.99,3.75E7,0,0,0,0.0,0.0,0.0,0,0,0,0,0,0,,,,7401,16,91,52,3358,3711,4261,4271,-628,17036,29,0,16392,0,false,false,false,false,false,false,false,false,false,false,0,0,0,0,48,61,61,48,943,945,944,944,940,940,940,940,0.0,0.0,0.0,0.0,1720.2,1715.3,1714.6,1720.8,0.0,0.0,0.0,0.0,0,0,0,0,-45.0,-1.7015244940965872E-11,1.930078120712124E-11,0,23.500792,23.878456,0.05903735,-8.4889494E-4,-0.9827909,0.9845629,0.29599357,0.0610065,0.20652817,0.36604354,-83,-11,1462,1464.0,8.7743753E-4,-7.6607737E-4,-0.0022622256,0.0025444913,0.0011648052351381985,-0.0011620926385190564,0.1081629718695792,3.36802312356628,-15.03950288177419,344.9604971182258,4.608906374042095,8.381714736269469,1.4980525998894725,77.56797602896623,,0.0018507706240527284,,,47.56,NONE,0.0,0.0,0.0,NONE,-5.512006531854479E-12,-3.193371559203308E-11,-1.9073486E-6,17.305,17.305,6.181,1.2960234,0,3630,4.322,12.0,1.301,98,25.9,OK,68,0,0,0,0,0,65,100,0.0,0,0.0,589232.0,2.69E-43,0.0,-1.05007105E-23,62,1.9531325E-4,-1.9531422E-4,9.4E-44,False,False,0,None,0.0,1.0842022E-19,
281436258,73.144,0.0,0.0,0,23.487581,23.815151,0.058582664,-0.0012692222,-0.98189527,0.9836421,0.18149453,0.08044382,0.14959763,0.2485778,-86,-11,1453,1455.0,0.009410499,-0.016066104,-0.009026383,0.020691853,0.018619268892553265,-0.018619268892553265,0.08732022763628276,3.396811312125075,129.3913819184743,129.39138191847428,4.4634183786971375,8.682775766651059,1.3285054461532289,88.95327986260304,,0.0,,,47.92,,,0.0,0.0,20151018,171543,2015-10-18T17:15:43Z,-17.0,99.99,99.99,3.75E7,0,0,0,0.0,0.0,0.0,0,0,0,0,0,0,,,,7401,20,91,53,3358,3711,4261,4271,-628,17036,29,2,16392,0,false,false,false,false,false,false,false,false,false,false,0,0,0,0,48,60,61,49,943,945,944,943,940,940,940,940,0.0,0.0,0.0,0.0,1720.8,1715.3,1714.0,1720.2,0.0,0.0,0.0,0.0,0,0,0,0,-45.0,8.879185516765898E-11,-5.814496289783159E-11,0,23.5325,23.877705,0.058271203,-0.0015014396,-0.9811221,0.9828521,0.2577205,0.009718886,0.14327651,0.2950296,-86,-11,1450,1452.0,-8.669832E-4,0.0013409901,0.002123685,0.0026570573,0.0015968451303492268,-0.0015822721201947296,0.11067521371593904,3.366345183554395,-15.041447999960177,344.95855200003984,4.762583173501342,8.684670017400219,1.546279299370209,92.94089781759727,,0.001915807963072225,,,47.92,NONE,0.0,0.0,0.0,NONE,2.553358658341524E-11,-3.671080534994302E-11,1.9073486E-6,17.304,17.304,6.181,1.296103,0,3629,4.322,12.0,1.298,98,25.9,OK,69,0,0,0,0,0,65,100,0.0,0,0.0,589232.0,2.69E-43,0.0,-1.05007105E-23,62,1.9531325E-4,-1.9531422E-4,9.4E-44,False,False,0,None,0.0,1.0842022E-19,
285422362,74.180,0.0,0.0,0,23.434734,23.785475,0.057743713,-9.4249565E-4,-0.9809287,0.9826273,0.17921303,-0.059395537,0.12112673,0.22431412,-89,-11,1459,1461.0,0.013329748,-0.013269472,0.011942425,0.022279644,0.018808537304378595,-0.018808537304378595,0.07597800235127003,3.3875389004049694,129.38545948564013,129.38545948564013,4.573984474143358,8.933806423945427,1.3966872839476205,101.51100752721209,,0.0,,,48.25,,,0.0,0.0,20151018,171544,2015-10-18T17:15:44Z,-17.0,99.99,99.99,3.75E7,0,0,0,0.0,0.0,0.0,0,0,0,0,0,0,,,,7571,48,89,54,3294,3711,4230,4240,-1092,16947,30,212,16943,0,false,false,false,false,false,false,false,false,false,false,0,0,0,0,47,62,60,48,943,945,944,944,940,940,940,940,0.0,0.0,0.0,0.0,1719.6,1714.0,1712.8,1720.2,0.0,0.0,0.0,0.0,0,0,0,0,-45.0,-2.7088127724176895E-11,-4.591360523510327E-11,0,23.220707,23.877691,0.057660352,-0.0018489487,-0.9819109,0.98360413,0.2442514,-0.009787395,0.115027,0.27015877,-86,-11,1459,1461.0,-7.136496E-4,-4.2483615E-4,0.0018863594,0.0020611,8.305308721970984E-4,-8.180239087956722E-4,0.11445848400310749,3.3566188345964165,-15.022775362030286,344.9772246379697,4.939155764738839,8.998884604932444,1.6191133773316961,91.76458279221201,,0.0019981353260313337,,,48.25,NONE,0.0,0.0,0.0,NONE,-5.081932503689549E-12,-3.3506557756603183E-11,7.6293945E-6,17.304,17.304,6.183,1.2966076,0,3629,4.322,12.0,1.31,98,25.9,OK,70,0,0,0,0,0,65,100,0.0,0,0.0,589232.0,2.69E-43,0.0,-1.05007105E-23,62,1.9531325E-4,-1.9531422E-4,9.4E-44,False,False,0,None,0.0,1.0842022E-19,
289346838,75.200,0.0,0.0,0,23.582705,23.817764,0.058034495,-0.0025309515,-0.9810855,0.9828037,0.3669275,0.051346567,0.0864398,0.3804525,-86,-11,1462,1464.0,0.017470881,-0.01034262,-0.0015435717,0.020361338,0.020302745621610666,-0.020302745621610666,0.07427971919522465,3.3834178647871087,129.39353147476933,129.39353147476936,4.708416651591609,9.230631029597749,1.4231053506591047,88.07895160153353,,0.0,,,48.54,,,0.0,0.0,20190428,171545,2019-04-28T17:15:45Z,-17.0,99.99,99.99,3.75E7,0,0,0,0.0,0.0,0.0,0,0,0,0,0,0,,,,7571,17,89,55,3294,3711,4230,4240,-1092,16947,30,0,16943,0,false,false,false,false,false,false,false,false,false,false,0,0,0,0,49,62,61,49,943,946,944,944,940,940,940,940,0.0,0.0,0.0,0.0,1719.6,1715.3,1714.6,1719.6,0.0,0.0,0.0,0.0,0,0,0,0,-45.0,-6.001689605416825E-11,4.576301396289254E-11,0,23.344894,23.877886,0.05737343,-0.0017466298,-0.9813854,0.9830626,0.22379051,0.13621119,0.10466204,0.28211668,-86,-11,1459,1461.0,6.537996E-4,-8.8394154E-4,9.046903E-4,0.0014238227,0.001099457396152964,-0.001088837688108286,0.12171152482937908,3.3475579929607857,-15.025239281103701,344.9747607188963,5.074796686734301,9.285766040697714,1.6376867720726735,92.67971555118724,,0.002066187361108844,,,48.54,NONE,0.0,0.0,0.0,NONE,-9.132471667026398E-12,-2.0689567371154594E-11,-3.8146973E-6,17.304,17.304,6.182,1.2974648,0,3629,4.321,12.0,1.295,98,25.9,OK,71,0,0,0,0,0,65,100,0.0,0,0.0,589232.0,2.69E-43,0.0,-1.05007105E-23,62,1.9531325E-4,-1.9531422E-4,9.4E-44,False,False,0,None,0.0,1.0842022E-19,
293202677,76.202,0.0,0.0,0,23.495508,23.778536,0.059324488,-0.0012154942,-0.9814082,0.9832003,0.3964809,0.10990023,0.12029408,0.42865583,-89,-8,1456,1458.0,0.015870342,-0.0065471516,0.009867932,0.019801743,0.0171677881083245,-0.0171677881083245,0.06731271757330777,3.3747850754594952,129.38455141205404,129.38455141205407,4.825080435370883,9.512542771598739,1.4443243337062381,107.89686390043494,,0.0,,,48.87,,,0.0,0.0,20190428,171546,2019-04-28T17:15:46Z,-17.0,99.99,99.99,3.75E7,0,0,0,0.0,0.0,0.0,0,0,0,0,0,0,,,,7738,48,89,56,3294,3711,4252,4257,-3,17003,30,212,4,0,false,false,false,false,false,false,false,false,false,false,0,0,0,0,49,60,60,50,944,945,944,944,940,940,940,940,0.0,0.0,0.0,0.0,1719.6,1715.9,1714.0,1719.6,0.0,0.0,0.0,0.0,0,0,0,0,-45.0,-1.634019865533775E-12,1.195192719309594E-10,0,23.42945,23.877998,0.058374353,-0.002001898,-0.97983867,0.98157805,0.30369475,0.0817768,0.20378,0.37475893,-89,-11,1456,1458.0,0.0017720531,-4.996227E-5,0.0012414252,0.00216421,0.0017727573007192854,-0.0017623196385442017,0.12154263726823636,3.3508636368700007,-15.021336095164882,344.9786639048351,5.188822581907524,9.565736457711864,1.6743255120934104,104.88902547039817,,0.0021280501013884795,,,48.86,NONE,0.0,0.0,0.0,NONE,-3.1434097679737996E-11,1.9652160840955025E-11,3.8146973E-6,17.303,17.303,6.181,1.2982183,0,3628,4.321,12.0,1.3,98,25.9,OK,72,0,0,0,0,0,65,100,0.0,0,0.0,589232.0,2.69E-43,0.0,-1.05007105E-23,62,1.9531325E-4,-1.9531422E-4,9.4E-44,False,False,0,None,0.0,1.0842022E-19,
297057480,77.204,0.0,0.0,0,23.54307,23.794422,0.057821177,-0.003346995,-0.9799239,0.981634,0.20989221,-0.009082824,0.20377553,0.2926802,-83,-8,1459,1461.0,0.015057266,-0.0059745857,0.00540252,0.017076422,0.016199287895092323,-0.016199287895092323,0.057226234537051626,3.381024526793337,129.38147953903274,129.38147953903274,4.988982265049887,9.776534815784883,1.4757813507860122,71.362494472125,,0.0,,,49.11,,,0.0,0.0,20190428,171547,2019-04-28T17:15:47Z,-17.0,99.99,99.99,3.75E7,0,0,0,0.0,0.0,0.0,0,0,0,0,0,0,,,,7738,48,89,57,3294,3711,4252,4257,-3,17003,30,212,4,0,false,false,false,false,false,false,false,false,false,false,0,0,0,0,49,62,60,49,944,946,944,944,940,940,940,940,0.0,0.0,0.0,0.0,1719.6,1714.0,1714.6,1719.6,0.0,0.0,0.0,0.0,0,0,0,0,-45.0,-1.6282681155934622E-12,-2.2555225894103916E-11,0,23.572134,23.878052,0.05790738,-0.0016635172,-0.9815729,0.98328096,0.4227945,0.03475643,0.22224672,0.4789121,-83,-8,1456,1458.0,-3.4376603E-4,4.722556E-6,-0.0011951945,0.0012436588,3.437984750256036E-4,-3.2802962154997856E-4,0.1257592359188824,3.355394105857077,-15.033347747675494,344.9666522523245,5.351687723098989,9.86654341483887,1.7404030904553558,78.09872836531717,,0.0022149546336880034,,,49.14,NONE,0.0,0.0,0.0,NONE,-8.79808584232241E-12,-1.9225485572953187E-11,3.8146973E-6,17.301,17.301,6.181,1.2986035,0,3628,4.321,12.0,1.293,98,25.9,OK,73,0,0,0,0,0,65,100,0.0,0,0.0,589232.0,2.69E-43,0.0,-1.05007105E-23,62,1.9531325E-4,-1.9531422E-4,9.4E-44,False,False,0,None,0.0,1.0842022E-19,
300955394,78.217,0.0,0.0,0,23.162575,23.773443,0.057536874,-0.0022648494,-0.9813959,0.9830837,0.34880298,0.031733736,0.2073875,0.40703824,-83,-8,1459,1461.0,0.018142067,-0.0052948957,0.016496886,0.025086205,0.018898955049333182,-0.018898955049333182,0.06000172240697517,3.39237324357199,129.3783152976418,129.3783152976418,5.133851027485336,10.07925465758721,1.5368789590527023,69.94079288911608,,0.0,,,49.45,,,0.0,0.0,20190428,171548,2019-04-28T17:15:48Z,-17.0,99.99,99.99,3.75E7,0,0,0,0.0,0.0,0.0,0,0,0,0,0,0,,,,7738,48,89,58,3294,3711,4252,4257,-3,17003,30,212,4,0,false,false,false,false,false,false,false,false,false,false,0,0,0,0,50,61,62,49,943,946,945,944,940,940,940,940,0.0,0.0,0.0,0.0,1719.6,1714.0,1714.0,1720.2,0.0,0.0,0.0,0.0,0,0,0,0,-45.0,4.3733692010066736E-11,1.0123079870812562E-12,0,23.23656,23.878088,0.059627786,-0.0012776782,-0.98118716,0.98299813,0.3602344,0.110886976,0.02519425,0.37775588,-83,-8,1456,1458.0,9.079033E-5,6.62923E-4,-0.0012533475,0.0014207708,6.691111762250527E-4,-6.635002451202899E-4,0.13332987141629649,3.3717234296332603,-15.025197087688875,344.97480291231113,5.535259740071163,10.189779282999757,1.7924406270107498,76.30481548222616,,0.0023162951109042314,,,49.45,NONE,0.0,0.0,0.0,NONE,4.3570028578083095E-11,-2.2254043351213503E-12,-7.6293945E-6,17.301,17.301,6.18,1.298782,0,3628,4.321,12.0,1.305,98,25.9,OK,74,0,0,0,0,0,65,100,0.0,0,0.0,589232.0,2.69E-43,0.0,-1.05007105E-23,62,1.9531325E-4,-1.9531422E-4,9.4E-44,False,False,0,None,0.0,1.0842022E-19,
304949464,79.255,0.0,0.0,0,23.241844,23.74441,0.058808964,-0.0015827939,-0.9803025,0.9820662,0.37602443,-0.122998685,0.27519575,0.48192918,-86,-8,1456,1458.0,0.020739697,-0.0054915813,0.013772332,0.025494501,0.021454428533600835,-0.021454428533600835,0.07194672305501096,3.3757184289278896,129.37154509733412,129.3715450973341,5.319034178305094,10.403038977366244,1.502258279220755,90.68392176148107,,0.0,,,49.79,,,0.0,0.0,20190428,171550,2019-04-28T17:15:50Z,-17.0,99.99,99.99,3.75E7,0,0,0,0.0,0.0,0.0,0,0,0,0,0,0,,,,7738,48,89,59,3294,3711,4252,4257,-3,17003,30,212,4,0,false,false,false,false,false,false,false,false,false,false,0,0,0,0,49,62,62,49,944,946,945,944,940,940,940,940,0.0,0.0,0.0,0.0,1718.3,1714.0,1714.0,1718.3,0.0,0.0,0.0,0.0,0,0,0,0,-45.0,-8.638082617757044E-13,-1.9175288484163817E-11,0,23.450588,23.877556,0.058694452,-0.0026398865,-0.98068124,0.98243964,0.17430834,-0.029534005,0.20989771,0.27443162,-86,-11,1456,1458.0,-8.431342E-4,-4.7072783E-5,0.0029584111,0.0030765708,8.444472392722164E-4,-8.392033072482561E-4,0.1449798503798462,3.3606969334443733,-15.027677062634657,344.97232293736533,5.694606531585204,10.490202672630764,1.839374420007619,91.95392333331874,,0.0024014103206401703,,,49.74,NONE,0.0,0.0,0.0,NONE,-3.99325696441036E-11,-3.697852316999596E-11,9.536743E-6,17.3,17.3,6.18,1.2990544,0,3627,4.321,12.0,1.3,98,25.9,OK,75,0,0,0,0,0,65,100,0.0,0,0.0,589232.0,2.69E-43,0.0,-1.05007105E-23,62,1.9531325E-4,-1.9531422E-4,9.4E-44,False,False,0,None,0.0,1.0842022E-19,
308846350,80.268,0.0,0.0,0,23.410954,23.736416,0.057948392,-0.0032597422,-0.98181504,0.98352903,0.43854675,-0.013794078,0.23582584,0.49812382,-86,-8,1456,1458.0,0.021733759,-0.004735401,0.006779559,0.023253875,0.02224365774696175,-0.02224365774696175,0.08499229179504908,3.366337046904612,129.3700102155505,129.3700102155505,5.499467526690713,10.714708509067902,1.502647880586003,92.00834366794585,,0.0,,,50.05,,,0.0,0.0,20190428,171551,2019-04-28T17:15:51Z,-17.0,99.99,99.99,3.75E7,0,0,0,0.0,0.0,0.0,0,0,0,0,0,0,,,,8198,16,89,60,3294,3711,4253,4258,0,17005,28,1,17546,0,false,false,false,false,false,false,false,false,false,false,0,0,0,0,49,62,61,49,943,945,945,944,940,940,940,940,0.0,0.0,0.0,0.0,1719.6,1714.6,1713.4,1718.3,0.0,0.0,0.0,0.0,0,0,0,0,-45.0,-4.731337201147983E-11,2.0681201191336135E-11,0,23.336967,23.877867,0.05798891,-0.002661623,-0.98032993,0.98204714,0.31546524,0.01840306,0.1690848,0.35839456,-89,-8,1456,1458.0,3.1879448E-4,-6.983091E-4,-6.260518E-4,9.905585E-4,7.676362958010536E-4,-7.609164662217017E-4,0.14798466420181713,3.349018296873421,-15.045222729403392,344.9547772705966,5.898350336216292,10.761949683593416,1.8708322557333381,107.87423987514734,,0.0025291497189117978,,,50.06,NONE,0.0,0.0,0.0,NONE,1.2588489043853861E-11,-1.43563678167415E-11,-3.8146973E-6,17.3,17.3,6.181,1.2994455,0,3627,4.321,12.0,1.302,98,25.9,OK,76,0,0,0,0,0,65,100,0.0,0,0.0,589232.0,2.69E-43,0.0,-5.9807744E7,62,1.9531325E-4,-1.9531422E-4,9.4E-44,False,False,0,None,0.0,1.0842022E-19,
312784590,81.291,0.0,0.0,0,23.371319,23.718164,0.05864622,-0.0027049393,-0.9816511,0.9834051,0.2615006,0.039130393,0.026672572,0.26575398,-81,-11,1456,1458.0,0.020571247,-0.0021279266,0.0067502675,0.021754779,0.0206810117317565,-0.0206810117317565,0.08392325562786523,3.3595934090304067,129.35370344718655,129.35370344718655,5.671831433060701,11.021883676996898,1.5627282772376914,71.22929906064938,,0.0,,,50.36,,,0.0,0.0,20190428,171551,2019-04-28T17:15:51Z,-17.0,99.99,99.99,3.75E7,0,0,0,0.0,0.0,0.0,0,0,0,0,0,0,,,,8198,18,89,61,3294,3712,4292,4296,3573,17153,28,1,17175,0,false,false,false,false,false,false,false,false,false,false,0,0,0,0,49,62,62,49,944,945,944,945,940,940,940,940,0.0,0.0,0.0,0.0,1718.3,1714.0,1714.0,1718.9,0.0,0.0,0.0,0.0,0,0,0,0,-45.0,-1.0278900005808589E-11,-5.622074110410721E-12,0,23.47701,23.877703,0.057858553,-0.0019600382,-0.98133796,0.9830441,0.35469085,0.014018708,0.07698581,0.36322024,-81,-11,1456,1458.0,-2.675874E-4,-4.6433217E-4,0.001337061,0.0014404651,5.359173436236522E-4,-5.309824564654777E-4,0.14322995795396598,3.357426136038186,-15.0661168506155,344.9338831493845,6.0422957036650855,11.068610939277004,1.9125457064598148,73.24580917209897,,0.002631309879261033,,,50.36,NONE,0.0,0.0,0.0,NONE,-1.283999738233576E-11,-5.881425743464434E-12,3.8146973E-6,17.3,17.3,6.18,1.2999215,0,3626,4.32,12.0,1.305,98,25.9,OK,77,0,0,0,0,0,65,100,0.0,0,0.0,589232.0,2.69E-43,0.0,-5.9807744E7,62,1.9531325E-4,-1.9531422E-4,9.4E-44,False,False,0,None,0.0,1.0842022E-19,
