Tick#,offsetTime,IMU_ATTI(0):Longitude,IMU_ATTI(0):Latitude,IMU_ATTI(0):numSats,IMU_ATTI(0):barometer:Raw,IMU_ATTI(0):barometer:Smooth,IMU_ATTI(0):accel:X,IMU_ATTI(0):accel:Y,IMU_ATTI(0):accel:Z,IMU_ATTI(0):accel:Composite,IMU_ATTI(0):gyro:X,IMU_ATTI(0):gyro:Y,IMU_ATTI(0):gyro:Z,IMU_ATTI(0):gyro:Composite,IMU_ATTI(0):mag:X,IMU_ATTI(0):mag:Y,IMU_ATTI(0):mag:Z,IMU_ATTI(0):mag:Mod,IMU_ATTI(0):velN,IMU_ATTI(0):velE,IMU_ATTI(0):velD,IMU_ATTI(0):velComposite,IMU_ATTI(0):velH,IMU_ATTI(0):GPS-H,IMU_ATTI(0):roll,IMU_ATTI(0):pitch,IMU_ATTI(0):yaw,IMU_ATTI(0):yaw360,IMU_ATTI(0):totalGyro:Z,IMU_ATTI(0):totalGyro:X,IMU_ATTI(0):totalGyro:Y,IMU_ATTI(0):magYaw,IMU_ATTI(0):distanceHP,IMU_ATTI(0):distanceTravelled,IMU_ATTI(0):directionOfTravel[mag],IMU_ATTI(0):directionOfTravel[true],IMU_ATTI(0):temperature,General:relativeHeight,General:absoluteHeight,GPS(0):Long,GPS(0):Lat,GPS(0):Date,GPS(0):Time,GPS:dateTimeStamp,GPS(0):heightMSL,GPS(0):hDOP,GPS(0):pDOP,GPS(0):sAcc,GPS(0):numGPS,GPS(0):numGLNAS,GPS(0):numSV,GPS(0):velN,GPS(0):velE,GPS(0):velD,RC:Aileron,RC:Elevator,RC:Rudder,RC:Throttle,Controller:navHealth,Controller:ctrl_level,HP:Longitude,HP:Latitude,HP:rthHeight,BatBlackBox:tick,BatBlackBox:id,BatBlackBox:rsoc,BatBlackBox:index,BatBlackBox:rm,BatBlackBox:fcc,BatBlackBox:cell_min,BatBlackBox:cell_max,BatBlackBox:current,BatBlackBox:voltage,BatBlackBox:temp,BatBlackBox:flag,BatBlackBox:reserve,BatBlackBox:user_data,OA:avoidObst,OA:emergBrake,OA:radiusLimit,OA:airportLimit,OA:groundForceLanding,OA:horizNearBoundary,OA:vertLowLimit,OA:vertAirportLimit,OA:roofLimit,OA:hitGroundLimit,Motor:Speed:RFront,Motor:Speed:LFront,Motor:Speed:LBack,Motor:Speed:RBack,Motor:EscTemp:RFront,Motor:EscTemp:LFront,Motor:EscTemp:LBack,Motor:EscTemp:RBack,Motor:PPMrecv:RFront,Motor:PPMrecv:LFront,Motor:PPMrecv:LBack,Motor:PPMrecv:RBack,Motor:PPMsend:RFront,Motor:PPMsend:LFront,Motor:PPMsend:LBack,Motor:PPMsend:RBack,Motor:V_out:RFront,Motor:V_out:LFront,Motor:V_out:LBack,Motor:V_out:RBack,Motor:Volts:RFront,Motor:Volts:LFront,Motor:Volts:LBack,Motor:Volts:RBack,Motor:Current:RFront,Motor:Current:LFront,Motor:Current:LBack,Motor:Current:RBack,Motor:Status:RFront,Motor:Status:LFront,Motor:Status:LBack,Motor:Status:RBack,Motor:thrustAngle,IMU_ATTI(1):Longitude,IMU_ATTI(1):Latitude,IMU_ATTI(1):numSats,IMU_ATTI(1):barometer:Raw,IMU_ATTI(1):barometer:Smooth,IMU_ATTI(1):accel:X,IMU_ATTI(1):accel:Y,IMU_ATTI(1):accel:Z,IMU_ATTI(1):accel:Composite,IMU_ATTI(1):gyro:X,IMU_ATTI(1):gyro:Y,IMU_ATTI(1):gyro:Z,IMU_ATTI(1):gyro:Composite,IMU_ATTI(1):mag:X,IMU_ATTI(1):mag:Y,IMU_ATTI(1):mag:Z,IMU_ATTI(1):mag:Mod,IMU_ATTI(1):velN,IMU_ATTI(1):velE,IMU_ATTI(1):velD,IMU_ATTI(1):velComposite,IMU_ATTI(1):velH,IMU_ATTI(1):GPS-H,IMU_ATTI(1):roll,IMU_ATTI(1):pitch,IMU_ATTI(1):yaw,IMU_ATTI(1):yaw360,IMU_ATTI(1):totalGyro:Z,IMU_ATTI(1):totalGyro:X,IMU_ATTI(1):totalGyro:Y,IMU_ATTI(1):magYaw,IMU_ATTI(1):distanceHP,IMU_ATTI(1):distanceTravelled,IMU_ATTI(1):directionOfTravel[mag],IMU_ATTI(1):directionOfTravel[true],IMU_ATTI(1):temperature,IMUEX(0):err,IMUEX(0):rtk_Longitude,IMUEX(0):rtk_Latitude,IMUEX(0):rtk_Alti,IMUEX(1):err,IMUEX(1):rtk_Longitude,IMUEX(1):rtk_Latitude,IMUEX(1):rtk_Alti,BattInfo:Voltage,BattInfo:BatVoltage,BattInfo:AdVoltage,BattInfo:AvgCurrent,BattInfo:R_time,BattInfo:R_CAP_MAH,BattInfo:LowCellVoltage,BattInfo:LowCellVolThreshold,BattInfo:BatCurrent,BattInfo:Remaining%,BattInfo:Temp,BattInfo:status,battery_info:BatDynCnt,battery_info:Vol1Protect,battery_info:Vol2Protect,battery_info:Cap1Protect,battery_info:Cap2Protect,battery_info:Batpresent,battery_info:sopPercentage,battery_info:sopValue,battery_info:sopScale,battery_info:sopFlg,BattInfo:WindHeading:WindDir,battery_info:home_dir,BattInfo:Wind:rangeMin,BattInfo:Wind:rangeMax,battery_info:cap_speed,battery_info:against_wind,battery_info:emergency_land_cap,battery_info:intel_bat_land_cap,battery_info:intel_bat_gh_cap,BattInfo:Smart:SmartGh,BattInfo:Smart:SmartLand,BattInfo:GoHome:CntDown,BattInfo:GoHome:GhCmd,BattInfo:GoHome:CapLevel,BattInfo:GoHome:LandCapLv,Attribute|Value,ConvertDatV3,3.6.6-Tablet
7766599,2.019,,,,,,,,,,,,,,,,,,,,,,,,,,,,,,,,,,,,,,,,,,,,,,,,,,,,,,,,,,,,,,,,,,,,,,,,,,,,,,,,,,,,,,,,,,,,,,,,,,,,,,,,,,,,,,,,,,,,,,,,,,,,,,,,,,,,,,,,,,,,,,,,,,,,,,,,,,,,,,,,,,,,,,,,,,,,,,,OK,,,,,,,,,,,,,,,,,,,,,,,,,,Firmware Date| Oct 17 2018
31607560,8.215,,,,,,,,,,,,,,,,,,,,,,,,,,,,,,,,,,,,,,,,,,,,,,,,,,,,,,,,,,,,,,,,,,,,,,,,,,,,,,,,,,,,,,,,,,,,,,,,,,,,,,,,,,,,,,,,,,,,,,,,,,,,,,,,,,,,,,,,,,,,,,,,,,,,,,,,,,,,,,,,,,,,,,,,,,,,,,,OK,,,,,,,,,,,,,,,,,,,,,,,,,,ACType|MavicEnterprise
35550898,9.240,,,0,-23.949986,-24.225224,-0.022567157,0.011859602,-0.97893614,0.979268,0.28265148,0.075800546,0.30843312,0.42516887,23,247,1505,1525.0,0.0,0.0,0.43382645,0.43382645,0.0,0.0,-0.636999605691266,-1.3072284673663208,-95.35909333813342,264.64090666186655,0.18329477516573578,0.33096310374409277,0.005719413992838429,-92.44824954853273,,0.0,,,24.03,,,0.0,0.0,20151019,81138,2015-10-19T08:11:38Z,-17.0,99.99,99.99,3.75E7,0,0,0,0.0,0.0,0.0,0,0,0,0,0,0,,,,,,,,,,,,,,,,,,false,false,false,false,false,false,false,false,false,false,0,0,0,0,38,48,48,39,944,944,943,944,940,940,940,940,0.0,0.0,0.0,0.0,1728.2,1720.8,1720.8,1729.4,0.0,0.0,0.0,0.0,0,0,0,0,-45.0,,,,,,,,,,,,,,,,,,,,,,,,,,,,,,,,,,,,,NONE,0.0,0.0,0.0,,,,,17.348,17.348,6.211,1.5372552,0,3537,4.335,12.0,1.282,100,20.8,OK,7,0,0,0,0,0,65,100,0.0,0,0.0,589232.0,2.69E-43,0.0,0.0,0,5.5879354E-9,-5.587965E-9,9.4E-44,False,False,0,None,0.0,1.0842022E-19,dateTime|2015-10-18 0:0:6 GMT
57544566,14.956,,,0,-24.029257,-24.440887,-0.02245252,0.0114046885,-0.9783036,0.9786277,0.49843028,0.043348618,0.3184941,0.59308547,20,250,1502,1522.0,0.0,0.0,0.42782465,0.42782465,0.0,0.0,-0.6270648913371677,-1.29929131675237,-95.34673506972413,264.6532649302759,0.41652476380697706,0.6916115050104079,0.04734571319016025,-93.00776821976406,,0.0,,,24.27,0.3319201793212905,,0.0,0.0,20151019,81139,2015-10-19T08:11:39Z,-17.0,99.99,99.99,3.75E7,0,0,0,0.0,0.0,0.0,0,0,0,0,0,0,,,,,,,,,,,,,,,,,,false,false,false,false,false,false,false,false,false,false,0,0,0,0,37,50,49,38,943,945,943,943,940,940,940,940,0.0,0.0,0.0,0.0,1727.5,1720.8,1720.8,1728.2,0.0,0.0,0.0,0.0,0,0,0,0,-45.0,,,,,,,,,,,,,,,,,,,,,,,,,,,,,,,,,,,,,NONE,0.0,0.0,0.0,,,,,17.355,17.355,6.216,1.5996783,0,3537,4.335,12.0,1.214,100,20.8,OK,8,0,0,0,0,0,65,100,0.0,0,0.0,589232.0,2.69E-43,0.0,0.0,0,5.5879354E-9,-5.587965E-9,9.4E-44,False,False,0,None,0.0,1.0842022E-19,
61406212,15.959,,,0,-23.812586,-24.153095,-0.023543263,0.010624052,-0.9779257,0.9782668,0.4128986,0.046964318,0.09365931,0.42598468,23,247,1511,1531.0,0.0,0.0,0.095603496,0.095603496,0.0,0.0,-0.6270266704957378,-1.2345726597142033,-95.3573526415598,264.6426473584402,2.142570685022216,3.432292409084114,-0.015419375413255337,-92.06478488829211,,0.0,,,26.05,0.5485911693115249,,0.0,0.0,20151019,81144,2015-10-19T08:11:44Z,-17.0,99.99,99.99,3.75E7,0,0,0,0.0,0.0,0.0,0,0,0,0,0,0,,,,,,,,,,,,,,,,,,false,false,false,false,false,false,false,false,false,false,0,0,0,0,39,50,51,38,944,944,943,944,940,940,940,940,0.0,0.0,0.0,0.0,1726.3,1718.9,1718.9,1726.3,0.0,0.0,0.0,0.0,0,0,0,0,-45.0,1.6944281809078943E-9,2.696409440511407E-10,0,-23.82844,-24.490417,-0.023504203,0.010300727,-0.9795888,0.9799249,0.36995932,0.016944682,0.3231092,0.49148408,23,247,1520,1540.0,0.0060678963,0.03816549,0.55123997,0.5525929,0.038644845202878975,-0.038644845202878975,-0.5342375123743834,-0.6769658022082343,-92.26559344433208,267.73440655566793,0.14450729543163443,0.31121044747172216,0.01391870815504606,-88.88837433505019,,0.001639706426711505,,,26.04,NONE,0.0,0.0,0.0,NONE,1.6787456640134629E-9,2.7479350686671383E-10,0.0027980804,17.347,17.347,6.212,1.3384926,0,3535,4.332,12.0,1.227,100,20.9,OK,14,0,0,0,0,0,65,100,0.0,0,0.0,589232.0,2.69E-43,0.0,-1.2213093E-9,67,5.5879354E-9,-5.587965E-9,9.4E-44,False,False,0,None,0.0,1.0842022E-19,
65311006,16.974,0.0,0.0,0,-23.712177,-24.165318,-0.022748053,0.010721353,-0.9784253,0.97874844,0.48285756,0.05021665,0.20925531,0.5286406,23,244,1523,1542.0,-0.023858292,0.033079304,0.085233115,0.09448885,0.040785517247789685,-0.040785517247789685,-0.6231216870889803,-1.230810102716039,-95.38002915526884,264.61997084473114,2.3111732996712875,3.829801400174531,0.04592074564196861,-92.12340621612348,,0.0,,,26.33,0.6489997233886733,,0.0,0.0,20190520,81145,2019-05-20T08:11:45Z,-17.0,99.99,99.99,3.75E7,0,0,0,0.0,0.0,0.0,0,0,0,0,0,0,,,,,,,,,,,,,,,,,,false,false,false,false,false,false,false,false,false,false,0,0,0,0,38,51,51,39,943,944,943,944,940,940,940,940,0.0,0.0,0.0,0.0,1727.5,1718.3,1718.9,1726.9,0.0,0.0,0.0,0.0,0,0,0,0,-45.0,1.4587331830771047E-11,-6.248303650090158E-11,0,-23.743885,-24.081593,-0.022653852,0.010016852,-0.9785852,0.9788986,0.4819624,0.053938206,0.3252471,0.58393735,23,244,1517,1536.0,-0.0013972233,3.3051387E-4,0.0110693155,0.011162044,0.0014357828925257614,-0.0012481613330504351,-0.6139969803536175,-1.2580915607791927,-93.14915953135807,266.85084046864193,0.35393893725119197,0.739120542762151,0.08588975589293124,-92.25629649742777,,0.001848537421238938,,,26.32,NONE,0.0,0.0,0.0,NONE,1.4244904044082264E-11,-6.172458409876768E-11,1.5258789E-5,17.347,17.347,6.211,1.2955567,0,3534,4.331,12.0,1.205,100,20.9,OK,15,0,0,0,0,0,65,100,0.0,0,0.0,589232.0,2.69E-43,0.0,-1.2213093E-9,67,5.5879354E-9,-5.587965E-9,9.4E-44,False,False,0,None,0.0,1.0842022E-19,
69164744,17.976,0.0,0.0,0,-24.002832,-24.129982,-0.022587815,0.0100771645,-0.9795683,0.9798805,0.5622967,0.22336632,0.16955863,0.6283472,23,244,1520,1539.0,-0.0065734945,0.033775445,0.06139587,0.07038071,0.03440917832878135,-0.03440917832878135,-0.609963123998514,-1.2082766768885138,-95.39278103379034,264.60721896620964,2.5249990960256183,4.224376504337694,0.10006166678137746,-91.98136348369029,,0.0,,,26.65,0.35834458728027485,,0.0,0.0,20190520,81146,2019-05-20T08:11:46Z,-17.0,99.99,99.99,3.75E7,0,0,0,0.0,0.0,0.0,0,0,0,0,0,0,,,,,,,,,,,,,,,,,,false,false,false,false,false,false,false,false,false,false,0,0,0,0,39,52,50,39,943,944,943,943,940,940,940,940,0.0,0.0,0.0,0.0,1727.5,1718.9,1718.3,1726.3,0.0,0.0,0.0,0.0,0,0,0,0,-45.0,1.3996936433839871E-10,2.085913944123445E-11,0,-23.918278,-24.094402,-0.022625756,0.010512031,-0.9798477,0.9801653,0.46105832,-0.010693582,0.1560422,0.4868658,23,247,1514,1534.0,4.5543123E-4,0.0031248156,0.014160289,0.014508124,0.00315782995023973,-0.0031411153145118596,-0.59863419232307,-1.1713383019407584,-92.34258796310276,267.65741203689726,0.5839225217730057,1.1873213732161567,0.1815013411300087,-91.72180878522921,,0.0019530247312744499,,,26.71,NONE,0.0,0.0,0.0,NONE,1.1091967138764318E-10,5.614795931515464E-12,6.866455E-5,17.346,17.346,6.21,1.2612065,0,3534,4.332,12.0,1.206,100,20.9,OK,16,0,0,0,0,0,65,100,0.0,0,0.0,589232.0,2.69E-43,0.0,-1.2213093E-9,67,5.5879354E-9,-5.587965E-9,9.4E-44,False,False,0,None,0.0,1.0842022E-19,
73022024,18.978,0.0,0.0,0,-23.939417,-24.140242,-0.022466034,0.010584644,-0.97921354,0.97952837,0.44987446,0.2062279,0.13788047,0.5137392,26,244,1523,1542.0,0.0,0.0,0.067317255,0.067317255,0.0,0.0,-0.5927930938569176,-1.198902741317334,-95.39421148615249,264.60578851384753,2.7084890688112497,4.649582755331475,0.19037553571653565,-91.28300113480242,,0.0,,,26.94,0.42176011462402485,,0.0,0.0,20190520,81147,2019-05-20T08:11:47Z,-17.0,99.99,99.99,3.75E7,0,0,0,0.0,0.0,0.0,0,0,0,0,0,0,,,,1743792,48,13,148,430,3632,3677,3684,-1186,14750,41,212,14747,0,false,false,false,false,false,false,false,false,false,false,0,0,0,0,39,51,51,40,943,945,944,944,940,940,940,940,0.0,0.0,0.0,0.0,1726.9,1718.9,1718.9,1726.3,0.0,0.0,0.0,0.0,0,0,0,0,-45.0,-2.3449668659023346E-11,8.01474471176657E-11,0,-24.050394,-24.094261,-0.022571947,0.011299788,-0.97851735,0.9788429,0.29156882,0.04491377,0.15010448,0.33099997,26,247,1520,1540.0,0.0018394896,-5.4186257E-4,0.0018371226,0.0026556274,0.0019176383816917257,-0.0018983560925524303,-0.6011592630745022,-1.1452710546500953,-91.97335347413312,268.0266465258669,0.7832589529153253,1.6064122638244833,0.2532855339610896,-90.94402805697624,,0.0020360302733493777,,,26.95,NONE,0.0,0.0,0.0,NONE,-8.470718116302873E-11,3.508168996032222E-11,3.8146973E-6,17.344,17.344,6.208,1.2349819,0,3534,4.332,12.0,1.219,100,20.9,OK,17,0,0,0,0,0,65,100,0.0,0,0.0,589232.0,2.69E-43,0.0,-1.2213093E-9,67,5.5879354E-9,-5.587965E-9,9.4E-44,False,False,0,None,0.0,1.0842022E-19,
76919499,19.991,0.0,0.0,0,-23.860147,-24.12331,-0.023461029,0.011430559,-0.98135716,0.9817041,0.29609644,0.04720232,0.19558504,0.35798696,23,247,1520,1540.0,-0.017183157,0.042118408,0.040013757,0.06058318,0.045488692122487816,-0.045488692122487816,-0.5898941183097759,-1.1906040259661992,-95.4153909292984,264.5846090707016,2.9289132051933886,5.073097347190373,0.24702064332354742,-91.86103298989362,,0.0,,,27.29,0.5010295238037124,,0.0,0.0,20190520,81148,2019-05-20T08:11:48Z,-17.0,99.99,99.99,3.75E7,0,0,0,0.0,0.0,0.0,0,0,0,0,0,0,,,,1743792,17,13,149,430,3632,3677,3684,-1186,14750,41,0,14747,0,false,false,false,false,false,false,false,false,false,false,0,0,0,0,39,51,51,40,944,945,943,944,940,940,940,940,0.0,0.0,0.0,0.0,1726.3,1717.7,1718.3,1726.3,0.0,0.0,0.0,0.0,0,0,0,0,-45.0,2.1345113704736757E-10,-1.1297724483693696E-10,0,-24.008118,-24.102814,-0.023148997,0.011212916,-0.980076,0.9804135,0.33445024,0.041332554,0.10500634,0.35297546,26,247,1520,1540.0,-0.0012093193,0.002397326,0.011329335,0.011643172,0.0026850745682567216,-0.002651522386435807,-0.6260447576626796,-1.1514946086012152,-92.01006885299165,267.98993114700835,0.9439903895662439,1.9814559434158383,0.3256379768282423,-90.9769887895197,,0.0021017553741985197,,,27.26,NONE,0.0,0.0,0.0,NONE,5.082859644472086E-11,-2.3876216433578278E-11,2.2888184E-5,17.343,17.343,6.209,1.216678,0,3533,4.331,12.0,1.222,100,21.0,OK,18,0,0,0,0,0,65,100,0.0,0,0.0,589232.0,2.69E-43,0.0,-1.2213093E-9,67,5.5879354E-9,-5.587965E-9,9.4E-44,False,False,0,None,0.0,1.0842022E-19,
80776517,20.993,0.0,0.0,0,-23.95527,-24.143497,-0.022828087,0.009956877,-0.97905725,0.97937393,0.38039565,-0.13674557,0.17310423,0.43973318,26,244,1517,1536.0,-0.0032992547,0.06681778,0.04235916,0.079182066,0.06689918808146811,-0.06689918808146811,-0.5897273599829108,-1.1715860096080848,-95.41664794866678,264.58335205133324,3.130998306309302,5.435688664503826,0.29111675284448413,-91.0967696645298,,0.0,,,27.6,0.40590623278808735,,0.0,0.0,20190520,81150,2019-05-20T08:11:50Z,-17.0,99.99,99.99,3.75E7,0,0,0,0.0,0.0,0.0,0,0,0,0,0,0,,,,1746079,16,13,150,441,3643,3720,3725,-274,14884,31,0,31,0,false,false,false,false,false,false,false,false,false,false,0,0,0,0,41,51,52,40,943,944,943,944,940,940,940,940,0.0,0.0,0.0,0.0,1726.9,1718.9,1719.6,1725.7,0.0,0.0,0.0,0.0,0,0,0,0,-45.0,3.6361790883835157E-10,-1.0651693553874451E-10,0,-24.05568,-24.117243,-0.023492878,0.009619403,-0.9799717,0.9803005,0.4021847,-0.015014317,0.2984375,0.5010418,26,244,1520,1539.0,-0.0023954944,0.008122572,0.02053144,0.022209335,0.008468445354933641,-0.008451772503546413,-0.6469680776055377,-1.0456672254529331,-91.27375147964777,268.7262485203522,1.1778106887374002,2.4012102595437694,0.3253837117485965,-90.37105586217578,,0.0022850465472054925,,,27.59,NONE,0.0,0.0,0.0,NONE,4.803688525150831E-11,3.957338300174872E-11,3.0517578E-5,17.343,17.343,6.21,1.2053059,0,3533,4.331,12.0,1.222,100,21.0,OK,19,0,0,0,0,0,65,100,0.0,0,0.0,589232.0,2.69E-43,0.0,-5.9807744E7,62,5.5879354E-9,-5.587965E-9,9.4E-44,False,False,0,None,0.0,1.0842022E-19,
84846903,22.051,0.0,0.0,0,-23.96584,-24.151836,-0.023090022,0.0101751415,-0.9795161,0.97984105,0.3315526,0.1650798,0.18891425,0.41577286,26,244,1526,1545.0,0.0,0.0,0.040398765,0.040398765,0.0,0.0,-0.5830695593031539,-1.1589074940307331,-95.4162450127293,264.5837549872707,3.3202820008360368,5.845687562766527,0.31352907260162355,-91.06346279213406,,0.0,,,27.86,0.3953376140136733,,0.0,0.0,20190520,81151,2019-05-20T08:11:51Z,-17.0,99.99,99.99,3.75E7,0,0,0,0.0,0.0,0.0,0,0,0,0,0,0,,,,1746079,16,13,150,441,3643,3720,3725,-274,14884,31,0,31,0,false,false,false,false,false,false,false,false,false,false,0,0,0,0,40,51,52,40,943,944,944,943,940,940,940,940,0.0,0.0,0.0,0.0,1726.9,1718.9,1718.3,1726.9,0.0,0.0,0.0,0.0,0,0,0,0,-45.0,-1.4208563246622734E-12,-1.89256219256738E-11,0,-24.029257,-24.112465,-0.023122972,0.0101044895,-0.9783849,0.9787103,0.49890745,0.1490062,0.19143659,0.55476075,23,241,1526,1545.0,-4.4865263E-4,-2.8224458E-5,0.0016255633,0.001686577,4.495395427968971E-4,-4.100806012672997E-4,-0.642177901113809,-1.0033632246831719,-91.06445840585899,268.935541594141,1.336667949242882,2.767172532089458,0.35989865144615396,-90.81612713320713,,0.0023497838062636286,,,27.83,NONE,0.0,0.0,0.0,NONE,7.200395394596599E-12,-5.539878841136675E-11,3.8146973E-6,17.342,17.342,6.209,1.1991526,0,3533,4.331,12.0,1.212,100,21.0,OK,20,0,0,0,0,0,65,100,0.0,0,0.0,589232.0,2.69E-43,0.0,-5.9807744E7,62,5.5879354E-9,-5.587965E-9,9.4E-44,False,False,0,None,0.0,1.0842022E-19,
88727511,23.060,0.0,0.0,0,-24.039825,-24.158852,-0.022864843,0.01039617,-0.9783605,0.9786828,0.4507902,0.14013937,0.105157204,0.48364127,26,238,1538,1556.0,-0.03997584,0.08144729,0.041587226,0.09980594,0.09072887267956731,-0.09072887267956731,-0.5982322959975009,-1.1395034945123073,-95.41003902135428,264.5899609786457,3.48909416763916,6.266061061842782,0.36713147835176885,-91.02379646104242,,0.0,,,28.14,0.3213515605468764,,0.0,0.0,20190520,81152,2019-05-20T08:11:52Z,-17.0,99.99,99.99,3.75E7,0,0,0,0.0,0.0,0.0,0,0,0,0,0,0,,,,1746079,16,13,150,441,3643,3720,3725,-274,14884,31,0,31,0,false,false,false,false,false,false,false,false,false,false,0,0,0,0,40,52,52,39,943,945,944,943,940,940,940,940,0.0,0.0,0.0,0.0,1725.0,1717.1,1718.9,1725.7,0.0,0.0,0.0,0.0,0,0,0,0,-45.0,2.2529878594455307E-10,-1.9641014308573498E-10,0,-24.002832,-24.122488,-0.023074199,0.009410915,-0.9797091,0.98002595,0.56958115,0.091580935,0.1680242,0.6008676,29,238,1538,1556.0,-0.004416475,0.0050282106,0.0146948295,0.016147017,0.006692395228937037,-0.006660650593073394,-0.7192023297061972,-0.9788410124731696,-90.94596660812645,269.05403339187353,1.5534351228682726,3.2647700576694225,0.4049739944808499,-89.38206074959976,,0.0024485825959519015,,,28.18,NONE,0.0,0.0,0.0,NONE,7.387707773787375E-11,-1.254236026830176E-10,1.5258789E-5,17.341,17.341,6.206,1.1964389,0,3532,4.33,12.0,1.212,100,21.0,OK,21,0,0,0,0,0,65,100,0.0,0,0.0,589232.0,2.69E-43,0.0,-5.9807744E7,62,5.5879354E-9,-5.587965E-9,9.4E-44,False,False,0,None,0.0,1.0842022E-19,
92589972,24.064,0.0,0.0,0,-24.140234,-24.18958,-0.02287376,0.009598956,-0.97887415,0.97918844,0.4738195,-0.041214112,0.3422383,0.5859442,23,235,1541,1558.0,-0.047753576,0.12726378,0.039681107,0.14160179,0.13592819806862663,-0.13592819806862663,-0.6239077592156101,-1.1252387207733079,-95.40737930267377,264.5926206973262,3.683475595902595,6.684482245578613,0.43456336750863683,-91.64135512063332,,0.0,,,28.45,0.22094300646972798,,0.0,0.0,20190520,81152,2019-05-20T08:11:52Z,-17.0,99.99,99.99,3.75E7,0,0,0,0.0,0.0,0.0,0,0,0,0,0,0,,,,1746152,48,12,153,412,3643,3697,3700,-1170,14816,31,212,14811,0,false,false,false,false,false,false,false,false,false,false,0,0,0,0,40,51,51,40,943,945,944,945,940,940,940,940,0.0,0.0,0.0,0.0,1723.8,1717.7,1718.3,1725.0,0.0,0.0,0.0,0.0,0,0,0,0,-45.0,-3.1456687838661505E-11,-1.558245752767882E-12,0,-24.071533,-24.129116,-0.022395652,0.010979139,-0.9799617,0.9802791,0.35579145,-0.08815008,0.21336626,0.42412633,23,238,1541,1559.0,7.102426E-8,-7.310644E-4,0.0013751748,0.0015574213,7.310644173619376E-4,-6.953609603075683E-4,-0.7664665797482927,-0.9380068270507632,-90.6602012145854,269.3397987854146,1.7231713223715706,3.6824460140746043,0.43230191329440076,-90.48206765179873,,0.00255398935639764,,,28.48,NONE,0.0,0.0,0.0,NONE,1.6029306504494168E-10,-7.52376384534649E-11,4.5776367E-5,17.341,17.341,6.209,1.1965511,0,3532,4.331,12.0,1.242,100,21.0,OK,22,0,0,0,0,0,65,100,0.0,0,0.0,589232.0,2.69E-43,0.0,-5.9807744E7,62,5.5879354E-9,-5.587965E-9,9.4E-44,False,False,0,None,0.0,1.0842022E-19,
96503461,25.081,0.0,0.0,0,-23.870716,-24.212934,-0.02400589,0.009963549,-0.97870725,0.9790523,0.50737345,0.0048558726,0.11407894,0.52006286,23,244,1526,1545.0,0.0,0.0,0.03030422,0.03030422,0.0,0.0,-0.6314143528728436,-1.1486823445875025,-95.40699043541414,264.5930095645858,3.9364737122621003,7.087784428134098,0.4491862278527577,-91.6561180515326,,0.0,,,28.78,0.4904609050292983,,0.0,0.0,20190520,81154,2019-05-20T08:11:54Z,-17.0,99.99,99.99,3.75E7,0,0,0,0.0,0.0,0.0,0,0,0,0,0,0,,,,1746152,17,12,154,412,3643,3697,3700,-1170,14816,31,0,14811,0,false,false,false,false,false,false,false,false,false,false,0,0,0,0,40,52,52,40,943,944,944,944,940,940,940,940,0.0,0.0,0.0,0.0,1725.7,1717.7,1718.9,1725.0,0.0,0.0,0.0,0.0,0,0,0,0,-45.0,-7.735299110001753E-11,9.290453273731516E-13,0,-24.177225,-24.128366,-0.023242954,0.009869649,-0.97907907,0.9794046,0.3555105,0.11405198,0.18202561,0.41536596,23,244,1523,1542.0,1.911496E-5,-0.0017207912,-3.271457E-4,0.001751717,0.0017208973764695171,-0.0017158723704910094,-0.7796523459829299,-0.9729712173041838,-90.66646026854069,269.3335397314593,1.8882578632290306,4.102985279443589,0.4356366142770776,-90.6073931924369,,0.0026050668084650216,,,28.77,NONE,0.0,0.0,0.0,NONE,-7.639819343279352E-11,-8.475561434144309E-13,-3.8146973E-6,17.339,17.339,6.208,1.1991091,0,3532,4.33,12.0,1.214,100,21.1,OK,23,0,0,0,0,0,65,100,0.0,0,0.0,589232.0,2.69E-43,0.0,-5.9807744E7,62,5.5879354E-9,-5.587965E-9,9.4E-44,False,False,0,None,0.0,1.0842022E-19,
100631554,26.154,0.0,0.0,0,-23.743885,-24.230751,-0.022730477,0.01029577,-0.97913367,0.9794516,0.30002204,0.0012480404,0.32004175,0.43868154,26,238,1541,1559.0,-0.02610799,0.039655283,0.02548384,0.053885013,0.04747808444942183,-0.04747808444942183,-0.6421566517040286,-1.1751744904898977,-95.4113829648654,264.5886170351346,4.153973993570424,7.447589642815873,0.5033502459774561,-91.246363851298,,0.0,,,29.09,0.6172919597167983,,0.0,0.0,20190520,81154,2019-05-20T08:11:54Z,-17.0,99.99,99.99,3.75E7,0,0,0,0.0,0.0,0.0,0,0,0,0,0,0,,,,1746176,48,12,155,412,3643,3714,3716,0,14863,31,212,4,0,false,false,false,false,false,false,false,false,false,false,0,0,0,0,39,52,51,40,943,944,944,943,940,940,940,940,0.0,0.0,0.0,0.0,1726.3,1717.1,1718.9,1725.0,0.0,0.0,0.0,0.0,0,0,0,0,-45.0,4.411926070353008E-11,-2.6070159688114914E-10,0,-23.928848,-24.142515,-0.022978935,0.010253734,-0.9781975,0.9785211,0.29804686,0.027213804,0.34057143,0.45338884,23,238,1541,1559.0,-0.0029565303,5.0578086E-4,0.014178127,0.014491934,0.0029994809898512154,-0.002969584906972562,-0.7872867311276885,-1.0394690248788432,-90.87349346332003,269.12650653668,2.0779328912754353,4.524691871450479,0.4466265660825956,-91.08262660263591,,0.0026829614874306017,,,29.13,NONE,0.0,0.0,0.0,NONE,-4.323466101804839E-11,-5.753361898088946E-11,3.8146973E-5,17.339,17.339,6.205,1.2026287,0,3531,4.329,12.0,1.22,100,21.1,OK,24,0,0,0,0,0,65,100,0.0,0,0.0,589232.0,2.69E-43,0.0,-5.9807744E7,62,5.5879354E-9,-5.587965E-9,9.4E-44,False,False,0,None,0.0,1.0842022E-19,
104492785,27.157,0.0,0.0,0,-24.087387,-24.177984,-0.023035409,0.009956392,-0.9789322,0.9792538,0.39414918,-0.04702052,0.1744719,0.4335954,26,244,1532,1551.0,0.0,0.0,0.0020841924,0.0020841924,0.0,0.0,-0.6484383238924633,-1.1969891375465478,-95.41851649796973,264.58148350203027,4.38603067914431,7.857954025163123,0.5675050396067286,-91.30416522964059,,0.0,,,29.42,0.2737899150390639,,0.0,0.0,20190520,81155,2019-05-20T08:11:55Z,-17.0,99.99,99.99,3.75E7,0,0,0,0.0,0.0,0.0,0,0,0,0,0,0,,,,1746176,48,12,156,412,3643,3714,3716,0,14863,31,212,4,0,false,false,false,false,false,false,false,false,false,false,0,0,0,0,40,52,52,40,943,944,943,944,940,940,940,940,0.0,0.0,0.0,0.0,1725.7,1717.1,1718.3,1725.0,0.0,0.0,0.0,0.0,0,0,0,0,-45.0,-3.498815824651036E-11,9.063126744387524E-12,0,-23.860147,-24.146215,-0.022222627,0.010298819,-0.9794796,0.9797858,0.5130788,0.039957587,0.21208991,0.5566225,26,244,1532,1551.0,1.9241788E-4,-7.981021E-4,-0.0010532478,0.0013354111,8.209699273571088E-4,-7.898198519421687E-4,-0.7951830824920462,-1.0239563809463508,-90.82317516318082,269.17682483681915,2.242452418776,4.900540979980097,0.5026508171562226,-90.2848252103152,,0.0027548197367446466,,,29.41,NONE,0.0,0.0,0.0,NONE,-1.001682635401412E-10,-8.546118968087153E-11,4.196167E-5,17.338,17.338,6.208,1.2060405,0,3531,4.33,12.0,1.214,100,21.1,OK,25,0,0,0,0,0,65,100,0.0,0,0.0,589232.0,2.69E-43,0.0,-5.9807744E7,62,5.5879354E-9,-5.587965E-9,9.4E-44,False,False,0,None,0.0,1.0842022E-19,
108407634,28.175,0.0,0.0,0,-23.934132,-24.148603,-0.022194851,0.010099794,-0.9799443,0.9802476,0.43725494,-0.09735646,0.2654113,0.52068543,26,241,1541,1559.0,-0.03071915,0.04677049,-0.0030513539,0.05603977,0.05595663421716358,-0.05595663421716358,-0.6473658389625465,-1.2137065729808036,-95.43438865548886,264.5656113445111,4.5689787476158505,8.308926795295724,0.5919460735752305,-91.4602431317123,,0.0,,,29.72,0.4270453776855483,,0.0,0.0,20190520,81157,2019-05-20T08:11:57Z,-17.0,99.99,99.99,3.75E7,0,0,0,0.0,0.0,0.0,0,0,0,0,0,0,,,,1746176,48,12,157,412,3643,3714,3716,0,14863,31,212,4,0,false,false,false,false,false,false,false,false,false,false,0,0,0,0,40,52,52,40,943,945,944,944,940,940,940,940,0.0,0.0,0.0,0.0,1725.0,1717.1,1717.1,1725.0,0.0,0.0,0.0,0.0,0,0,0,0,-45.0,1.2307974761019743E-10,5.045466492525908E-11,0,-23.923563,-24.15026,-0.0230445,0.010826773,-0.9801956,0.9805262,0.31361592,0.035361525,0.103092104,0.3320141,26,241,1541,1559.0,5.9911306E-4,0.0013696195,0.006065503,0.006247009,0.001494922743920838,-0.001477065419053877,-0.786197945366361,-1.0523782646599293,-90.89781706309402,269.102182936906,2.4207750471355114,5.274305043004298,0.5288343678221057,-90.49041726822786,,0.0028120712584797864,,,29.71,NONE,0.0,0.0,0.0,NONE,1.929988075492641E-12,4.232836147444755E-11,-1.9073486E-6,17.336,17.336,6.203,1.2090489,0,3530,4.33,12.0,1.217,100,21.1,OK,26,0,0,0,0,0,65,100,0.0,0,0.0,589232.0,2.69E-43,0.0,-5.9807744E7,62,5.5879354E-9,-5.587965E-9,9.4E-44,False,False,0,None,0.0,1.0842022E-19,
112273973,29.180,0.0,0.0,0,-23.960556,-24.165857,-0.022647938,0.009864506,-0.9793318,0.9796433,0.2956269,0.010148164,0.09425235,0.3104541,26,241,1544,1562.0,0.01291932,0.011191846,0.012687299,0.02128694,0.017092871397764574,-0.017092871397764574,-0.642121228311439,-1.2379161600625193,-95.44798154853338,264.5520184514666,4.76982627154284,8.691751062976426,0.6020750308754291,-91.6194176442236,,0.0,,,30.04,0.4006209697265639,,0.0,0.0,20190520,81158,2019-05-20T08:11:58Z,-17.0,99.99,99.99,3.75E7,0,0,0,0.0,0.0,0.0,0,0,0,0,0,0,,,,1746176,48,12,158,412,3643,3714,3716,0,14863,31,212,4,0,false,false,false,false,false,false,false,false,false,false,0,0,0,0,40,52,51,40,944,945,944,944,940,940,940,940,0.0,0.0,0.0,0.0,1725.0,1717.1,1719.6,1725.0,0.0,0.0,0.0,0.0,0,0,0,0,-45.0,-7.005161284894006E-12,8.30300767824231E-11,0,-24.145517,-24.160198,-0.02385163,0.011027007,-0.9784896,0.9788424,0.3763267,-0.064425446,0.28374708,0.47569406,26,244,1535,1554.0,0.0018647634,-1.4171079E-4,0.016946772,0.017049648,0.0018701402584793,-0.0018553007256897796,-0.7506657266991862,-1.0825046051175968,-91.02229345933524,268.97770654066477,2.5699196575245695,5.635963982011897,0.5284834331046038,-90.63808506404506,,0.0028665054632709555,,,29.99,NONE,0.0,0.0,0.0,NONE,-5.895588076684911E-12,7.834216917838899E-11,4.9591064E-5,17.337,17.337,6.207,1.2115366,0,3530,4.329,12.0,1.216,100,21.1,OK,27,0,0,0,0,0,65,100,0.0,0,0.0,589232.0,2.69E-43,0.0,-5.9807744E7,62,5.5879354E-9,-5.587965E-9,9.4E-44,False,False,0,None,0.0,1.0842022E-19,
116168399,30.192,0.0,0.0,0,-24.129663,-24.185917,-0.022213157,0.010572742,-0.9791315,0.9794405,0.4826853,-0.10640078,0.16861299,0.52224183,26,244,1523,1542.0,0.014118415,0.027985424,0.016084898,0.035231203,0.03134507379560292,-0.03134507379560292,-0.6361031147517421,-1.2304630245528319,-95.464401857202,264.535598142798,4.9322041638193435,9.04314419717131,0.6814846951464895,-91.46026666931066,,0.0,,,30.39,0.23151353259277485,,0.0,0.0,20190520,81159,2019-05-20T08:11:59Z,-17.0,99.99,99.99,3.75E7,0,0,0,0.0,0.0,0.0,0,0,0,0,0,0,,,,1746179,16,12,159,412,3643,3714,3716,0,14867,31,1,17553,0,false,false,false,false,false,false,false,false,false,false,0,0,0,0,42,51,53,41,943,944,943,945,940,940,940,940,0.0,0.0,0.0,0.0,1725.0,1717.7,1718.3,1725.0,0.0,0.0,0.0,0.0,0,0,0,0,-45.0,-3.321987408075895E-11,2.2464674316885096E-13,0,-23.923563,-24.162764,-0.02277357,0.009909646,-0.97951514,0.97982997,0.30991498,-0.1321209,0.14684838,0.36751553,26,244,1526,1545.0,-4.366788E-5,-7.6581014E-4,-4.5438617E-4,8.9153735E-4,7.670541165872905E-4,-7.575120568194955E-4,-0.7189660483863709,-1.069833536073547,-91.0298032090324,268.97019679096763,2.7893202165651214,6.086032053465125,0.5627703714133176,-90.53066238753637,,0.00293703288515483,,,30.35,NONE,0.0,0.0,0.0,NONE,-4.052713524017492E-11,-4.4133248162837245E-11,1.1444092E-5,17.335,17.335,6.205,1.2115366,0,3530,4.329,12.0,1.216,100,21.1,OK,27,0,0,0,0,0,65,100,0.0,0,0.0,589232.0,2.69E-43,0.0,-1.05007105E-23,62,5.5879354E-9,-5.587965E-9,9.4E-44,False,False,0,None,0.0,1.0842022E-19,
120213333,31.243,0.0,0.0,0,-23.891855,-24.198517,-0.023346012,0.011489664,-0.9790433,0.979389,0.28058916,-0.13046767,0.17589737,0.35593817,26,244,1535,1554.0,-0.021585006,0.009016488,0.01497753,0.027776536,0.023392509949887296,-0.023392509949887296,-0.6328383326785936,-1.251770842266535,-95.4678881050902,264.5321118949098,5.134312504458363,9.460611228099907,0.6821066875323902,-91.64165934502435,,0.0,,,30.65,0.46932176013183735,,0.0,0.0,20190520,81200,2019-05-20T08:12:00Z,-17.0,99.99,99.99,3.75E7,0,0,0,0.0,0.0,0.0,0,0,0,0,0,0,,,,1746180,18,12,160,400,3648,3747,3748,2383,14976,31,1,15108,0,false,false,false,false,false,false,false,false,false,false,0,0,0,0,41,51,52,39,943,944,943,944,940,940,940,940,0.0,0.0,0.0,0.0,1725.0,1717.7,1718.9,1725.0,0.0,0.0,0.0,0.0,0,0,0,0,-45.0,-1.514614488502636E-10,-2.3690198462249984E-11,0,-24.082102,-24.166931,-0.0242178,0.011873367,-0.97852105,0.9788927,0.3572648,-0.041050524,0.24368082,0.4344003,26,244,1541,1560.0,-5.0833274E-4,-0.0033491198,0.008716156,0.009351277,0.003387477752220413,-0.0033747177470870126,-0.7136072555563199,-1.1066015662385424,-91.11313836015796,268.88686163984204,2.9593158338570458,6.474798634017082,0.6038255758071692,-90.80648593791128,,0.0030272059271226497,,,30.65,NONE,0.0,0.0,0.0,NONE,3.9777179833216825E-11,3.700037091920738E-12,3.8146973E-6,17.335,17.335,6.202,1.2136112,0,3530,4.329,12.0,1.221,100,21.1,OK,28,0,0,0,0,0,65,100,0.0,0,0.0,589232.0,2.69E-43,0.0,-1.05007105E-23,62,5.5879354E-9,-5.587965E-9,9.4E-44,False,False,0,None,0.0,1.0842022E-19,
124078005,32.247,0.0,0.0,8,-24.171942,-24.191069,-0.023196844,0.009233723,-0.97819775,0.97851634,0.3015686,0.10089049,0.25712886,0.40894714,26,244,1541,1560.0,-0.02060309,-0.034028772,0.0069961343,0.040390477,0.039779952808725406,-0.039779952808725406,-0.6409184254539887,-1.295366507301829,-95.03356248264683,264.96643751735314,5.281872734497652,9.802930787237864,0.6765893117489207,-91.92491598401327,,0.0,,,30.92,0.18923524279785298,,13.6231113,66.2831966,20190520,81201,2019-05-20T08:12:01Z,28.131,1.24,2.46,88.7,8,0,8,-0.01,0.02,0.03,0,0,0,0,0,0,,,,1751167,114,99,161,3624,3622,4382,4390,194,17569,26,3643,17559,0,false,false,false,false,false,false,false,false,false,false,0,0,0,0,41,52,52,41,943,945,944,944,940,940,940,940,0.0,0.0,0.0,0.0,1725.0,1717.1,1718.3,1725.0,0.0,0.0,0.0,0.0,0,0,0,0,-45.0,-2.5587322949993177E-10,-1.457797232451261E-10,0,-23.912994,-24.182182,-0.023802364,0.009335029,-0.978872,0.97920585,0.42757362,0.16694696,0.10660607,0.4712275,26,244,1538,1557.0,-0.0033025662,-0.0056766057,0.020814607,0.0218261,0.006567404072932747,-0.006549619315320497,-0.6948296004707283,-1.2283619964435295,-91.44546086881743,268.55453913118254,3.166363069518768,6.868249337991528,0.6222874478213245,-91.50728754350028,,0.003112810675520068,,,30.94,NONE,0.0,0.0,0.0,NONE,-9.816742424291717E-11,-5.714249736931114E-11,4.5776367E-5,17.334,17.334,6.203,1.2167966,0,3529,4.328,12.0,1.219,100,21.2,OK,30,0,0,0,0,0,65,100,0.0,0,0.0,589232.0,2.69E-43,0.0,-1.05007105E-23,62,5.5879354E-9,-5.587965E-9,9.4E-44,False,False,0,None,0.0,1.0842022E-19,
127993429,33.265,0.0,0.0,8,-24.013403,-24.197344,-0.023375213,0.01033003,-0.9781689,0.9785027,0.46582627,-0.12004454,0.18916497,0.5169025,26,241,1541,1559.0,-0.020776376,0.0040367804,0.0077366545,0.022534622,0.021164909208604574,-0.021164909208604574,-0.6043782625196535,-1.363392759292521,-92.93934725600178,267.0606527439982,5.447820120620217,10.194235067935825,0.6709870638250401,-92.36196298763531,,0.0,,,31.25,0.347774061157228,,13.6231098,66.2831957,20190520,81202,2019-05-20T08:12:02Z,27.916,1.24,2.46,72.91,8,0,8,0.0,-0.01,0.0,0,0,0,0,0,0,,,,1751251,48,99,162,3619,3619,4384,4394,175,17586,26,212,17589,0,false,false,false,false,false,false,false,false,false,false,0,0,0,0,40,52,52,41,944,944,943,944,940,940,940,940,0.0,0.0,0.0,0.0,1723.8,1717.1,1717.1,1723.8,0.0,0.0,0.0,0.0,0,0,0,0,-45.0,2.3555162092446186E-11,-4.9030377354921296E-11,0,-23.944702,-24.18022,-0.023224086,0.010133988,-0.97910076,0.9794286,0.304908,0.12625025,0.076813415,0.33883378,26,244,1532,1551.0,-6.00312E-4,2.5814446E-4,-6.1064464E-4,8.9437125E-4,6.534623763783598E-4,-6.211503573575939E-4,-0.7167219050756191,-1.2539493479546073,-91.54054464412884,268.45945535587117,3.3399059861574223,7.226156899757329,0.6629548718684642,-91.62447560400487,,0.003173433419806055,,,31.26,NONE,0.0,0.0,0.0,NONE,-4.388931995466295E-11,-3.571026993165926E-11,-1.1444092E-5,17.333,17.333,6.203,1.2167966,0,3529,4.328,12.0,1.219,100,21.2,OK,30,0,0,0,0,0,65,100,0.0,0,0.0,589232.0,2.69E-43,0.0,-1.05007105E-23,62,5.5879354E-9,-5.587965E-9,9.4E-44,False,False,0,None,0.0,1.0842022E-19,
132062374,34.322,0.0,0.0,8,-24.097956,-24.199678,-0.02266161,0.010358493,-0.978633,0.97895014,0.45502818,0.03543473,0.12813966,0.47405276,26,241,1538,1556.0,-0.0020469935,-0.0105023645,0.0121571915,0.016195282,0.010699992593817426,-0.010699992593817426,-0.6337131597486514,-1.35687123427678,-91.74316985754233,268.25683014245766,5.643228698380918,10.645980477592486,0.6814066946781676,-92.29979522507554,,0.0,,,31.58,0.26322129626464985,,13.623108,66.2831961,20190520,81203,2019-05-20T08:12:03Z,28.031,1.24,2.46,58.89,8,0,8,-0.01,0.0,-0.01,0,0,0,0,2,0,,,,1751251,48,99,163,3619,3619,4384,4394,175,17586,26,212,17589,0,false,false,false,false,false,false,false,false,false,false,0,0,0,0,41,53,53,41,944,945,944,944,940,940,940,940,0.0,0.0,0.0,0.0,1725.0,1716.5,1717.1,1723.8,0.0,0.0,0.0,0.0,0,0,0,0,-45.0,1.6700723927648013E-11,2.0396512548877884E-11,0,-24.04511,-24.185574,-0.023163054,0.010744679,-0.9795489,0.9798816,0.49397454,0.018475156,0.14831448,0.51609045,29,241,1541,1560.0,2.4198479E-4,2.0187628E-4,0.008194596,0.008200653,3.151359518263698E-4,-3.078003046193754E-4,-0.7158891797155476,-1.258351939633791,-91.60166714550243,268.39833285449754,3.517082440646563,7.601533379151828,0.6991290469367046,-91.05219043623704,,0.003287700989267721,,,31.55,NONE,0.0,0.0,0.0,NONE,6.370300593549329E-11,-1.5819523051929823E-11,4.5776367E-5,17.331,17.331,6.2,1.2190174,0,3528,4.329,12.0,1.227,100,21.2,OK,32,0,0,0,0,0,65,100,0.0,0,0.0,589232.0,2.69E-43,0.0,-1.05007105E-23,62,5.5879354E-9,-5.587965E-9,9.4E-44,False,False,0,None,0.0,1.0842022E-19,
135959590,35.335,0.0,0.0,8,-24.087387,-24.178679,-0.022758935,0.010400658,-0.97859555,0.9789154,0.41593346,0.0854095,0.15572895,0.45226866,26,241,1547,1565.0,-0.007691373,-0.006794118,0.006102899,0.01193996,0.01026241979370729,-0.01026241979370729,-0.6261552925104343,-1.343234811640824,-91.18651721924422,268.81348278075575,5.793654648266664,11.059048560497054,0.6616181871054458,-92.26663601602654,,0.0,,,31.81,0.2737899150390639,,13.6231062,66.2831985,20190520,81203,2019-05-20T08:12:03Z,28.463,1.24,2.46,46.72,8,0,8,0.0,0.0,-0.01,0,0,0,0,2,0,,,,1751251,48,99,163,3619,3619,4384,4394,175,17586,26,212,17589,0,false,false,false,false,false,false,false,false,false,false,0,0,0,0,42,53,51,42,943,944,944,944,940,940,940,940,0.0,0.0,0.0,0.0,1723.2,1717.1,1717.7,1725.7,0.0,0.0,0.0,0.0,0,0,0,0,-45.0,1.2335818769200616E-10,-7.129922956022988E-11,0,-23.817871,-24.201967,-0.02294851,0.010928213,-0.97830826,0.9786384,0.33280167,-0.0076408572,0.14096937,0.36150753,26,238,1538,1556.0,-0.0015573851,0.0027479844,0.021228233,0.021461938,0.0031586177103512312,-0.003143176266260469,-0.7118485934001025,-1.1444359449400294,-91.36934328049581,268.6306567195042,3.7226953416883926,8.059397855912637,0.7407395685375003,-91.03887405888746,,0.003415948432150419,,,31.89,NONE,0.0,0.0,0.0,NONE,-1.722452930369365E-11,-4.092348627619926E-11,3.4332275E-5,17.33,17.33,6.2,1.2190174,0,3528,4.328,12.0,1.227,100,21.2,OK,32,0,0,0,0,0,65,100,0.0,0,0.0,589232.0,2.69E-43,0.0,-1.05007105E-23,62,5.5879354E-9,-5.587965E-9,9.4E-44,False,False,0,None,0.0,1.0842022E-19,
139820949,36.339,0.0,0.0,8,-23.844294,-24.189775,-0.022622962,0.010545871,-0.9804186,0.9807363,0.4496503,0.0069037587,0.10017225,0.460725,26,238,1538,1556.0,-0.007228626,-0.011774898,0.008354067,0.01614595,0.013816701845229604,-0.013816701845229604,-0.6226337005134573,-1.3590449116514933,-90.89847516820849,269.1015248317915,5.914833501805329,11.460465578957276,0.7101331146223453,-92.34305130890543,,0.0,,,32.17,0.5168834056396499,,13.6231055,66.2831997,20190520,81204,2019-05-20T08:12:04Z,28.598,1.24,2.46,41.6,8,0,8,0.0,0.0,0.0,0,0,0,0,2,0,,,,1751251,48,99,164,3619,3619,4384,4394,175,17586,26,212,17589,0,false,false,false,false,false,false,false,false,false,false,0,0,0,0,41,54,53,41,944,945,944,945,940,940,940,940,0.0,0.0,0.0,0.0,1725.0,1717.1,1717.1,1723.8,0.0,0.0,0.0,0.0,0,0,0,0,-45.0,13.623106543430646,66.28319879874873,0,-24.013403,-24.198753,-0.02360038,0.010217632,-0.9781607,0.9784987,0.4454564,0.21519154,0.18246573,0.5272879,26,238,1541,1559.0,2.9028743E-4,0.0025632896,0.0016577694,0.0030664182,0.002579674482745287,7422539.454940015,-0.7249256008115231,-1.0554181091323687,-91.20159811767245,268.79840188232754,3.9236790641492307,8.473867614536484,0.7750165595912744,-90.51871720717043,,7448888.830084072,,,32.18,NONE,0.0,0.0,0.0,NONE,2.8492338803996063E-10,3.862904368080974E-11,3.8146973E-6,17.33,17.33,6.199,1.2202983,0,3528,4.328,12.0,1.229,100,21.2,OK,33,0,0,0,0,0,65,100,0.0,0,0.0,589232.0,2.69E-43,0.0,-1.05007105E-23,62,5.5879354E-9,-5.587965E-9,9.4E-44,False,False,0,None,0.0,1.0842022E-19,
143735514,37.356,0.0,0.0,8,-24.171942,-24.184454,-0.02341037,0.0097457925,-0.9770282,0.9773572,0.3480332,-0.03426333,0.28165236,0.44903132,26,238,1544,1562.0,8.0467947E-4,-0.012623804,0.0084776,0.015227529,0.012649423969171857,-0.012649423969171857,-0.5922699929063129,-1.349235524492703,-90.73097074519843,269.2690292548016,6.096513096187079,11.902846902019846,0.7103324455216148,-92.32329964214092,,0.0,,,32.52,0.18923524279785298,,13.6231045,66.2832008,20190520,81205,2019-05-20T08:12:05Z,28.732,1.24,2.46,38.67,8,0,8,0.0,-0.01,0.0,0,0,0,0,2,0,,,,1751251,48,99,165,3619,3619,4384,4394,175,17586,26,212,17589,0,false,false,false,false,false,false,false,false,false,false,0,0,0,0,40,52,53,41,944,944,943,945,940,940,940,940,0.0,0.0,0.0,0.0,1723.2,1717.1,1716.5,1723.8,0.0,0.0,0.0,0.0,0,0,0,0,-45.0,13.623104930914263,66.28320079126924,0,-24.18251,-24.20349,-0.022835867,0.011065065,-0.97813696,0.97846603,0.452468,-0.094291896,0.26168963,0.5311306,26,235,1526,1544.0,0.001118659,-0.00334638,0.009077291,0.009738936,0.0035284073238481986,0.2254920184203648,-0.6953096067890117,-1.146876512342748,-91.45004726890292,268.54995273109705,4.088310529067261,8.836131656710846,0.8024551133918952,-91.01458685039381,,7448889.064306976,-11.225334805948576,-11.225334805948576,32.46,NONE,0.0,0.0,0.0,NONE,-1.7597109285371103E-10,-2.356039107295193E-11,2.2888184E-5,17.329,17.329,6.199,1.2217387,0,3528,4.328,12.0,1.227,100,21.2,OK,34,0,0,0,0,0,65,100,0.0,0,0.0,589232.0,2.69E-43,0.0,-1.05007105E-23,62,5.5879354E-9,-5.587965E-9,9.4E-44,False,False,0,None,0.0,1.0842022E-19,
147658380,38.376,13.623224815353945,66.28319715627568,11,-24.060965,-24.222982,-0.023043558,0.010012488,-0.9775757,0.97789854,0.38265797,0.07197049,0.28826255,0.4844607,26,241,1538,1556.0,-0.00339338,-0.007328436,0.020314889,0.021861283,0.008075951963299714,-0.008075951963299714,-0.6145531727022938,-1.3824634302334193,-90.66174188027333,269.3382581197267,6.239975053547077,12.243222398508523,0.6956885854493662,-92.45718625395281,5.379663998762798,0.43171665378979435,-89.84719711863465,-84.78273665561879,32.78,0.3002124156494155,,13.6231032,66.283202,20190520,81206,2019-05-20T08:12:06Z,28.987,1.01,1.89,35.16,8,3,11,0.0,0.0,0.0,0,0,0,0,4,4,13.6231048817679,66.28320085042876,50,1751252,19,100,166,3619,3619,4380,4389,125,17586,26,1,17112,0,false,false,false,false,false,false,false,false,false,false,0,0,0,0,41,53,53,40,943,944,944,944,940,940,940,940,0.0,0.0,0.0,0.0,1725.0,1717.1,1717.7,1723.2,0.0,0.0,0.0,0.0,0,0,0,0,-45.0,13.623103686157384,66.28320183077227,0,-23.992264,-24.204855,-0.023712043,0.01018468,-0.97873,0.9790702,0.4263498,-0.03625976,0.26702923,0.5043744,26,241,1541,1559.0,0.0011454714,6.669517E-4,-6.166163E-4,0.0014618976,0.0013254920305590973,0.12451169123408795,-0.6607401466438624,-1.2641244687202424,-91.65424681275233,268.3457531872477,4.293392763980018,9.300999414718419,0.8922981817133331,-91.75743757392932,0.12141815795159046,7448889.200965337,-27.81632119320042,-22.75186073018455,32.78,NONE,0.0,0.0,0.0,NONE,6.547955422474207E-11,5.0843761100487014E-11,-3.8146973E-6,17.327,17.327,6.198,1.2231653,0,3527,4.327,12.0,1.229,100,21.2,OK,35,0,0,0,0,0,65,100,0.0,0,0.0,7.4515394E-13,9.0E-44,0.0,-1.05007105E-23,62,5.5879354E-9,-5.587965E-9,1.1433751E-35,False,False,0,None,2.368334E29,1.0842106E-19,geoDeclination|506 degrees
151682239,39.422,13.623103679575118,66.28320291208631,11,-23.986979,-24.226543,-0.023449197,0.010836202,-0.9788204,0.9791612,0.2624458,0.08939329,0.19233386,0.33743337,26,238,1535,1553.0,-0.001172839,-0.011246409,0.012069022,0.016538396,0.01130739910378471,5.205261367905686,-0.6263085186704078,-1.3757323389664418,-90.62383720742959,269.3761627925704,6.382174886608169,12.616787676235148,0.722831535857894,-92.42659395802094,0.23546675401147701,5.937433738761397,-9.397274848019812,-4.3328143850039424,33.09,0.37419846911621235,,13.6231032,66.2832026,20190520,81207,2019-05-20T08:12:07Z,29.134,1.01,1.89,31.75,8,3,11,0.0,0.01,-0.01,0,0,0,0,4,4,13.6231048817679,66.28320085042876,50,1751253,114,100,167,3619,3619,4379,4387,0,17512,26,3622,677,0,false,false,false,false,false,false,false,false,false,false,0,0,0,0,41,53,55,41,944,945,944,944,940,940,940,940,0.0,0.0,0.0,0.0,1725.0,1716.5,1716.5,1723.2,0.0,0.0,0.0,0.0,0,0,0,0,-45.0,13.623103770489683,66.28320231860162,0,-23.923563,-24.204668,-0.022522949,0.0107508125,-0.97964245,0.9799603,0.34043893,0.007738771,0.17423047,0.3825112,26,238,1532,1550.0,-0.0014938734,-0.0012116454,-0.0024580362,0.0031211672,0.001923471495054999,0.05007117958384889,-0.6794535787928045,-1.2656139751371773,-91.66857041717866,268.33142958282133,4.450753270745129,9.689384448801436,0.9066538715082172,-91.73956859774621,0.17065133628508472,7448889.277406961,-17.507338444466406,-12.442877981450534,33.08,NONE,0.0,0.0,0.0,NONE,-5.666019966870037E-11,-3.788863105577241E-11,0.0,17.327,17.327,6.198,1.2246895,0,3527,4.327,12.0,1.238,100,21.3,OK,36,0,0,0,0,0,65,100,0.0,0,0.0,4.2738293E-9,9.0E-44,0.0,-1.05007105E-23,62,5.5879354E-9,-5.587965E-9,1.2343522E-35,False,False,0,None,2.7269498E29,1.0842106E-19,geoInclination|7640 degrees
155531520,40.422,13.623104080720719,66.28320281672849,12,-24.092672,-24.242102,-0.02266864,0.010575292,-0.9781435,0.97846335,0.51406974,-0.15169615,0.15938814,0.5591815,29,235,1529,1547.0,-0.0071054874,-0.014444775,0.013911828,0.021276241,0.016097810029711834,0.0047337223939758685,-0.6349382455586645,-1.4076801719571304,-90.61538968680794,269.38461031319207,6.565860314173796,12.97362399455883,0.6774396502761774,-91.93335144476036,0.22155833155091997,5.988293877376696,160.2226558242613,165.28711628727717,33.37,0.2685046519775405,,13.6231039,66.2832024,20190520,81208,2019-05-20T08:12:08Z,28.947,0.97,1.79,28.42,8,4,12,-0.01,0.0,0.01,0,0,0,0,4,4,13.6231048817679,66.28320085042876,50,1823543,16,100,168,3604,3617,4327,4344,-1392,17254,23,0,16709,0,false,false,false,false,false,false,false,false,false,false,0,0,0,0,42,53,54,41,945,945,944,945,940,940,940,940,0.0,0.0,0.0,0.0,1725.0,1716.5,1715.9,1725.0,0.0,0.0,0.0,0.0,0,0,0,0,-45.0,13.623104472833463,66.28320205083111,0,-24.05568,-24.205326,-0.022878857,0.009941663,-0.9770238,0.9773422,0.4130049,0.025059324,0.17453511,0.44906962,29,235,1529,1547.0,5.066241E-4,-1.8136138E-4,0.0014536327,0.0015500349,5.381077488303942E-4,0.04272508076523159,-0.6856015342196345,-1.2924280328165283,-91.71102232004093,268.2889776799591,4.638420547314871,10.07993733875185,0.9268036720439327,-91.227805229169,0.13472583387594336,7448889.370817831,108.09846839211451,113.16292885513039,33.35,NONE,0.0,0.0,0.0,NONE,-2.2880403538610862E-11,2.5868428866704657E-11,3.8146973E-6,17.326,17.326,6.198,1.2265755,0,3527,4.327,12.0,1.239,100,21.3,OK,37,0,0,0,0,0,65,100,0.0,0,0.0,0.0030055642,9.0E-44,0.0,-1.0298358E-23,62,5.5879354E-9,-5.587965E-9,1.2520213E-35,False,False,0,None,2.768827E29,1.0842106E-19,geoIntensity|5254341 nanoTesla
159383491,41.423,13.623105861774714,66.28320201172313,12,-23.88657,-24.208858,-0.023012418,0.011012034,-0.97946936,0.97980154,0.34854177,0.05704378,0.12799315,0.37565622,26,238,1538,1556.0,-0.0015599766,-0.0191624,-0.005860473,0.02009916,0.019225791898804145,0.10046480197366492,-0.6491657414981258,-1.424652674800297,-90.60385274730794,269.39614725269206,6.750072706728162,13.361863710245544,0.6667988696869925,-92.72953503057214,0.13636588988995177,6.1140335631740665,104.16913754783121,109.23359801084707,33.73,0.4746070231933608,,13.6231051,66.283202,20190520,81209,2019-05-20T08:12:09Z,28.682,0.97,1.79,26.28,8,4,12,0.0,0.0,-0.02,0,0,0,0,4,4,13.6231048817679,66.28320085042876,50,1823543,20,100,169,3604,3617,4327,4344,-1392,17254,23,2,16709,0,false,false,false,false,false,false,false,false,false,false,0,0,0,0,41,54,53,42,944,944,943,945,940,940,940,940,0.0,0.0,0.0,0.0,1723.2,1716.5,1716.5,1723.2,0.0,0.0,0.0,0.0,0,0,0,0,-45.0,13.62310617847896,66.28320136042524,0,-23.891855,-24.205296,-0.02268188,0.010562836,-0.97909003,0.9794097,0.43273705,-0.013395345,0.14487372,0.45654047,26,238,1529,1547.0,5.620275E-4,-0.0011015281,-0.002032572,0.002379199,0.0012366240105530176,0.10686916467846301,-0.6934069167667041,-1.3039359266883173,-91.68957339966562,268.3104266003344,4.84077529771597,10.488308722278363,0.9159037099344206,-91.94999353376532,0.08111282272595678,7448889.497247876,116.26991470201523,121.3343751650311,33.71,NONE,0.0,0.0,0.0,NONE,3.544382441307828E-11,7.888323048762975E-11,-1.1444092E-5,17.325,17.325,6.198,1.2289437,0,3526,4.327,12.0,1.248,100,21.3,OK,38,0,0,0,0,0,65,100,0.0,0,0.0,6.081561E-16,2.69E-43,0.0,-1.0298358E-23,62,5.5879354E-9,-5.587965E-9,1.1054838E-35,False,False,0,None,2.188736E29,1.0842106E-19,
163246013,42.427,13.623107475656376,66.28320145151596,12,-23.949986,-24.219385,-0.02317734,0.0108638285,-0.9781503,0.9784852,0.41009513,0.04722842,0.2591076,0.48738617,29,238,1544,1562.0,-0.013551755,-0.0043435656,-0.0030104294,0.014545766,0.014230833345910703,0.08074612636657084,-0.6617559339349872,-1.3968876884112857,-90.60530483224316,269.3946951677568,6.929045259510973,13.769555694558761,0.7010897760455256,-91.92063254403725,0.1338866858066947,6.209776214316458,131.8785206269862,136.94298109000206,34.01,0.4111914958496108,,13.623106,66.2832017,20190520,81210,2019-05-20T08:12:10Z,28.459,0.97,1.79,24.97,8,4,12,-0.01,0.0,0.0,0,0,0,0,4,4,13.6231048817679,66.28320085042876,50,1823543,20,100,169,3604,3617,4327,4344,-1392,17254,23,2,16709,0,false,false,false,false,false,false,false,false,false,false,0,0,0,0,41,54,54,42,944,944,943,946,940,940,940,940,0.0,0.0,0.0,0.0,1725.0,1716.5,1715.9,1723.2,0.0,0.0,0.0,0.0,0,0,0,0,-45.0,13.623107324558353,66.28320100311677,0,-23.934132,-24.205238,-0.023639556,0.01098412,-0.9793777,0.9797245,0.313318,-0.13768406,0.2515448,0.42473504,29,238,1544,1562.0,-9.148935E-5,-2.2055878E-4,-8.16891E-4,8.5107423E-4,2.3878123596616577E-4,0.06436524111979099,-0.696367728617034,-1.2960795101319253,-91.69831097873374,268.30168902126627,5.054723485292522,10.88260261729889,0.9140993660218955,-91.30816713171083,0.11056370326095781,7448889.596385826,-31.565050412080996,-26.500589949065127,34.03,NONE,0.0,0.0,0.0,NONE,7.1553258657917705E-12,-3.2384687773413414E-11,-3.8146973E-6,17.326,17.326,6.199,1.231612,0,3526,4.326,12.0,1.238,100,21.3,OK,39,0,0,0,0,0,65,100,0.0,0,0.0,-4.58663475E17,2.68E-43,0.0,-1.0298358E-23,62,5.5879354E-9,-5.587965E-9,1.15072194E-35,False,False,0,None,2.4031995E29,1.0842106E-19,
167102202,43.429,13.623107808990618,66.28320149703424,12,-24.082102,-24.224453,-0.023482468,0.010584236,-0.9787838,0.97912264,0.25487146,0.0036833764,0.20769428,0.32880077,26,232,1520,1537.0,-0.02410649,-0.019697286,-7.988771E-4,0.031140713,0.031130465235944375,-0.015421188907358517,-0.6560975533125974,-1.4194298543431636,-90.61434260139573,269.3856573986043,7.130689713779272,14.130491653770136,0.718545807787933,-92.66125302687307,0.14936231440886946,6.249068878221039,65.77048739783314,70.834947860849,34.29,0.27907517810058735,,13.6231069,66.2832015,20190520,81211,2019-05-20T08:12:11Z,28.212,0.97,1.8,23.31,8,4,12,0.0,0.0,-0.01,0,0,0,0,4,4,13.6231048817679,66.28320085042876,50,1825135,48,10,171,283,3569,3666,3670,-1194,14681,44,212,14675,0,false,false,false,false,false,false,false,false,false,false,0,0,0,0,41,52,53,41,944,944,943,945,940,940,940,940,0.0,0.0,0.0,0.0,1722.6,1716.5,1716.5,1723.2,0.0,0.0,0.0,0.0,0,0,0,0,-45.0,13.623107779287825,66.28320091704008,0,-24.03454,-24.206184,-0.022868473,0.010664768,-0.97895414,0.9792793,0.36271286,0.1030803,0.06442495,0.38253984,26,235,1523,1541.0,-3.808396E-4,-7.048269E-4,0.0020285551,0.0021810217,8.011365204997271E-4,0.021626564836201054,-0.6871580614168343,-1.437496092751152,-91.9435750654578,268.0564249345422,5.243821750890982,11.252998302019584,0.880229717154538,-92.74479615057274,0.12980135293972817,7448889.671615713,-174.43145327071187,-169.366992807696,34.33,NONE,0.0,0.0,0.0,NONE,-6.622836522027628E-11,1.4304187017784004E-11,3.8146973E-6,17.325,17.325,6.199,1.2340372,0,3526,4.327,12.0,1.238,100,21.3,OK,40,0,0,0,0,0,65,100,0.0,0,0.0,-1.49456159E10,2.68E-43,0.0,-1.0298358E-23,62,5.5879354E-9,-5.587965E-9,1.1807889E-35,False,False,0,None,2.5457076E29,1.0842106E-19,
170999575,44.442,13.623108606634764,66.28320127749733,12,-24.05568,-24.230892,-0.023999114,0.0102930935,-0.9781863,0.97853476,0.39385232,0.009379948,0.2821652,0.48458728,26,238,1532,1550.0,-0.0044426834,-0.015889755,-0.0050271912,0.017248025,0.016499142939881865,0.026176782266670782,-0.6683749008272216,-1.4103747240140234,-90.62928960514557,269.3707103948544,7.343430199826015,14.57436223566562,0.7112133907906711,-92.60583298124149,0.17322858070642258,6.301893163783085,133.44216782368792,138.5066282867038,34.58,0.3054976787109389,,13.6231077,66.2832012,20190520,81212,2019-05-20T08:12:12Z,28.042,0.97,1.8,22.14,8,4,12,0.0,-0.02,-0.02,0,0,0,0,4,4,13.6231048817679,66.28320085042876,50,1825135,17,10,172,283,3569,3667,3670,-1086,14681,44,0,14681,0,false,false,false,false,false,false,false,false,false,false,0,0,0,0,42,54,54,42,944,945,944,945,940,940,940,940,0.0,0.0,0.0,0.0,1723.2,1715.9,1716.5,1722.6,0.0,0.0,0.0,0.0,0,0,0,0,-45.0,13.623108672319782,66.28320074101924,0,-23.891855,-24.204805,-0.023924014,0.009995324,-0.97856873,0.9789122,0.25753224,-0.06644053,0.078783356,0.27738786,29,235,1532,1550.0,-9.88203E-4,9.204858E-4,-0.002096828,0.0024940984,0.0013504959400320539,0.042560892599686026,-0.6852866138745545,-1.4343660718495308,-91.93876340070723,268.0612365992928,5.354124575951836,11.62022384949498,0.8709904536804873,-92.09918248878229,0.16996613424707224,7448889.740771313,148.2066658361209,153.27112629913677,34.62,NONE,0.0,0.0,0.0,NONE,-1.0167218837108733E-10,-8.914233815005949E-12,-1.5258789E-5,17.322,17.322,6.197,1.2358706,0,3525,4.327,12.0,1.236,100,21.4,OK,41,0,0,0,0,0,65,100,0.0,0,0.0,-1.7843018,2.68E-43,0.0,-1.0298358E-23,62,5.5879354E-9,-5.587965E-9,1.2833188E-35,False,False,0,None,2.84291E29,1.0842106E-19,
175048559,45.494,13.623109332795464,66.2832005706558,12,-24.293488,-24.237806,-0.023678187,0.010403263,-0.9802777,0.98061883,0.3486775,0.056022454,0.15315366,0.38492927,26,241,1535,1554.0,-0.009299708,-0.012886376,0.0021394407,0.016034976,0.015891609424436043,0.06492354179274837,-0.6623615853105972,-1.4008164939972694,-90.62828778330721,269.3717122166928,7.526798623645101,14.930175765819014,0.765310812877474,-92.53670711067402,0.20148568104558057,6.388045267738787,161.01228568037334,166.07674614338922,34.96,0.06768945117187641,,13.6231084,66.2832007,20190520,81213,2019-05-20T08:12:13Z,27.929,0.97,1.8,21.14,8,4,12,0.0,0.0,0.0,0,0,0,0,4,4,13.6231048817679,66.28320085042876,50,1831789,48,10,173,286,3572,3714,3717,0,14866,27,212,5,0,false,false,false,false,false,false,false,false,false,false,0,0,0,0,43,53,54,43,945,944,943,946,940,940,940,940,0.0,0.0,0.0,0.0,1723.2,1715.9,1717.1,1723.2,0.0,0.0,0.0,0.0,0,0,0,0,-45.0,13.623109362661515,66.28320013338963,0,-23.95527,-24.20582,-0.023726156,0.010319128,-0.98165816,0.98199904,0.38020974,0.14979309,0.12482863,0.42729336,26,241,1538,1556.0,5.953332E-4,2.3459434E-4,-8.80467E-4,0.0010884292,6.398875510057928E-4,0.06995278822425123,-0.6745887779891103,-1.4453380238848383,-91.94050085048347,268.0594991495165,5.500333705808591,11.959264453930762,0.8800643007760609,-92.81228420515922,0.21568341432257235,7448889.8295978615,128.7061168719098,133.7705773349257,34.96,NONE,0.0,0.0,0.0,NONE,-7.82093740249015E-11,-4.180507939962346E-11,3.8146973E-6,17.322,17.322,6.195,1.2372578,0,3524,4.326,12.0,1.244,100,21.4,OK,42,0,0,0,0,0,65,100,0.0,0,0.0,-3.9347625E-24,2.68E-43,0.0,-1.0298358E-23,62,5.5879354E-9,-5.587965E-9,1.4261781E-35,False,False,0,None,3.1938853E29,1.0842106E-19,
178967662,46.513,13.623109584855198,66.28320035857874,12,-24.092672,-24.245419,-0.023972848,0.009829584,-0.9803894,0.9807317,0.22237022,0.031160524,0.2768139,0.35643432,26,235,1523,1541.0,-0.020681154,-0.021266995,0.0016792887,0.029712206,0.029664712633654566,-0.004003000021891183,-0.6731239121415281,-1.3954435195922383,-90.63562124813916,269.36437875186084,7.679642258676993,15.31679887026585,0.7996364969013416,-92.49688909617166,0.21733664122857063,6.435679664097927,,,35.3,0.2685046519775405,,13.6231085,66.2832005,20190520,81214,2019-05-20T08:12:14Z,27.903,0.97,1.8,20.2,8,4,12,0.0,0.0,-0.01,0,0,0,0,4,4,13.6231048817679,66.28320085042876,50,1831789,48,10,174,286,3572,3714,3717,0,14866,27,212,5,0,false,false,false,false,false,false,false,false,false,false,0,0,0,0,41,53,52,41,945,944,943,945,940,940,940,940,0.0,0.0,0.0,0.0,1722.6,1716.5,1715.9,1722.0,0.0,0.0,0.0,0.0,0,0,0,0,-45.0,13.62310938582278,66.28319983903368,0,-24.092672,-24.206118,-0.02336392,0.010872009,-0.97849685,0.9788361,0.38786286,0.06877341,0.18585923,0.4355583,26,238,1535,1553.0,-0.001141837,3.3585744E-5,-0.0019267644,0.002239942,0.0011423308156143144,0.03100831492304682,-0.6583194330347891,-1.3471678436971584,-91.82180968265351,268.1781903173465,5.646054671537172,12.373121213666582,0.9305629730411925,-92.2467616884094,0.23070814725314692,7448889.907279363,168.42927781510613,173.493738278122,35.28,NONE,0.0,0.0,0.0,NONE,-3.7024649940490036E-11,-7.500024714963536E-11,1.1444092E-5,17.322,17.322,6.195,1.238428,0,3524,4.326,12.0,1.239,100,21.5,OK,43,0,0,0,0,0,65,100,0.0,0,0.0,-5.088386E-33,2.68E-43,0.0,-1.0298358E-23,62,5.5879354E-9,-5.587965E-9,1.465447E-35,False,False,0,None,3.38006E29,1.0842106E-19,
182828842,47.516,13.623109132175106,66.28320033271396,12,-23.97641,-24.274815,-0.023103459,0.010062012,-0.97795266,0.97827727,0.31010726,-0.07020687,0.18954098,0.3701639,34,241,1538,1557.0,-0.0032015431,0.0010839548,0.011160688,0.011661294,0.0033800644927351703,0.01699765008122645,-0.648835082062154,-1.3769234623646924,-90.6345125327502,269.3654874672498,7.876907030933475,15.678733938448143,0.8126661585596822,-90.64283935507169,0.1986223381133295,6.4734960407797635,177.08359763991234,-177.85194189707178,35.54,0.3847670878906264,,13.6231084,66.2832003,20190520,81215,2019-05-20T08:12:15Z,27.842,0.97,1.8,19.44,8,4,12,-0.02,0.0,0.0,0,0,0,0,4,4,13.6231048817679,66.28320085042876,50,1831789,48,10,175,286,3572,3714,3717,0,14866,27,212,5,0,false,false,false,false,false,false,false,false,false,false,0,0,0,0,43,54,55,43,945,944,943,946,940,940,940,940,0.0,0.0,0.0,0.0,1722.6,1715.9,1715.3,1722.0,0.0,0.0,0.0,0.0,0,0,0,0,-45.0,13.623109131599668,66.28319985086483,0,-24.092672,-24.206615,-0.023712503,0.0093251085,-0.97920877,0.97954017,0.44744956,-0.031007038,0.17787966,0.48250774,32,238,1526,1544.0,-0.0016641837,-7.017895E-4,4.4675058E-4,0.001860538,0.0018061051333256607,0.009599768868257417,-0.6609285116718656,-1.3405172918850887,-91.8234548828925,268.1765451171075,5.8073905108539075,12.78222245374391,0.9483094993668861,-90.81635502514004,0.22018308594256863,7448889.958534489,-144.01725474570088,-138.952794282685,35.57,NONE,0.0,0.0,0.0,NONE,-8.28686543226176E-11,-6.254918334832351E-11,1.9073486E-6,17.32,17.32,6.192,1.239345,0,3524,4.326,12.0,1.24,100,21.5,OK,44,0,0,0,0,0,65,100,0.0,0,0.0,-4.2261226E-35,2.68E-43,0.0,-1.0298358E-23,62,5.5879354E-9,-5.587965E-9,1.4413126E-35,False,False,0,None,3.265647E29,1.0842106E-19,
186743491,48.534,13.623109442427788,66.2832000409885,12,-24.05568,-24.267271,-0.02331472,0.011195957,-0.9798749,0.9802162,0.4762916,0.026480393,0.23944066,0.5337478,32,238,1532,1550.0,-0.018840458,-0.014756913,3.4845248E-4,0.023934301,0.023931764078456166,0.010746410795982403,-0.6859792604473084,-1.4116034571735583,-90.63781277715454,269.3621872228455,8.053699061622991,16.03143440633496,0.7947835099634578,-91.26877919886789,0.22294824639259153,6.537259870250466,-52.55675099402653,-47.49229053101066,35.86,0.3054976787109389,,13.6231085,66.2832002,20190520,81216,2019-05-20T08:12:16Z,27.753,0.97,1.8,18.84,8,4,12,-0.01,-0.01,-0.01,0,0,0,0,4,4,13.6231048817679,66.28320085042876,50,1831789,48,10,176,286,3572,3714,3717,0,14866,27,212,5,0,false,false,false,false,false,false,false,false,false,false,0,0,0,0,43,54,54,42,945,944,943,946,940,940,940,940,0.0,0.0,0.0,0.0,1722.6,1716.5,1717.1,1723.2,0.0,0.0,0.0,0.0,0,0,0,0,-45.0,13.62310930156303,66.28319966221645,0,-24.12438,-24.206327,-0.023632506,0.01018146,-0.9796209,0.9799588,0.3198965,0.019018525,0.15144165,0.35444328,29,241,1532,1551.0,2.7121618E-4,-0.0012189873,-0.0012771249,0.0017862072,0.00124879468641687,0.020681210947056602,-0.669681044963147,-1.34057989321358,-91.83045326492278,268.16954673507723,5.963767919114182,13.177537132687892,0.9297478753401206,-91.50046077912529,0.23776256048912117,7448890.010821648,,,35.83,NONE,0.0,0.0,0.0,NONE,-1.805471670276554E-10,-4.6335400953686745E-11,-7.6293945E-6,17.318,17.318,6.192,1.2406884,0,3523,4.326,12.0,1.276,100,21.5,OK,45,0,0,0,0,0,65,100,0.0,0,0.0,4.267419E36,2.68E-43,0.0,-1.0298358E-23,62,5.5879354E-9,-5.587965E-9,1.4948344E-35,False,False,0,None,3.519425E29,1.0842106E-19,
