Tick#,offsetTime,IMU_ATTI(0):Longitude,IMU_ATTI(0):Latitude,IMU_ATTI(0):numSats,IMU_ATTI(0):barometer:Raw,IMU_ATTI(0):barometer:Smooth,IMU_ATTI(0):accel:X,IMU_ATTI(0):accel:Y,IMU_ATTI(0):accel:Z,IMU_ATTI(0):accel:Composite,IMU_ATTI(0):gyro:X,IMU_ATTI(0):gyro:Y,IMU_ATTI(0):gyro:Z,IMU_ATTI(0):gyro:Composite,IMU_ATTI(0):mag:X,IMU_ATTI(0):mag:Y,IMU_ATTI(0):mag:Z,IMU_ATTI(0):mag:Mod,IMU_ATTI(0):velN,IMU_ATTI(0):velE,IMU_ATTI(0):velD,IMU_ATTI(0):velComposite,IMU_ATTI(0):velH,IMU_ATTI(0):GPS-H,IMU_ATTI(0):roll,IMU_ATTI(0):pitch,IMU_ATTI(0):yaw,IMU_ATTI(0):yaw360,IMU_ATTI(0):totalGyro:Z,IMU_ATTI(0):totalGyro:X,IMU_ATTI(0):totalGyro:Y,IMU_ATTI(0):magYaw,IMU_ATTI(0):distanceHP,IMU_ATTI(0):distanceTravelled,IMU_ATTI(0):directionOfTravel[mag],IMU_ATTI(0):directionOfTravel[true],IMU_ATTI(0):temperature,General:relativeHeight,General:absoluteHeight,GPS(0):Long,GPS(0):Lat,GPS(0):Date,GPS(0):Time,GPS:dateTimeStamp,GPS(0):heightMSL,GPS(0):hDOP,GPS(0):pDOP,GPS(0):sAcc,GPS(0):numGPS,GPS(0):numGLNAS,GPS(0):numSV,GPS(0):velN,GPS(0):velE,GPS(0):velD,RC:Aileron,RC:Elevator,RC:Rudder,RC:Throttle,Controller:navHealth,Controller:ctrl_level,HP:Longitude,HP:Latitude,HP:rthHeight,BatBlackBox:tick,BatBlackBox:id,BatBlackBox:rsoc,BatBlackBox:index,BatBlackBox:rm,BatBlackBox:fcc,BatBlackBox:cell_min,BatBlackBox:cell_max,BatBlackBox:current,BatBlackBox:voltage,BatBlackBox:temp,BatBlackBox:flag,BatBlackBox:reserve,BatBlackBox:user_data,OA:avoidObst,OA:emergBrake,OA:radiusLimit,OA:airportLimit,OA:groundForceLanding,OA:horizNearBoundary,OA:vertLowLimit,OA:vertAirportLimit,OA:roofLimit,OA:hitGroundLimit,Motor:Speed:RFront,Motor:Speed:LFront,Motor:Speed:LBack,Motor:Speed:RBack,Motor:EscTemp:RFront,Motor:EscTemp:LFront,Motor:EscTemp:LBack,Motor:EscTemp:RBack,Motor:PPMrecv:RFront,Motor:PPMrecv:LFront,Motor:PPMrecv:LBack,Motor:PPMrecv:RBack,Motor:PPMsend:RFront,Motor:PPMsend:LFront,Motor:PPMsend:LBack,Motor:PPMsend:RBack,Motor:V_out:RFront,Motor:V_out:LFront,Motor:V_out:LBack,Motor:V_out:RBack,Motor:Volts:RFront,Motor:Volts:LFront,Motor:Volts:LBack,Motor:Volts:RBack,Motor:Current:RFront,Motor:Current:LFront,Motor:Current:LBack,Motor:Current:RBack,Motor:Status:RFront,Motor:Status:LFront,Motor:Status:LBack,Motor:Status:RBack,Motor:thrustAngle,IMU_ATTI(1):Longitude,IMU_ATTI(1):Latitude,IMU_ATTI(1):numSats,IMU_ATTI(1):barometer:Raw,IMU_ATTI(1):barometer:Smooth,IMU_ATTI(1):accel:X,IMU_ATTI(1):accel:Y,IMU_ATTI(1):accel:Z,IMU_ATTI(1):accel:Composite,IMU_ATTI(1):gyro:X,IMU_ATTI(1):gyro:Y,IMU_ATTI(1):gyro:Z,IMU_ATTI(1):gyro:Composite,IMU_ATTI(1):mag:X,IMU_ATTI(1):mag:Y,IMU_ATTI(1):mag:Z,IMU_ATTI(1):mag:Mod,IMU_ATTI(1):velN,IMU_ATTI(1):velE,IMU_ATTI(1):velD,IMU_ATTI(1):velComposite,IMU_ATTI(1):velH,IMU_ATTI(1):GPS-H,IMU_ATTI(1):roll,IMU_ATTI(1):pitch,IMU_ATTI(1):yaw,IMU_ATTI(1):yaw360,IMU_ATTI(1):totalGyro:Z,IMU_ATTI(1):totalGyro:X,IMU_ATTI(1):totalGyro:Y,IMU_ATTI(1):magYaw,IMU_ATTI(1):distanceHP,IMU_ATTI(1):distanceTravelled,IMU_ATTI(1):directionOfTravel[mag],IMU_ATTI(1):directionOfTravel[true],IMU_ATTI(1):temperature,IMUEX(0):err,IMUEX(0):rtk_Longitude,IMUEX(0):rtk_Latitude,IMUEX(0):rtk_Alti,IMUEX(1):err,IMUEX(1):rtk_Longitude,IMUEX(1):rtk_Latitude,IMUEX(1):rtk_Alti,BattInfo:Voltage,BattInfo:BatVoltage,BattInfo:AdVoltage,BattInfo:AvgCurrent,BattInfo:R_time,BattInfo:R_CAP_MAH,BattInfo:LowCellVoltage,BattInfo:LowCellVolThreshold,BattInfo:BatCurrent,BattInfo:Remaining%,BattInfo:Temp,BattInfo:status,battery_info:BatDynCnt,battery_info:Vol1Protect,battery_info:Vol2Protect,battery_info:Cap1Protect,battery_info:Cap2Protect,battery_info:Batpresent,battery_info:sopPercentage,battery_info:sopValue,battery_info:sopScale,battery_info:sopFlg,BattInfo:WindHeading:WindDir,battery_info:home_dir,BattInfo:Wind:rangeMin,BattInfo:Wind:rangeMax,battery_info:cap_speed,battery_info:against_wind,battery_info:emergency_land_cap,battery_info:intel_bat_land_cap,battery_info:intel_bat_gh_cap,BattInfo:Smart:SmartGh,BattInfo:Smart:SmartLand,BattInfo:GoHome:CntDown,BattInfo:GoHome:GhCmd,BattInfo:GoHome:CapLevel,BattInfo:GoHome:LandCapLv,Attribute|Value,ConvertDatV3,3.6.6-Tablet
7339061,1.907,,,,,,,,,,,,,,,,,,,,,,,,,,,,,,,,,,,,,,,,,,,,,,,,,,,,,,,,,,,,,,,,,,,,,,,,,,,,,,,,,,,,,,,,,,,,,,,,,,,,,,,,,,,,,,,,,,,,,,,,,,,,,,,,,,,,,,,,,,,,,,,,,,,,,,,,,,,,,,,,,,,,,,,,,,,,,,,OK,,,,,,,,,,,,,,,,,,,,,,,,,,Firmware Date| Oct 17 2018
124125429,32.260,,,,,,,,,,,,,,,,,,,,,,,,,,,,,,,,,,,,,,,,,,,,,,,,,,,,,,,,,,,,,,,,,,,,,,,,,,,,,,,,,,,,,,,,,,,,,,,,,,,,,,,,,,,,,,,,,,,,,,,,,,,,,,,,,,,,,,,,,,,,,,,,,,,,,,,,,,,,,,,,,,,,,,,,,,,,,,,OK,,,,,,,,,,,,,,,,,,,,,,,,,,ACType|MavicEnterprise
128159590,33.308,,,0,144.80177,145.0726,0.055473365,-0.0032608793,-0.9787403,0.9803165,0.2402853,0.10541794,0.14897998,0.30173665,-147,-199,2591,2602.0,0.0,0.0,-0.005283458,0.005283458,0.0,0.0,0.24221959693759343,3.4210397387497395,47.800151726240074,47.800151726240074,0.14268995552036717,0.3435262000155594,-0.010271428311479654,87.86610562459575,,0.0,,,30.64,,,0.0,0.0,20151018,31,2015-10-18T00:00:31Z,-17.0,99.99,99.99,3.75E7,0,0,0,0.0,0.0,0.0,0,0,0,0,0,0,,,,71,22,26,22,954,3728,3780,3781,0,15126,25,5,0,0,false,false,false,false,false,false,false,false,false,false,0,0,0,0,41,51,52,41,944,945,944,944,940,940,940,940,0.0,0.0,0.0,0.0,1713.4,1708.5,1708.5,1713.4,0.0,0.0,0.0,0.0,0,0,0,0,-45.0,9.967495607240066E-13,3.096578874979603E-11,0,144.77007,144.80203,0.054589786,-0.002950001,-0.97917145,0.98069644,0.5000256,0.09793098,0.161116,0.53439164,-147,-199,2591,2602.0,6.766281E-4,2.1041555E-5,-0.0021114596,0.002217325,6.769551813198795E-4,-6.769551813198795E-4,0.17983415588675553,3.710497946213315,92.88123380287722,92.8812338028772,0.2058206249042135,0.39856031976762796,0.07924555566752707,84.22622734370081,,5.5977325381367096E-5,,,30.7,NONE,0.0,0.0,0.0,NONE,1.155347790086381E-11,-5.370169835646858E-12,0.0,17.237,17.237,6.168,1.2296809,0,3508,4.303,12.0,1.233,98,19.9,OK,31,0,0,0,0,0,65,100,0.0,0,0.0,589232.0,2.69E-43,0.0,-5.9807744E7,62,2.622619E-7,-2.622638E-7,9.4E-44,False,False,0,None,0.0,1.0842022E-19,dateTime|2015-10-18 0:0:30 GMT
132083579,34.328,0.0,0.0,0,144.91803,145.03505,0.05440334,-0.0042380104,-0.9786381,0.98015827,0.46746236,-0.105575636,0.20108052,0.5197121,-144,-199,2582,2593.0,-0.087469265,-0.0959789,0.016148275,0.13085712,0.1298569244742899,-0.1298569244742899,0.23906166326830827,3.410478130656688,47.80188976120528,47.8018897612053,0.3425913422949113,0.7268416139155353,0.04965957107387459,87.32394399855897,,0.0,,,30.96,,,0.0,0.0,20151018,32,2015-10-18T00:00:32Z,-17.0,99.99,99.99,3.75E7,0,0,0,0.0,0.0,0.0,0,0,0,0,0,0,,,,0,0,0,23,0,0,0,0,0,0,19,255,0,0,false,false,false,false,false,false,false,false,false,false,0,0,0,0,42,52,52,42,944,944,944,945,940,940,940,940,0.0,0.0,0.0,0.0,1715.9,1707.3,1709.7,1714.6,0.0,0.0,0.0,0.0,0,0,0,0,-45.0,-1.4400853876326579E-10,4.584632950628106E-11,0,145.11092,144.7958,0.0547347,-0.0044983965,-0.9787441,0.9802837,0.61253864,0.021561768,0.07760781,0.6178118,-147,-199,2579,2590.0,0.0010152208,-0.0032130172,0.0041261753,0.005327239,0.003369592375245317,-0.0033536989663400813,0.1714347068518832,3.722856801217325,92.77513659886054,92.77513659886051,0.35977614260792684,0.8297092839266943,0.1898702397742627,84.27439240707344,,1.2161613377862985E-4,,,30.94,NONE,0.0,0.0,0.0,NONE,-3.35009029290858E-10,4.389600036521829E-11,6.1035156E-5,17.236,17.236,6.166,1.2306664,0,3508,4.303,12.0,1.235,98,19.9,OK,32,0,0,0,0,0,65,100,0.0,0,0.0,589232.0,2.69E-43,0.0,-5.9807744E7,62,2.622619E-7,-2.622638E-7,9.4E-44,False,False,0,None,0.0,1.0842022E-19,
135938500,35.330,0.0,0.0,0,144.667,145.05501,0.05431926,-0.0031836485,-0.97926635,0.9807769,0.40342164,0.14598179,0.24592298,0.49450767,-144,-199,2588,2599.0,-0.090855785,-0.09910289,0.012245149,0.13500407,0.1344476001918823,-0.1344476001918823,0.23610713662729266,3.3938558826706875,47.797957355617974,47.797957355617996,0.5316510988530566,1.1167783547475425,0.1161132522404416,87.43004872910888,,0.0,,,31.31,,,0.0,0.0,20151018,33,2015-10-18T00:00:33Z,-17.0,99.99,99.99,3.75E7,0,0,0,0.0,0.0,0.0,0,0,0,0,0,0,,,,0,48,0,24,0,0,0,0,0,0,19,212,0,0,false,false,false,false,false,false,false,false,false,false,0,0,0,0,42,52,52,42,944,945,944,944,940,940,940,940,0.0,0.0,0.0,0.0,1714.6,1707.3,1709.1,1715.3,0.0,0.0,0.0,0.0,0,0,0,0,-45.0,-2.0936809443440855E-10,1.05057380998637E-10,0,144.82555,144.79146,0.054883372,-0.0031908704,-0.9785107,0.98005384,0.44181773,0.032297265,0.12708688,0.4608656,-144,-201,2591,2602.0,0.0023296343,-0.0046551796,0.006040268,0.007973878,0.00520556361965244,-0.005195775491618177,0.1490031453006019,3.7265976122280042,92.75097088983468,92.75097088983466,0.5110354331882493,1.1383252661677792,0.2115658153062824,83.22659372055004,,1.4514504111765543E-4,,,31.21,NONE,0.0,0.0,0.0,NONE,-1.8931055403603066E-10,7.583590802298468E-11,3.0517578E-5,17.235,17.235,6.168,1.2315863,0,3508,4.303,12.0,1.234,98,19.9,OK,33,0,0,0,0,0,65,100,0.0,0,0.0,589232.0,2.69E-43,0.0,-5.9807744E7,62,2.622619E-7,-2.622638E-7,9.4E-44,False,False,0,None,0.0,1.0842022E-19,
139794384,36.332,0.0,0.0,0,144.69344,145.02072,0.054586377,-0.0032411916,-0.9794366,0.98096186,0.32514152,0.11418424,0.13166182,0.36890364,-147,-199,2588,2599.0,-0.080841385,-0.081914745,0.021516671,0.11708254,0.1150884674407397,-0.1150884674407397,0.22057685822767745,3.3750258265445856,47.79354753821407,47.79354753821406,0.7048513049110554,1.471528728659825,0.15535997234462537,88.47378449158823,,0.0,,,31.61,,,0.0,0.0,20151018,33,2015-10-18T00:00:33Z,-17.0,99.99,99.99,3.75E7,0,0,0,0.0,0.0,0.0,0,0,0,0,0,0,,,,0,48,0,25,0,0,0,0,0,0,19,212,0,0,false,false,false,false,false,false,false,false,false,false,0,0,0,0,42,52,52,42,944,945,944,945,940,940,940,940,0.0,0.0,0.0,0.0,1715.3,1707.3,1708.5,1714.0,0.0,0.0,0.0,0.0,0,0,0,0,-45.0,-1.4535965168223527E-11,-3.9351681243183545E-12,0,144.91275,144.7876,0.053841323,-0.00355377,-0.9796733,0.98115814,0.33245456,0.04775314,0.18035564,0.38122767,-144,-199,2588,2599.0,-8.799738E-5,-3.5497156E-4,0.0025263769,0.00255271,3.657162068539359E-4,-3.4094503286524703E-4,0.1368450352966815,3.708432783555334,92.63520896307622,92.63520896307625,0.7285008670195783,1.576385472209694,0.3055006246525904,83.42209626803309,,1.7897139458357528E-4,,,31.59,NONE,0.0,0.0,0.0,NONE,-1.4154474513516467E-10,2.4797938274943555E-11,6.1035156E-5,17.234,17.234,6.164,1.2324904,0,3507,4.302,12.0,1.239,98,19.9,OK,34,0,0,0,0,0,65,100,0.0,0,0.0,589232.0,2.69E-43,0.0,-5.9807744E7,62,2.622619E-7,-2.622638E-7,9.4E-44,False,False,0,None,0.0,1.0842022E-19,
143691834,37.345,0.0,0.0,0,144.81497,145.03735,0.055748858,-0.003780127,-0.98013955,0.981731,0.4175827,0.13317524,0.081273064,0.44577602,-144,-201,2591,2602.0,-0.087887116,-0.09013132,0.004007972,0.12595183,0.12588804669040368,-0.12588804669040368,0.21401515671618082,3.3955926427472383,47.76911017296685,47.76911017296686,0.8645041106939958,1.93145578471123,0.24755658050046392,87.37167860326107,,0.0,,,31.88,,,0.0,0.0,20151018,34,2015-10-18T00:00:34Z,-17.0,99.99,99.99,3.75E7,0,0,0,0.0,0.0,0.0,0,0,0,0,0,0,,,,0,48,0,26,0,0,0,0,0,0,19,212,0,0,false,false,false,false,false,false,false,false,false,false,0,0,0,0,41,52,53,42,944,945,944,945,940,940,940,940,0.0,0.0,0.0,0.0,1714.6,1707.9,1708.5,1714.0,0.0,0.0,0.0,0.0,0,0,0,0,-45.0,-1.9566454889165643E-10,4.120684691148683E-11,0,144.94974,144.78113,0.05423664,-0.003566816,-0.97846633,0.97997487,0.39268187,0.029030038,0.28869274,0.48824716,-144,-199,2594,2605.0,9.208267E-4,-0.0043751337,0.006038036,0.0075131617,0.004470986104614871,-0.00445049439773707,0.12102232906874535,3.732387567787708,92.62045323297187,92.62045323297184,0.9160241019801899,1.9341427271793037,0.270350126744526,82.99147190065364,,2.344135394014328E-4,,,31.86,NONE,0.0,0.0,0.0,NONE,-6.11907663589294E-10,1.0099463119479857E-10,6.1035156E-5,17.232,17.232,6.164,1.233312,0,3507,4.303,12.0,1.23,98,19.9,OK,35,0,0,0,0,0,65,100,0.0,0,0.0,589232.0,2.69E-43,0.0,-5.9807744E7,62,2.622619E-7,-2.622638E-7,9.4E-44,False,False,0,None,0.0,1.0842022E-19,
147558575,38.350,0.0,0.0,0,144.82819,145.00847,0.054687463,-0.0034132572,-0.9793325,0.98086417,0.51296216,-0.011664614,0.12157973,0.52730244,-144,-201,2582,2593.0,-0.100533426,-0.10517959,0.010172778,0.14585336,0.14549816662863924,-0.14549816662863924,0.2119439832511853,3.3958682629639285,47.75288457057475,47.752884570574736,1.020199755818898,2.3314859292832804,0.2964536188738058,87.51136665730196,,0.0,,,32.18,,,0.0,0.0,20151018,35,2015-10-18T00:00:35Z,-17.0,99.99,99.99,3.75E7,0,0,0,0.0,0.0,0.0,0,0,0,0,0,0,,,,0,48,0,27,0,0,0,0,0,0,19,212,0,0,false,false,false,false,false,false,false,false,false,false,0,0,0,0,42,53,52,42,944,945,944,944,940,940,940,940,0.0,0.0,0.0,0.0,1714.0,1707.3,1707.9,1714.6,0.0,0.0,0.0,0.0,0,0,0,0,-45.0,-2.9699382125106713E-10,-1.1051516559793232E-11,0,144.77007,144.77583,0.055247977,-0.0042233504,-0.9781694,0.97973746,0.4541236,0.13334684,0.20735085,0.5167243,-141,-199,2588,2599.0,-1.8008961E-4,-0.006592105,0.0035556257,0.0074920463,0.006594564598565436,-0.006581949557150374,0.14329258072682333,3.741087988770703,92.54798867244372,92.5479886724437,1.1311824734177094,2.355693018181412,0.3368434341128603,82.20467035723593,,2.80363043823195E-4,,,32.16,NONE,0.0,0.0,0.0,NONE,-3.3375412682926906E-10,-2.0329436210836816E-12,3.0517578E-5,17.233,17.233,6.164,1.2339143,0,3507,4.302,12.0,1.238,98,20.0,OK,36,0,0,0,0,0,65,100,0.0,0,0.0,589232.0,2.69E-43,0.0,-5.9807744E7,62,2.622619E-7,-2.622638E-7,9.4E-44,False,False,0,None,0.0,1.0842022E-19,
151583336,39.396,0.0,0.0,0,144.93124,145.03152,0.053837687,-0.003727788,-0.97883755,0.9803241,0.37180066,0.009303777,0.23124136,0.4379439,-144,-201,2588,2599.0,-0.09727018,-0.10724045,0.00692284,0.14494802,0.1447826081353654,-0.1447826081353654,0.20093945268157642,3.3581514543203514,47.72655921351686,47.72655921351685,1.1611406194690168,2.7548798245886155,0.3408929531103332,87.8728013723258,,0.0,,,32.51,,,0.0,0.0,20151018,37,2015-10-18T00:00:37Z,-17.0,99.99,99.99,3.75E7,0,0,0,0.0,0.0,0.0,0,0,0,0,0,0,,,,1,114,20,28,734,3702,3761,3763,0,15051,23,3850,3,0,false,false,false,false,false,false,false,false,false,false,0,0,0,0,42,53,52,42,944,945,944,945,940,940,940,940,0.0,0.0,0.0,0.0,1714.6,1707.3,1707.3,1713.4,0.0,0.0,0.0,0.0,0,0,0,0,-45.0,-7.838963681614792E-11,4.2168939634129514E-11,0,144.71193,144.77159,0.054757074,-0.004148133,-0.98080105,0.9823371,0.4221373,-0.010324805,0.15980075,0.4514895,-147,-201,2588,2599.0,9.829786E-4,-0.0017369434,-3.3402594E-4,0.0020235593,0.0019958004303802295,-0.0019718833570084764,0.1257354177504856,3.705330311835084,92.3649634389521,92.36496343895209,1.250492022217445,2.791537021127166,0.4413970783156525,84.32773498032894,,3.381617819783176E-4,,,32.55,NONE,0.0,0.0,0.0,NONE,-3.2304561753789904E-10,1.1282837108108135E-10,6.1035156E-5,17.231,17.231,6.165,1.234689,0,3506,4.302,12.0,1.249,98,20.0,OK,37,0,0,0,0,0,65,100,0.0,0,0.0,589232.0,2.69E-43,0.0,-5.9807744E7,62,2.622619E-7,-2.622638E-7,9.4E-44,False,False,0,None,0.0,1.0842022E-19,
155521329,40.419,0.0,0.0,0,144.82819,145.05045,0.054346144,-0.0037661307,-0.9784315,0.9799469,0.3548024,0.106107906,0.21450906,0.42796934,-147,-204,2572,2584.0,-0.06974546,-0.081355475,0.0051799477,0.107284546,0.107159424001945,-0.107159424001945,0.20087921829803743,3.358530966837187,47.71570021753398,47.71570021753399,1.3081178144010768,3.117438567427217,0.38892627734171903,88.95452390951334,,0.0,,,32.85,,,0.0,0.0,20151018,38,2015-10-18T00:00:38Z,-17.0,99.99,99.99,3.75E7,0,0,0,0.0,0.0,0.0,0,0,0,0,0,0,,,,28,48,20,29,734,3702,3761,3763,3,15050,23,212,11,0,false,false,false,false,false,false,false,false,false,false,0,0,0,0,42,52,52,41,944,944,944,945,940,940,940,940,0.0,0.0,0.0,0.0,1714.0,1707.9,1708.5,1713.4,0.0,0.0,0.0,0.0,0,0,0,0,-45.0,-1.496346899800744E-10,2.1935712687451357E-11,0,144.81233,144.76695,0.05436098,-0.0046896036,-0.98033124,0.9818485,0.37215066,0.08620646,0.23824959,0.45021164,-144,-193,2566,2577.0,5.4049067E-4,-0.0033559222,0.0045081684,0.005646054,0.0033991681898080184,-0.00339112165126621,0.12649731840891945,3.6641849172121996,92.14709593521063,92.14709593521064,1.4527854981401267,3.184684500561681,0.4821416658209342,84.17820827147894,,3.568040938137425E-4,,,32.83,NONE,0.0,0.0,0.0,NONE,-1.4394579423908107E-10,1.428498452070388E-11,3.0517578E-5,17.229,17.229,6.164,1.235994,0,3506,4.302,12.0,1.243,98,20.0,OK,38,0,0,0,0,0,65,100,0.0,0,0.0,589232.0,2.69E-43,0.0,-1.05007105E-23,62,2.622619E-7,-2.622638E-7,9.4E-44,False,False,0,None,0.0,1.0842022E-19,
159378255,41.422,0.0,0.0,0,144.88896,145.04033,0.05490514,-0.0038605551,-0.9796968,0.9812417,0.34231004,0.09113725,0.19940174,0.4065012,-144,-204,2579,2591.0,-0.05934835,-0.0725144,0.0011680643,0.09371195,0.09370466964260217,-0.09370466964260217,0.19095349559237182,3.352820912563204,47.71073084086973,47.7107308408697,1.4507136987169347,3.5092125901153826,0.46780147425961593,88.10414408918447,,0.0,,,33.07,,,0.0,0.0,20151018,39,2015-10-18T00:00:39Z,-17.0,99.99,99.99,3.75E7,0,0,0,0.0,0.0,0.0,0,0,0,0,0,0,,,,28,48,20,30,734,3702,3761,3763,3,15050,23,212,11,0,false,false,false,false,false,false,false,false,false,false,0,0,0,0,42,53,53,43,944,945,944,945,940,940,940,940,0.0,0.0,0.0,0.0,1714.0,1707.3,1708.5,1714.0,0.0,0.0,0.0,0.0,0,0,0,0,-45.0,-1.2119021135241115E-10,-4.984476592832153E-11,0,144.82819,144.76343,0.055389922,-0.0034775424,-0.9787815,0.9803537,0.29501775,0.1192456,0.19769333,0.37461665,-147,-204,2572,2584.0,-0.0010830966,-0.0026849061,0.0038324979,0.0048031094,0.00289513721575105,-0.0028865722906081526,0.13184736451983065,3.605132116073688,91.91782715202285,91.91782715202282,1.6158270965046684,3.5400804779637522,0.5487912496195794,85.91602742854137,,3.9824960060721635E-4,,,33.09,NONE,0.0,0.0,0.0,NONE,-2.806131485155679E-10,-4.191377598422858E-11,6.1035156E-5,17.228,17.228,6.162,1.235994,0,3506,4.301,12.0,1.243,98,20.0,OK,38,0,0,0,0,0,65,100,0.0,0,0.0,589232.0,2.69E-43,0.0,-1.05007105E-23,62,2.622619E-7,-2.622638E-7,9.4E-44,False,False,0,None,0.0,1.0842022E-19,
163275922,42.435,0.0,0.0,0,144.94446,145.04227,0.05468335,-0.00409645,-0.9792629,0.98079705,0.38218755,-0.024596278,0.21283883,0.43814686,-144,-201,2591,2602.0,-0.050201856,-0.06681389,0.0046998616,0.08370431,0.08357226093332074,-0.08357226093332074,0.18228859278824372,3.323821829685454,47.69678126217824,47.69678126217826,1.6275516140646702,3.9075033267802355,0.5112314020435814,88.24033709841578,,0.0,,,33.45,,,0.0,0.0,20151018,40,2015-10-18T00:00:40Z,-17.0,99.99,99.99,3.75E7,0,0,0,0.0,0.0,0.0,0,0,0,0,0,0,,,,28,48,20,31,734,3702,3761,3763,3,15050,23,212,11,0,false,false,false,false,false,false,false,false,false,false,0,0,0,0,43,52,52,42,944,944,944,945,940,940,940,940,0.0,0.0,0.0,0.0,1713.4,1706.7,1707.9,1713.4,0.0,0.0,0.0,0.0,0,0,0,0,-45.0,-1.1277399212950468E-10,6.759328408088524E-11,0,144.66173,144.75969,0.05491339,-0.003757947,-0.9791232,0.980669,0.3343288,-0.1262943,0.1392566,0.38356018,-144,-201,2588,2599.0,0.0015239444,-0.0024966376,0.002757044,0.0040195645,0.0029249967086548176,-0.002912072538494098,0.122695458978429,3.545406937003954,91.71027651325142,91.71027651325142,1.7924754805434109,4.014513354633905,0.5993070888618002,85.49057732122391,,4.6295272211729877E-4,,,33.44,NONE,0.0,0.0,0.0,NONE,-4.11273698270665E-11,-2.945258451509105E-11,3.0517578E-5,17.229,17.229,6.164,1.2373939,0,3506,4.302,12.0,1.237,98,20.0,OK,39,0,0,0,0,0,65,100,0.0,0,0.0,589232.0,2.69E-43,0.0,-1.05007105E-23,62,2.622619E-7,-2.622638E-7,9.4E-44,False,False,0,None,0.0,1.0842022E-19,
167128166,43.436,0.0,0.0,0,144.65907,145.00922,0.054618098,-0.0032383804,-0.9790743,0.9806019,0.47288004,-0.08598424,0.13906513,0.5003478,-138,-201,2582,2593.0,-0.041695796,-0.06283063,0.012984279,0.076516785,0.07540707680461953,-0.07540707680461953,0.17945703414131936,3.309767029892187,47.69160587768493,47.691605877684935,1.7818891564545116,4.308208283328729,0.5412032567024521,86.91662928936408,,0.0,,,33.71,,,0.0,0.0,20151018,41,2015-10-18T00:00:41Z,-17.0,99.99,99.99,3.75E7,0,0,0,0.0,0.0,0.0,0,0,0,0,0,0,,,,28,48,20,32,734,3702,3761,3763,3,15050,23,212,11,0,false,false,false,false,false,false,false,false,false,false,0,0,0,0,43,54,52,42,944,945,944,945,940,940,940,940,0.0,0.0,0.0,0.0,1714.6,1706.1,1707.3,1714.0,0.0,0.0,0.0,0.0,0,0,0,0,-45.0,-7.439067791621874E-11,6.069131499586246E-11,0,144.77007,144.75781,0.05560773,-0.0033167915,-0.98004526,0.98162717,0.39401773,-0.0019326401,0.1897514,0.437332,-141,-199,2591,2602.0,0.001343393,-0.0016221999,-7.139153E-4,0.0022239408,0.0021062377132263473,-0.0021019063460495564,0.13251923027808132,3.5234623025472747,91.6058263248923,91.60582632489229,1.9158945485865202,4.399731040967693,0.5929897033865088,84.85049952023913,,4.865190291277939E-4,,,33.71,NONE,0.0,0.0,0.0,NONE,-5.4278758251245687E-11,-8.320010030959286E-12,3.0517578E-5,17.227,17.227,6.16,1.2385008,0,3505,4.301,12.0,1.243,98,20.0,OK,40,0,0,0,0,0,65,100,0.0,0,0.0,589232.0,2.69E-43,0.0,-1.05007105E-23,62,2.622619E-7,-2.622638E-7,9.4E-44,False,False,0,None,0.0,1.0842022E-19,
171117999,44.473,0.0,0.0,0,144.83612,144.98563,0.054927964,-0.0032825407,-0.9783836,0.97992975,0.4720396,-0.022499716,0.12639405,0.48918617,-144,-201,2597,2608.0,-0.032406054,-0.055844408,0.016772874,0.066708915,0.06456585980667091,-0.06456585980667091,0.1794999648816001,3.3063427398605985,47.67543703793669,47.67543703793672,1.9266655357798095,4.701886545806346,0.6090025257723751,88.36119212027991,,0.0,,,34.06,,,0.0,0.0,20151018,42,2015-10-18T00:00:42Z,-17.0,99.99,99.99,3.75E7,0,0,0,0.0,0.0,0.0,0,0,0,0,0,0,,,,33,16,20,33,734,3702,3761,3763,0,15051,23,1,17508,0,false,false,false,false,false,false,false,false,false,false,0,0,0,0,42,53,54,43,944,945,944,945,940,940,940,940,0.0,0.0,0.0,0.0,1714.0,1707.3,1706.7,1713.4,0.0,0.0,0.0,0.0,0,0,0,0,-45.0,1.1712432423959754E-12,3.0084219283256634E-11,0,144.86783,144.7559,0.054634873,-0.0040562884,-0.9803595,0.98188907,0.40843526,0.02179282,0.1801905,0.44694844,-144,-204,2582,2594.0,6.8025145E-4,2.9884744E-5,-1.942738E-4,7.080801E-4,6.809075796788836E-4,-6.721653011746722E-4,0.14033538513751767,3.4902066925051187,91.43095702804487,91.43095702804487,2.101748100611159,4.782517574870711,0.6117575040025148,86.34828886609532,,5.357774627001443E-4,,,34.04,NONE,0.0,0.0,0.0,NONE,1.0373868718364355E-12,2.7603693416325156E-11,0.0,17.224,17.224,6.161,1.2398735,0,3505,4.301,12.0,1.264,98,20.0,OK,41,0,0,0,0,0,65,100,0.0,0,0.0,589232.0,2.69E-43,0.0,-1.05007105E-23,62,2.622619E-7,-2.622638E-7,9.4E-44,False,False,0,None,0.0,1.0842022E-19,
175088795,45.505,0.0,0.0,0,144.78062,144.99016,0.05495723,-0.0029852425,-0.9799208,0.9814652,0.32775074,0.039355148,0.20740573,0.38985446,-144,-207,2569,2581.0,-0.031187044,-0.05535832,0.002712558,0.06359664,0.06353877027090975,-0.06353877027090975,0.1774123926845709,3.31014080244608,47.6577271963832,47.65772719638318,2.0588358015556563,5.077127186167247,0.630404940665725,88.79046020549703,,0.0,,,34.27,,,0.0,0.0,20151018,43,2015-10-18T00:00:43Z,-17.0,99.99,99.99,3.75E7,0,0,0,0.0,0.0,0.0,0,0,0,0,0,0,,,,33,16,20,33,734,3702,3761,3763,0,15051,23,1,17508,0,false,false,false,false,false,false,false,false,false,false,0,0,0,0,43,53,53,43,944,945,944,945,940,940,940,940,0.0,0.0,0.0,0.0,1713.4,1707.9,1706.7,1713.4,0.0,0.0,0.0,0.0,0,0,0,0,-45.0,3.8651027016543084E-12,3.3848929720548334E-11,0,144.93124,144.75302,0.05482385,-0.0034206137,-0.97842175,0.97996247,0.41331577,0.20427296,0.1430693,0.48272786,-147,-207,2566,2578.0,7.674236E-4,1.0612394E-4,3.6163177E-4,8.54973E-4,7.747265626821379E-4,-7.742277713357093E-4,0.14001923376369962,3.4679423238637197,91.21830761783153,91.21830761783156,2.233553695034566,5.166254145727348,0.6639959663052668,87.72955670937517,,5.787455213181523E-4,,,34.31,NONE,0.0,0.0,0.0,NONE,-1.234323057541865E-10,4.434828878968027E-11,3.0517578E-5,17.225,17.225,6.162,1.2423906,0,3505,4.3,12.0,1.27,98,20.0,OK,42,0,0,0,0,0,65,100,0.0,0,0.0,589232.0,2.69E-43,0.0,-1.05007105E-23,62,2.622619E-7,-2.622638E-7,9.4E-44,False,False,0,None,0.0,1.0842022E-19,
178946499,46.507,0.0,0.0,0,144.79912,144.98985,0.05553805,-0.002890189,-0.9791054,0.98068357,0.53858346,0.18330672,0.14251782,0.5865022,-141,-204,2579,2590.0,-0.030243292,-0.056068193,0.0057499837,0.06396375,0.06370478098632461,-0.06370478098632461,0.185381195137521,3.290241028367359,47.63756443552344,47.637564435523416,2.185022536745647,5.447558022698619,0.6612825929527563,88.0545332379965,,0.0,,,34.68,,,0.0,0.0,20151018,44,2015-10-18T00:00:44Z,-17.0,99.99,99.99,3.75E7,0,0,0,0.0,0.0,0.0,0,0,0,0,0,0,,,,35,18,20,34,735,3702,3843,3845,3564,15381,23,1,15473,0,false,false,false,false,false,false,false,false,false,false,0,0,0,0,43,53,53,42,944,945,944,944,940,940,940,940,0.0,0.0,0.0,0.0,1714.6,1705.5,1706.7,1712.8,0.0,0.0,0.0,0.0,0,0,0,0,-45.0,-1.055624803274714E-10,-2.4767611587373524E-11,0,144.86519,144.75017,0.053833626,-0.0034489534,-0.98027223,0.9817554,0.4647426,0.09612616,0.08768444,0.48261216,-144,-201,2588,2599.0,-5.972072E-4,-0.0023954494,0.0031200082,0.0039786035,0.002468771878692126,-0.0024550041357495295,0.16036299758975744,3.434142487544108,91.15222455079855,91.15222455079856,2.384362811660683,5.5344945663080996,0.7408913381310196,86.90806733567918,,6.178294261047044E-4,,,34.62,NONE,0.0,0.0,0.0,NONE,-1.002918857312288E-10,-1.9020153671166892E-11,3.0517578E-5,17.224,17.224,6.159,1.2454597,0,3504,4.301,12.0,1.238,98,20.1,OK,43,0,0,0,0,0,65,100,0.0,0,0.0,589232.0,2.69E-43,0.0,-1.05007105E-23,62,2.622619E-7,-2.622638E-7,9.4E-44,False,False,0,None,0.0,1.0842022E-19,
182859966,47.524,0.0,0.0,0,144.72778,145.00648,0.054708075,-0.0039704572,-0.9795458,0.98108035,0.36567137,0.0767761,0.17752439,0.41367263,-144,-201,2591,2602.0,-0.024542786,-0.049485352,-0.007657281,0.05576542,0.0552371999822123,-0.0552371999822123,0.17534580080848594,3.2834642535344005,47.622877155010045,47.62287715501003,2.350254352138427,5.88229006687549,0.7111709569921971,88.73808008688016,,0.0,,,35.01,,,0.0,0.0,20151018,45,2015-10-18T00:00:45Z,-17.0,99.99,99.99,3.75E7,0,0,0,0.0,0.0,0.0,0,0,0,0,0,0,,,,40,19,20,35,738,3702,3768,3772,0,15086,23,1,15114,0,false,false,false,false,false,false,false,false,false,false,0,0,0,0,43,53,53,42,944,944,944,945,940,940,940,940,0.0,0.0,0.0,0.0,1714.6,1707.3,1707.3,1713.4,0.0,0.0,0.0,0.0,0,0,0,0,-45.0,-6.368216835372594E-11,6.1866741326301025E-12,0,144.75685,144.7499,0.05428671,-0.0031461315,-0.98007125,0.9815786,0.545723,0.11920185,0.06814191,0.56273085,-144,-201,2591,2602.0,1.2076986E-4,-0.0014298713,-2.1442327E-4,0.0014508944,0.001434962500534213,-0.0014292689966924072,0.15916030996754524,3.3884915449797015,90.9906805709088,90.99068057090881,2.5284360157632664,6.047982105539796,0.8171735387000174,87.42545875684968,,6.583999455592096E-4,,,34.98,NONE,0.0,0.0,0.0,NONE,-2.842774672655365E-11,2.91974208580554E-12,3.0517578E-5,17.223,17.223,6.16,1.2476923,0,3504,4.301,12.0,1.249,98,20.1,OK,44,0,0,0,0,0,65,100,0.0,0,0.0,589232.0,2.69E-43,0.0,-1.05007105E-23,62,2.622619E-7,-2.622638E-7,9.4E-44,False,False,0,None,0.0,1.0842022E-19,
186726415,48.529,0.0,0.0,0,144.8229,145.00531,0.053497605,-0.0034373472,-0.9798097,0.98127514,0.34091875,-0.11523811,0.15138885,0.39041516,-141,-199,2585,2596.0,-0.030582748,-0.053789355,-0.0038379333,0.061994586,0.06187567468477645,-0.06187567468477645,0.17825108058027098,3.2740647410897616,47.60959525853005,47.60959525853002,2.5072420384091565,6.2638943526965045,0.7381197100553955,88.11088329185478,,0.0,,,35.31,,,0.0,0.0,20151018,46,2015-10-18T00:00:46Z,-17.0,99.99,99.99,3.75E7,0,0,0,0.0,0.0,0.0,0,0,0,0,0,0,,,,7123,48,20,36,738,3702,3762,3764,0,15053,23,212,4,0,false,false,false,false,false,false,false,false,false,false,0,0,0,0,42,53,53,42,944,944,944,944,940,940,940,940,0.0,0.0,0.0,0.0,1712.8,1707.3,1707.3,1714.0,0.0,0.0,0.0,0.0,0,0,0,0,-45.0,-3.341389654632895E-11,-4.133652048958722E-11,0,144.71457,144.74724,0.054266535,-0.0037653362,-0.9786168,0.98012745,0.3743742,0.13204996,-0.0141964145,0.3972339,-141,-201,2585,2596.0,-9.1207493E-4,-7.379043E-4,0.0014446204,0.0018609974,0.0011731936550206492,-0.0011669588924197543,0.1654825500013738,3.377771623086102,90.89676539830471,90.8967653983047,2.6788247521444952,6.483289469300435,0.9289771575516683,86.83809834841588,,6.967739526095776E-4,,,35.3,NONE,0.0,0.0,0.0,NONE,-3.8450242498326705E-11,7.071799387257521E-11,3.0517578E-5,17.223,17.223,6.16,1.2488879,0,3503,4.3,12.0,1.243,98,20.0,OK,45,0,0,0,0,0,65,100,0.0,0,0.0,589232.0,2.69E-43,0.0,-1.05007105E-23,62,2.622619E-7,-2.622638E-7,9.4E-44,False,False,0,None,0.0,1.0842022E-19,
283724827,73.739,0.0,0.0,0,144.88368,144.99637,0.05446659,-0.0033472981,-0.9798699,0.9813882,0.3348663,-0.050769754,0.22820118,0.40839782,-144,-201,2585,2596.0,-0.020830704,-0.039338734,0.008339302,0.045287948,0.04451352831337117,-0.04451352831337117,0.1666811841062819,3.265222971214216,47.60773563157218,47.607735631572154,2.631287691760682,6.572573424167228,0.7715073324255352,89.0558496396526,,0.0,,,35.53,,,0.0,0.0,20190508,170518,2019-05-08T17:05:18Z,-17.0,99.99,99.99,3.75E7,0,0,0,0.0,0.0,0.0,0,0,0,0,0,0,,,,7123,48,20,37,738,3702,3762,3764,0,15053,23,212,4,0,false,false,false,false,false,false,false,false,false,false,0,0,0,0,43,53,54,43,944,944,944,945,940,940,940,940,0.0,0.0,0.0,0.0,1713.4,1707.3,1706.7,1714.0,0.0,0.0,0.0,0.0,0,0,0,0,-45.0,-5.459666721080483E-11,-5.6386996169295834E-11,0,144.76741,144.74786,0.055063605,-0.0032480892,-0.9797415,0.981293,0.2889677,0.00895727,0.1480777,0.32482237,-144,-201,2588,2599.0,-0.0012683823,-0.0012047997,8.6284505E-4,0.0019505993,0.0017493816006315438,-0.0017492669843485512,0.1585246889946872,3.351845313755613,90.77902935507903,90.77902935507905,2.8204115896851847,6.781804866509954,0.9801291641198105,87.92915405500722,,7.388797014794377E-4,,,35.5,NONE,0.0,0.0,0.0,NONE,-9.45360618422398E-12,-8.195774600331876E-11,3.0517578E-5,17.222,17.222,6.157,1.249282,0,3503,4.3,12.0,1.242,98,20.0,OK,46,0,0,0,0,0,65,100,0.0,0,0.0,589232.0,2.69E-43,0.0,-1.05007105E-23,62,2.622619E-7,-2.622638E-7,9.4E-44,False,False,0,None,0.0,1.0842022E-19,
287603593,74.747,0.0,0.0,0,144.51375,144.84642,0.05454926,-0.0024745916,-0.98151237,0.98303014,0.4801625,0.123211235,0.17291173,0.52501,-144,-213,2548,2560.0,0.0031136805,-0.012843625,-0.0102920355,0.016750513,0.013215661233303814,-0.013215661233303814,0.13290434260574555,3.169131567826836,47.38897261315258,47.38897261315259,7.557501113975261,16.019850672085692,0.671975038545123,90.77073130505782,,0.0,,,43.12,,,0.0,0.0,20190508,170519,2019-05-08T17:05:19Z,-17.0,99.99,99.99,3.75E7,0,0,0,0.0,0.0,0.0,0,0,0,0,0,0,,,,88249,18,53,62,1868,3559,3970,3976,3560,15891,24,1,15963,0,false,false,false,false,false,false,false,false,false,false,0,0,0,0,45,56,56,45,943,944,944,944,940,940,940,940,0.0,0.0,0.0,0.0,1709.7,1706.1,1706.1,1710.3,0.0,0.0,0.0,0.0,0,0,0,0,-45.0,-5.889680300871848E-12,-1.1892301914331438E-11,0,144.63266,144.75996,0.05570415,-0.002392706,-0.9794753,0.981061,0.41919044,0.022571564,0.12572175,0.4382192,-147,-213,2548,2561.0,-2.553636E-4,-8.588927E-5,0.0024581216,0.0024728423,2.6942073496526706E-4,-2.6214386786650766E-4,0.18025993193576803,3.2078701991270244,90.66504018805543,90.6650401880554,6.400660745296535,16.225774402548808,1.9922977253981824,91.09520986308428,,7.996153146478342E-4,,,43.15,NONE,0.0,0.0,0.0,NONE,-1.104315056405546E-11,-1.1440536663898364E-11,0.0,17.203,17.203,6.147,1.2716541,0,3494,4.296,12.0,1.268,97,20.3,OK,71,0,0,0,0,0,65,100,0.0,0,0.0,589232.0,2.69E-43,0.0,-1.05007105E-23,62,2.622619E-7,-2.622638E-7,9.4E-44,False,False,0,None,0.0,1.0842022E-19,
291457289,75.748,0.0,0.0,0,144.6353,144.83633,0.05538066,-0.0034987014,-0.9814536,0.9830211,0.37422222,-0.027461067,0.039575983,0.37730974,-144,-213,2545,2557.0,0.0026721521,-0.01389717,-0.0057516284,0.015275895,0.014151739730950028,-0.014151739730950028,0.13129395002185523,3.178988955057937,47.387250472769296,47.387250472769324,7.635577182155931,16.426979814938353,0.7375750917024303,90.69955228639787,,0.0,,,43.47,,,0.0,0.0,20190508,170520,2019-05-08T17:05:20Z,-17.0,99.99,99.99,3.75E7,0,0,0,0.0,0.0,0.0,0,0,0,0,0,0,,,,90992,114,99,63,3559,3559,4382,4390,304,17586,26,3562,17571,0,false,false,false,false,false,false,false,false,false,false,0,0,0,0,45,56,56,45,943,945,944,944,940,940,940,940,0.0,0.0,0.0,0.0,1710.9,1704.8,1704.2,1712.2,0.0,0.0,0.0,0.0,0,0,0,0,-45.0,-8.775958287398696E-11,-5.51362755892289E-11,0,144.69344,144.76129,0.05435644,-0.0035573328,-0.9810843,0.9825954,0.4027678,-0.047205452,0.023952607,0.40623143,-144,-213,2545,2557.0,-0.0012229164,-0.0019707966,-0.0017204055,0.0028877947,0.002319388679168237,-0.002309109271280353,0.18463172570670852,3.212872286046313,90.67342802059737,90.67342802059738,6.4583035116216205,16.596555358885677,1.9960875290875209,90.30467634310146,,8.530421500705731E-4,,,43.42,NONE,0.0,0.0,0.0,NONE,-1.1496589017823953E-10,2.7883955171304934E-11,0.0,17.204,17.204,6.148,1.2726473,0,3493,4.295,12.0,1.276,97,20.3,OK,72,0,0,0,0,0,65,100,0.0,0,0.0,589232.0,2.69E-43,0.0,-1.05007105E-23,62,2.622619E-7,-2.622638E-7,9.4E-44,False,False,0,None,0.0,1.0842022E-19,
510217789,132.603,0.0,0.0,0,144.69344,144.83694,0.05496205,-0.002342367,-0.9802149,0.98175734,0.46305266,-0.13444205,0.1587587,0.5076384,-141,-213,2548,2560.0,0.0027707908,-0.015923956,-0.009490508,0.018743515,0.01616321938785576,-0.01616321938785576,0.13503162620189474,3.1781226122503776,47.379094940094156,47.37909494009415,7.69995957119799,16.660914263496533,0.7648883247832824,89.88215978828812,,0.0,,,43.59,,,0.0,0.0,20190508,170520,2019-05-08T17:05:20Z,-17.0,99.99,99.99,3.75E7,0,0,0,0.0,0.0,0.0,0,0,0,0,0,0,,,,90992,114,99,63,3559,3559,4382,4390,304,17586,26,3562,17571,0,false,false,false,false,false,false,false,false,false,false,0,0,0,0,45,56,56,45,943,945,944,944,940,940,940,940,0.0,0.0,0.0,0.0,1710.9,1704.8,1704.2,1712.2,0.0,0.0,0.0,0.0,0,0,0,0,-45.0,8.896429020353604E-11,5.791797828466053E-11,0,144.53754,144.76161,0.054232128,-0.0033984077,-0.9800256,0.9815309,0.41777295,0.035663188,0.108423635,0.43308404,-141,-213,2545,2557.0,0.0013095709,0.0019797366,-0.0016961151,0.0029173857,0.0023736749704111695,-0.0023732646664216127,0.17781915228217726,3.20854496416635,90.65819250562392,90.6581925056239,6.509813676270113,16.8289237917747,2.046225780775463,89.57773240551975,,8.950247657415013E-4,,,43.57,NONE,0.0,0.0,0.0,NONE,-1.840525093775879E-12,5.515719065120169E-11,0.0,17.202,17.202,6.147,1.2726473,0,3493,4.295,12.0,1.276,97,20.3,OK,72,0,0,0,0,0,65,100,0.0,0,0.0,589232.0,2.69E-43,0.0,-1.05007105E-23,62,2.622619E-7,-2.622638E-7,9.4E-44,False,False,0,None,0.0,1.0842022E-19,
518096447,134.651,0.0,0.0,4,144.4292,144.61058,0.053768635,-0.0027492712,-0.98577243,0.98724157,0.41829723,-0.11981147,0.2416452,0.49771455,-132,-213,2554,2566.0,0.029787082,0.013766813,-0.001716563,0.032859426,0.032814560694927185,-0.032814560694927185,0.15172466061903545,2.965626592602744,46.964655998630626,46.96465599863063,16.021817123336266,40.488476026707346,-5.464329028782248,89.92621075676124,,0.0,,,60.57,,,10.4408077,63.4120388,20190508,170616,2019-05-08T17:06:16Z,120.475,3.43,6.94,232.01,4,0,4,0.0,0.03,-0.03,0,0,0,0,0,0,,,,90992,114,99,63,3559,3559,4382,4390,304,17586,26,3562,17571,0,false,false,false,false,false,false,false,false,false,false,0,0,0,0,49,61,61,48,944,945,944,945,940,940,940,940,0.0,0.0,0.0,0.0,1706.7,1702.4,1703.0,1706.7,0.0,0.0,0.0,0.0,0,0,0,0,-45.0,-4.2164756638295686E-12,-2.8812583702835382E-11,0,144.5481,144.76921,0.053264324,-0.004196333,-0.98434323,0.9857922,0.53784466,-0.058445282,-0.04943575,0.54326475,-132,-216,2551,2563.0,-5.971021E-4,-1.21467674E-4,0.0013196365,0.0014535218,6.093318670997163E-4,-6.024190291761814E-4,0.19008299072751797,3.1963373966982624,90.8167544666739,90.8167544666739,8.430310326868698,35.886092212230956,0.260469706235477,87.3465859386936,,9.219468894190061E-4,,,60.59,NONE,0.0,0.0,0.0,NONE,-1.840525093775879E-12,5.515719065120169E-11,0.0,17.174,17.174,6.137,1.2867863,0,3473,4.287,12.0,1.287,97,20.8,OK,127,0,0,0,0,0,65,100,0.0,0,0.0,589232.0,2.69E-43,0.0,-5.9807744E7,62,2.622619E-7,-2.622638E-7,9.4E-44,False,False,0,None,0.0,1.0842022E-19,
522143438,135.703,0.0,0.0,4,144.48468,144.63162,0.05378912,-0.0044012475,-0.9854844,0.98696107,0.5031534,-0.15993991,0.019810304,0.5283337,-132,-213,2551,2563.0,0.029551022,0.008526801,-0.010097502,0.032371726,0.03075661219491106,-0.03075661219491106,0.19142255688453175,2.993114266842716,46.95911448311576,46.95911448311574,16.35076135520102,41.61623124097416,-5.859479346024344,89.65211479862788,,0.0,,,61.48,,,10.4407939,63.4120425,20190508,170619,2019-05-08T17:06:19Z,118.933,3.43,6.93,212.53,4,0,4,-0.03,0.01,-0.01,0,0,0,0,0,0,,,,90992,114,99,63,3559,3559,4382,4390,304,17586,26,3562,17571,0,false,false,false,false,false,false,false,false,false,false,0,0,0,0,48,61,61,48,944,945,944,945,940,940,940,940,0.0,0.0,0.0,0.0,1707.9,1702.4,1700.5,1707.9,0.0,0.0,0.0,0.0,0,0,0,0,-45.0,7.189760288078812E-11,2.2630092598619024E-11,0,144.52432,144.76974,0.056720573,-0.0031108782,-0.988059,0.98969054,0.31443956,0.26215962,0.019609112,0.40985903,-132,-213,2551,2563.0,4.8621264E-4,0.0017467064,9.073285E-5,0.0018153839,0.0018131150287092263,-0.0018034028315309153,0.21534104891052586,3.2140430308592074,90.81671028466543,90.81671028466542,8.56840748860114,37.061008804744105,0.10340892498045601,87.1228694447419,,9.766728707442704E-4,,,61.48,NONE,0.0,0.0,0.0,NONE,-4.902489561093909E-12,-6.364033803966102E-11,0.0,17.178,17.178,6.138,1.2900418,0,3473,4.287,12.0,1.234,97,20.8,OK,129,0,0,0,0,0,65,100,0.0,0,0.0,589232.0,2.69E-43,0.0,-5.9807744E7,62,2.622619E-7,-2.622638E-7,9.4E-44,False,False,0,None,0.0,1.0842022E-19,
526082465,136.726,0.0,0.0,4,144.5481,144.64366,0.05399183,-0.0045101354,-0.9858504,0.98733807,0.2777938,0.032268867,0.057118323,0.28543508,-127,-213,2548,2560.0,0.025828887,0.011644926,-0.009148788,0.029773075,0.028332590450673094,-0.028332590450673094,0.20191134120087464,2.993551769156911,46.9552459037792,46.9552459037792,16.364377396998464,42.006971605178165,-5.859483906748078,88.40038110304167,,0.0,,,61.7,,,10.4407894,63.4120432,20190508,170620,2019-05-08T17:06:20Z,118.612,3.44,6.93,207.17,4,0,4,-0.03,0.0,-0.01,0,0,0,0,0,0,,,,90992,114,99,63,3559,3559,4382,4390,304,17586,26,3562,17571,0,false,false,false,false,false,false,false,false,false,false,0,0,0,0,49,62,62,49,944,946,944,945,940,940,940,940,0.0,0.0,0.0,0.0,1706.7,1701.7,1701.1,1705.5,0.0,0.0,0.0,0.0,0,0,0,0,-45.0,-6.542230096150813E-12,-6.623380520617135E-11,0,144.48734,144.77048,0.05476693,-0.0031995527,-0.98433083,0.98585844,0.24967079,-0.040896732,0.15450607,0.29644588,-129,-213,2551,2563.0,-0.0014725504,-1.3339311E-4,-0.0021997392,0.0026504812,0.0014785799171866574,-0.0014657054520938744,0.22554677700576933,3.215623725801792,90.81306938666857,90.81306938666859,8.603458763107811,37.45226180952673,0.07447554628847748,86.34431443732068,,0.00104839016247017,,,61.74,NONE,0.0,0.0,0.0,NONE,-7.395564455934461E-11,-9.681998580150398E-11,-3.0517578E-5,17.167,17.167,6.134,1.2903233,0,3472,4.289,12.0,1.314,97,20.8,OK,130,0,0,0,0,0,65,100,0.0,0,0.0,589232.0,2.69E-43,0.0,-5.9807744E7,62,2.622619E-7,-2.622638E-7,9.4E-44,False,False,0,None,0.0,1.0842022E-19,
529995903,137.744,0.0,0.0,4,144.3235,144.5989,0.05722911,-0.0048830807,-0.98424596,0.9859204,0.6943103,0.23468955,0.15783858,0.7497059,-127,-213,2551,2563.0,0.019755427,0.015338311,-0.0018657101,0.025080303,0.025010811202205867,-0.025010811202205867,0.22042982341610468,3.0021310809489825,46.93547153226106,46.93547153226109,16.397019438370563,42.43210478354373,-5.907748854000386,88.26885096934254,,0.0,,,62.05,,,10.4407819,63.4120459,20190508,170621,2019-05-08T17:06:21Z,118.232,3.44,6.93,202.24,4,0,4,0.0,0.01,-0.02,0,0,0,0,0,0,,,,90992,114,99,63,3559,3559,4382,4390,304,17586,26,3562,17571,0,false,false,false,false,false,false,false,false,false,false,0,0,0,0,49,61,62,49,944,945,945,945,940,940,940,940,0.0,0.0,0.0,0.0,1706.7,1700.5,1700.5,1706.1,0.0,0.0,0.0,0.0,0,0,0,0,-45.0,-3.048578833236022E-11,-4.136998444114196E-11,0,144.49525,144.769,0.051816676,-0.0032074696,-0.98714596,0.9885102,0.28827617,-0.20512041,0.13756059,0.37960565,-127,-213,2551,2563.0,-9.4687333E-4,-7.692016E-4,0.0025386072,0.002816517,0.0012199345419170486,-0.0012161607722347017,0.23296684294082773,3.2103414591779833,90.79827432904484,90.79827432904483,8.66401591095937,37.8534176006055,0.010020848192479545,85.90036009856013,,0.0011081388682212252,,,62.04,NONE,0.0,0.0,0.0,NONE,4.318541145734387E-11,-5.7307258520497E-12,0.0,17.164,17.164,6.138,1.2912408,0,3472,4.287,12.0,1.336,97,20.8,OK,131,0,0,0,0,0,65,100,0.0,0,0.0,589232.0,2.69E-43,0.0,-5.9807744E7,62,2.622619E-7,-2.622638E-7,9.4E-44,False,False,0,None,0.0,1.0842022E-19,
534047176,138.796,0.0,0.0,4,144.55603,144.56046,0.05507459,-0.0023363065,-0.98781747,0.9893543,0.41833416,0.108297534,-0.018328093,0.4325133,-132,-213,2551,2563.0,0.018226296,0.018364187,0.00238371,0.025983134,0.025873561523138407,-0.025873561523138407,0.22704751744433696,3.0170854500465034,46.93311472269948,46.933114722699486,16.435621680599674,42.848414548235816,-5.958293468572151,89.38210099849536,,0.0,,,62.35,,,10.4407762,63.4120477,20190508,170622,2019-05-08T17:06:22Z,117.534,3.44,6.93,197.76,4,0,4,-0.01,0.03,0.0,0,0,0,0,0,0,,,,90992,114,99,63,3559,3559,4382,4390,304,17586,26,3562,17571,0,false,false,false,false,false,false,false,false,false,false,0,0,0,0,48,62,60,48,944,945,944,945,940,940,940,940,0.0,0.0,0.0,0.0,1706.7,1701.7,1702.4,1706.1,0.0,0.0,0.0,0.0,0,0,0,0,-45.0,-1.950956596368699E-11,1.0758705758705604E-11,0,144.41599,144.77074,0.054693617,-0.005487173,-0.98731667,0.98884565,0.37083086,3.1818077E-4,0.09455842,0.38269693,-132,-216,2557,2569.0,2.823025E-4,-4.4104666E-4,-0.005371356,0.005396821,5.236571960715651E-4,-5.1803130250578E-4,0.23284347214471976,3.2286572429301836,90.78506066648927,90.78506066648924,8.738909454760496,38.29870202890115,-0.05066659419455372,86.92256821475851,,0.0011883307220358805,,,62.34,NONE,0.0,0.0,0.0,NONE,-3.1991672491099495E-11,2.0438194533409015E-11,-3.0517578E-5,17.165,17.165,6.137,1.2950232,0,3472,4.284,12.0,1.338,97,20.8,OK,132,0,0,0,0,0,65,100,0.0,0,0.0,589232.0,2.69E-43,0.0,-5.9807744E7,62,2.622619E-7,-2.622638E-7,9.4E-44,False,False,0,None,0.0,1.0842022E-19,
537952054,139.811,0.0,0.0,4,144.41862,144.55447,0.054009125,-0.0034645405,-0.9879598,0.98944104,0.33987325,-0.19193828,-0.05819352,0.39463985,-129,-216,2557,2569.0,0.017631236,0.022061367,-0.012327427,0.030814443,0.028241182635199574,-0.028241182635199574,0.24879975474591207,3.012829914106118,46.926214590961436,46.92621459096142,16.503172137657323,43.25770373095886,-6.03289668109913,88.60697730820524,,0.0,,,62.67,,,10.4407682,63.4120505,20190508,170623,2019-05-08T17:06:23Z,117.051,3.44,6.92,192.72,4,0,4,0.01,0.0,-0.02,0,0,0,0,0,0,,,,90992,114,99,63,3559,3559,4382,4390,304,17586,26,3562,17571,0,false,false,false,false,false,false,false,false,false,false,0,0,0,0,49,61,62,49,944,945,944,945,940,940,940,940,0.0,0.0,0.0,0.0,1706.7,1701.1,1700.5,1705.5,0.0,0.0,0.0,0.0,0,0,0,0,-45.0,-2.3525257075075E-11,-2.8310622312252413E-11,0,144.36842,144.76967,0.055401172,-0.003488798,-0.9862364,0.9877974,0.37618372,-0.06925701,0.12935317,0.4037858,-129,-216,2563,2575.0,-6.4881693E-4,-5.0143444E-4,-8.002427E-4,0.0011457697,8.199999342742634E-4,-8.156966833957876E-4,0.24513202219919153,3.2199557875578564,90.79285985540247,90.79285985540247,8.802654946874489,38.64633087392804,-0.0895878027549754,86.19061700363105,,0.0012302678448285933,,,62.73,NONE,0.0,0.0,0.0,NONE,-2.578408332339301E-11,-2.0864861715944893E-11,0.0,17.163,17.163,6.135,1.3010018,0,3471,4.284,12.0,1.345,97,20.9,OK,133,0,0,0,0,0,65,100,0.0,0,0.0,589232.0,2.69E-43,0.0,-5.9807744E7,62,2.622619E-7,-2.622638E-7,9.4E-44,False,False,0,None,0.0,1.0842022E-19,
541825351,140.818,0.0,0.0,4,144.13062,144.52823,0.05590864,-0.004347949,-0.9865585,0.98815095,0.41172552,-0.09534727,0.04390721,0.42489627,-129,-213,2551,2563.0,0.015087727,0.024275595,-0.008698581,0.02987657,0.02858223320979709,-0.02858223320979709,0.26430188555581985,3.008824157023818,46.9262485380067,46.92624853800669,16.570984834338674,43.63240356820142,-6.096039521129926,88.7189661609957,,0.0,,,63.02,,,10.4407642,63.4120496,20190508,170624,2019-05-08T17:06:24Z,116.825,3.44,6.92,188.85,4,0,4,0.01,0.08,0.0,0,0,0,0,0,0,,,,90992,114,99,63,3559,3559,4382,4390,304,17586,26,3562,17571,0,false,false,false,false,false,false,false,false,false,false,0,0,0,0,48,61,62,48,945,944,943,945,940,940,940,940,0.0,0.0,0.0,0.0,1705.5,1700.5,1700.5,1706.7,0.0,0.0,0.0,0.0,0,0,0,0,-45.0,3.706148251781261E-11,2.51148014714387E-11,0,144.23895,144.76982,0.05495137,-0.0042994795,-0.98621696,0.9877561,0.5627934,-0.054908562,-0.0647388,0.5691594,-129,-213,2548,2560.0,5.226465E-4,8.4094866E-4,4.3136862E-4,0.0010800152,9.90128275741202E-4,-9.81205569461138E-4,0.23895275522645512,3.2089080470130056,90.79583333599484,90.79583333599487,8.842976178020423,39.065274798761344,-0.15654330288754176,86.47382218785057,,0.0012771504213367534,,,62.99,NONE,0.0,0.0,0.0,NONE,-1.1628772167517178E-11,-7.508505770033574E-11,0.0,17.162,17.162,6.133,1.308491,0,3471,4.285,12.0,1.358,97,20.9,OK,134,0,0,0,0,0,65,100,0.0,0,0.0,589232.0,2.69E-43,0.0,-1.05007105E-23,62,2.622619E-7,-2.622638E-7,9.4E-44,False,False,0,None,0.0,1.0842022E-19,
545739894,141.835,0.0,0.0,4,144.28915,144.49727,0.055196494,-0.0042901295,-0.98746055,0.98901135,0.45337152,-0.06506776,0.1542729,0.4833008,-129,-213,2548,2560.0,0.015421454,0.029329255,4.8456714E-5,0.033136517,0.033136481483232394,-0.033136481483232394,0.2850366036160308,2.997406963791748,46.93581001310263,46.93581001310264,16.62684448518413,44.04912498179852,-6.221179166717095,88.89412718300512,,0.0,,,63.36,,,10.4407632,63.4120493,20190508,170624,2019-05-08T17:06:24Z,116.766,3.44,6.92,188.11,4,0,4,-0.05,0.01,-0.02,0,0,0,0,0,0,,,,90992,114,99,63,3559,3559,4382,4390,304,17586,26,3562,17571,0,false,false,false,false,false,false,false,false,false,false,0,0,0,0,49,61,62,48,944,945,944,945,940,940,940,940,0.0,0.0,0.0,0.0,1706.7,1701.1,1701.1,1706.1,0.0,0.0,0.0,0.0,0,0,0,0,-45.0,3.7965013017390674E-11,3.802357517938312E-11,0,143.95886,144.76978,0.055415392,-0.0047584,-0.98683816,0.9884043,0.3351002,-0.20081219,0.078327104,0.39843798,-129,-213,2548,2560.0,8.710483E-4,8.7254465E-4,4.5498562E-4,0.0013141808,0.0012329068495893752,-0.0012314925177356994,0.23761017962744194,3.201978699533743,90.80750053031983,90.80750053031983,8.877229432806697,39.475266404752205,-0.24588526076413483,86.55156247329657,,0.0012962633695562573,,,63.34,NONE,0.0,0.0,0.0,NONE,6.416739749805486E-11,2.8603433122014282E-11,0.0,17.163,17.163,6.135,1.3168896,0,3470,4.285,12.0,1.352,97,20.9,OK,135,0,0,0,0,0,65,100,0.0,0,0.0,589232.0,2.69E-43,0.0,-1.05007105E-23,62,2.622619E-7,-2.622638E-7,9.4E-44,False,False,0,None,0.0,1.0842022E-19,
549683530,142.860,0.0,0.0,4,144.20724,144.46814,0.055132918,-0.004786746,-0.9865684,0.9881193,0.26247263,-0.12179319,0.03431135,0.29138073,-132,-213,2548,2560.0,0.011571035,0.034257248,-0.0015265631,0.036190856,0.03615864751574961,-0.03615864751574961,0.2878269940122439,3.011020294856697,46.92062455214766,46.92062455214767,16.686449972614895,44.4767184303558,-6.305030180891443,89.50120220792121,,0.0,,,63.59,,,10.4407561,63.4120475,20190508,170626,2019-05-08T17:06:26Z,116.117,3.44,6.92,181.77,4,0,4,0.04,0.01,0.0,0,0,0,0,0,0,,,,90992,114,99,63,3559,3559,4382,4390,304,17586,26,3562,17571,0,false,false,false,false,false,false,false,false,false,false,0,0,0,0,49,61,62,49,944,945,944,945,940,940,940,940,0.0,0.0,0.0,0.0,1706.7,1701.1,1701.7,1705.5,0.0,0.0,0.0,0.0,0,0,0,0,-45.0,2.2220157464510445E-11,3.6952724217147074E-11,0,144.13855,144.76979,0.056151096,-0.003495723,-0.98743373,0.9890351,0.46032754,-0.24227227,0.011559442,0.5203181,-129,-213,2548,2560.0,8.290419E-4,5.422297E-4,-9.2971616E-4,0.0013585638,9.906176911843932E-4,-9.889055870199775E-4,0.22346655104789842,3.2097385960941685,90.79480741421044,90.79480741421042,8.91909833202331,39.79431011804904,-0.36429981470604517,86.45263054522596,,0.0013648847296440253,,,63.56,NONE,0.0,0.0,0.0,NONE,-8.804402754323406E-11,1.3659205983450992E-10,0.0,17.162,17.162,6.135,1.3252172,0,3470,4.285,12.0,1.352,97,20.9,OK,136,0,0,0,0,0,65,100,0.0,0,0.0,589232.0,2.69E-43,0.0,-1.05007105E-23,62,2.622619E-7,-2.622638E-7,9.4E-44,False,False,0,None,0.0,1.0842022E-19,
553730617,143.912,0.0,0.0,4,144.26802,144.44167,0.05460799,-0.004793063,-0.98685557,0.9883769,0.35837185,0.04304013,0.12689091,0.3826018,-129,-213,2545,2557.0,0.008943903,0.037036724,-0.0016560333,0.038137313,0.03810134294914768,-0.03810134294914768,0.30150674284434914,3.014575819208908,46.90527397136978,46.90527397136975,16.74572959630971,44.89443166509108,-6.3460389985985115,88.74508470469449,,0.0,,,63.93,,,10.440749,63.4120498,20190508,170627,2019-05-08T17:06:27Z,115.374,3.44,6.92,178.51,4,0,4,0.06,0.0,0.01,0,0,0,0,0,0,,,,90992,114,99,63,3559,3559,4382,4390,304,17586,26,3562,17571,0,false,false,false,false,false,false,false,false,false,false,0,0,0,0,49,61,61,49,944,945,944,945,940,940,940,940,0.0,0.0,0.0,0.0,1706.7,1701.7,1700.5,1705.5,0.0,0.0,0.0,0.0,0,0,0,0,-45.0,5.5416537297371494E-11,2.0647345116230802E-11,0,144.3605,144.76906,0.05446894,-0.004096664,-0.9872404,0.9887503,0.50873524,-0.09616585,0.098950416,0.52711535,-129,-216,2563,2575.0,4.1413118E-4,0.0012162927,0.0015984058,0.0020507984,0.0012848629181855403,-0.0012809530217183388,0.23043847690884633,3.206313016713155,90.79688095946146,90.79688095946148,8.999282652330649,40.20563911983876,-0.45178824199018186,86.33275594954534,,0.001415427667825999,,,63.87,NONE,0.0,0.0,0.0,NONE,1.226458992590591E-11,-4.961051723098366E-12,0.0,17.161,17.161,6.132,1.3326294,0,3470,4.284,12.0,1.348,97,20.9,OK,137,0,0,0,0,0,65,100,0.0,0,0.0,589232.0,2.69E-43,0.0,-1.05007105E-23,62,2.622619E-7,-2.622638E-7,9.4E-44,False,False,0,None,0.0,1.0842022E-19,
557643871,144.929,0.0,0.0,4,144.23631,144.44832,0.05642301,-0.003484779,-0.9861737,0.9877926,0.3748217,-0.120448306,0.10603051,0.40772733,-129,-213,2545,2557.0,0.004223362,0.04026849,-0.015895009,0.043497577,0.04048935563290092,-0.04048935563290092,0.3236564756034978,3.0202503298585994,46.87952237772066,46.87952237772066,16.7715800606791,45.35891548333959,-6.478688986350618,88.68813846620615,,0.0,,,64.22,,,10.4407472,63.4120493,20190508,170628,2019-05-08T17:06:28Z,114.965,3.44,6.91,175.59,4,0,4,-0.03,0.08,0.01,0,0,0,0,0,0,,,,90992,114,99,63,3559,3559,4382,4390,304,17586,26,3562,17571,0,false,false,false,false,false,false,false,false,false,false,0,0,0,0,49,60,62,49,944,945,944,944,940,940,940,940,0.0,0.0,0.0,0.0,1706.7,1699.9,1701.7,1705.5,0.0,0.0,0.0,0.0,0,0,0,0,-45.0,5.471379134081744E-12,4.1369984431244995E-11,0,144.04343,144.77052,0.054752495,-0.003979123,-0.98805505,0.98957896,0.43729123,-0.07151647,0.03591711,0.444554,-129,-213,2545,2557.0,8.832301E-4,1.0586191E-4,-0.0024677138,0.0026231497,8.895516682325486E-4,-8.836396895842198E-4,0.22331731884200007,3.2133945564647326,90.80177876026792,90.8017787602679,9.081689095786336,40.68138788819904,-0.488828070943565,86.45372102359582,,0.0014500016354672223,,,64.2,NONE,0.0,0.0,0.0,NONE,1.2130733555201507E-11,1.709178527812185E-11,0.0,17.162,17.162,6.132,1.3385376,0,3469,4.284,12.0,1.34,97,20.9,OK,138,0,0,0,0,0,65,100,0.0,0,0.0,589232.0,2.69E-43,0.0,-1.05007105E-23,62,2.622619E-7,-2.622638E-7,9.4E-44,False,False,0,None,0.0,1.0842022E-19,
561635328,145.967,0.0,0.0,4,143.91924,144.46225,0.05533106,-0.0036639986,-0.98654217,0.9880994,0.41554713,-0.08522833,0.3737752,0.56537706,-132,-213,2548,2560.0,0.001576253,0.042321682,-0.02323574,0.04830641,0.0423510253711572,-0.0423510253711572,0.31374217155978384,3.024566483213866,46.86770612596565,46.86770612596564,16.793078964095645,45.686240324921684,-6.51732896364142,89.35288917608685,,0.0,,,64.39,,,10.4407476,63.4120488,20190508,170629,2019-05-08T17:06:29Z,114.925,3.44,6.91,172.87,4,0,4,0.0,0.0,0.0,0,0,0,0,0,0,,,,90992,114,99,63,3559,3559,4382,4390,304,17586,26,3562,17571,0,false,false,false,false,false,false,false,false,false,false,0,0,0,0,49,63,62,49,944,944,944,944,940,940,940,940,0.0,0.0,0.0,0.0,1706.1,1701.7,1699.9,1706.1,0.0,0.0,0.0,0.0,0,0,0,0,-45.0,3.041886014314264E-11,4.208109640264232E-12,0,144.21252,144.76985,0.055443548,-0.003943767,-0.9883602,0.9899219,0.34139445,-0.054101333,-0.039936755,0.34795412,-132,-216,2551,2563.0,5.651217E-5,6.8806997E-4,-0.0018636686,0.0019874342,6.903867861995826E-4,-6.85589047653754E-4,0.21551712482456156,3.2097022695602346,90.79339839616463,90.79339839616466,9.166797779144368,41.053384082438555,-0.6059839569150766,87.21035250196397,,0.0014999717505839105,,,64.41,NONE,0.0,0.0,0.0,NONE,4.249939756064128E-11,7.562884920240102E-11,0.0,17.16,17.16,6.134,1.343127,0,3469,4.285,12.0,1.366,97,20.9,OK,139,0,0,0,0,0,65,100,0.0,0,0.0,589232.0,2.69E-43,0.0,-1.05007105E-23,62,2.622619E-7,-2.622638E-7,9.4E-44,False,False,0,None,0.0,1.0842022E-19,
565513793,146.975,0.0,0.0,4,144.19403,144.44424,0.055644058,-0.0044648387,-0.987307,0.98888385,0.34585297,-0.15466554,-0.12929383,0.4003156,-132,-213,2548,2560.0,0.0016743215,0.045086905,-0.006751314,0.045620307,0.04511798160233952,-0.04511798160233952,0.31661577614220476,3.029558531069882,46.845533346435495,46.8455333464355,16.81659648762245,46.04507146290133,-6.609074193907347,89.29734898092376,,0.0,,,64.48,,,10.4407493,63.4120493,20190508,170630,2019-05-08T17:06:30Z,114.604,3.44,6.91,170.33,4,0,4,-0.01,-0.02,0.0,0,0,0,0,0,0,,,,90992,114,99,63,3559,3559,4382,4390,304,17586,26,3562,17571,0,false,false,false,false,false,false,false,false,false,false,0,0,0,0,49,61,62,49,944,945,944,945,940,940,940,940,0.0,0.0,0.0,0.0,1707.3,1701.1,1700.5,1705.5,0.0,0.0,0.0,0.0,0,0,0,0,-45.0,9.637658659421016E-12,5.60523550504521E-13,0,144.43184,144.76971,0.05571876,-0.0041666646,-0.98677117,0.98835176,0.50327665,-0.276747,-0.027213315,0.5749929,-132,-213,2548,2560.0,-1.46656785E-5,2.1952121E-4,0.0013411359,0.0013590623,2.2001055394843782E-4,-2.176830740618132E-4,0.2174330497620949,3.2176427524975564,90.77115981379526,90.7711598137953,9.184850020486017,41.45897633336294,-0.732439495245704,87.12608194227924,,0.0015315121047430895,,,64.51,NONE,0.0,0.0,0.0,NONE,-1.847217909717942E-11,8.775958275788592E-12,0.0,17.163,17.163,6.135,1.3465017,0,3468,4.283,12.0,1.322,97,20.9,OK,140,0,0,0,0,0,65,100,0.0,0,0.0,589232.0,2.69E-43,0.0,-1.05007105E-23,62,2.622619E-7,-2.622638E-7,9.4E-44,False,False,0,None,0.0,1.0842022E-19,
569375277,147.978,0.0,0.0,4,144.40277,144.4543,0.054716554,-0.0034503026,-0.9874719,0.9889927,0.40654323,-0.16176595,-0.034041356,0.4388672,-132,-216,2545,2557.0,-2.7785776E-4,0.0470241,-0.01646582,0.049824357,0.0470249217352591,-0.0470249217352591,0.31011200456420507,3.0235478523468706,46.82648246048126,46.82648246048126,16.802436077505003,46.43165976194687,-6.716074507986693,89.41161944777012,,0.0,,,64.64,,,10.4407515,63.4120475,20190508,170631,2019-05-08T17:06:31Z,114.769,3.44,6.91,168.19,4,0,4,0.03,0.0,0.01,0,0,0,0,0,0,,,,90992,114,99,63,3559,3559,4382,4390,304,17586,26,3562,17571,0,false,false,false,false,false,false,false,false,false,false,0,0,0,0,49,61,62,49,944,944,944,945,940,940,940,940,0.0,0.0,0.0,0.0,1706.7,1701.1,1701.1,1706.1,0.0,0.0,0.0,0.0,0,0,0,0,-45.0,-1.925858527288082E-11,5.471379134867096E-12,0,144.2416,144.7696,0.055680703,-0.0038781539,-0.9879963,0.98957163,0.4657619,-0.0075229397,0.17923959,0.49911678,-132,-216,2545,2557.0,1.3533556E-4,-4.200804E-4,-9.3256286E-4,0.0010317252,4.4134257513358307E-4,-4.380950226694989E-4,0.18491760421906303,3.2105830391870125,90.7435366355109,90.7435366355109,9.177891524319097,41.90910612558051,-0.8477870850503427,87.26714072999944,,0.0015608975944728554,,,64.61,NONE,0.0,0.0,0.0,NONE,-1.847217909717942E-11,8.775958275788592E-12,0.0,17.161,17.161,6.134,1.3477823,0,3468,4.284,12.0,1.332,97,20.9,OK,141,0,0,0,0,0,65,100,0.0,0,0.0,589232.0,2.69E-43,0.0,-1.05007105E-23,62,2.622619E-7,-2.622638E-7,9.4E-44,False,False,0,None,0.0,1.0842022E-19,
573280050,148.993,0.0,0.0,4,144.38428,144.4634,0.055985723,-0.0057261353,-0.9865702,0.988174,0.3467704,0.0016686255,0.007896679,0.3468643,-132,-213,2551,2563.0,-6.429227E-4,0.047959775,-0.01884403,0.051533006,0.04796408298556117,-0.04796408298556117,0.3010160325521614,3.0345080106066527,46.80655777484387,46.806557774843895,16.80717414691971,46.81548644202952,-6.808495407399053,89.19849325545555,,0.0,,,64.75,,,10.440758,63.4120439,20190508,170632,2019-05-08T17:06:32Z,114.83,3.44,6.9,165.83,4,0,4,0.02,0.0,-0.01,0,0,0,0,0,0,,,,90992,114,99,63,3559,3559,4382,4390,304,17586,26,3562,17571,0,false,false,false,false,false,false,false,false,false,false,0,0,0,0,48,62,63,49,944,945,944,945,940,940,940,940,0.0,0.0,0.0,0.0,1706.7,1699.9,1699.3,1706.7,0.0,0.0,0.0,0.0,0,0,0,0,-45.0,4.956032109284413E-11,-1.822956442628416E-11,0,144.31294,144.76965,0.05679039,-0.002724573,-0.98854464,0.99017835,0.2908747,-0.042844195,-0.039652783,0.296675,-132,-213,2548,2560.0,-4.5578895E-4,0.0011441195,-0.0013696228,0.0018419065,0.0012315652882205546,-0.0012235901686220596,0.19475440647442863,3.216019971222901,90.73595252111906,90.73595252111909,9.209325738825115,42.28380904607264,-0.9320026065077507,87.13038559957343,,0.001588160612264855,,,64.68,NONE,0.0,0.0,0.0,NONE,-1.129413124159006E-11,1.3193218494805572E-11,0.0,17.162,17.162,6.132,1.3468736,0,3467,4.284,12.0,1.319,97,20.9,OK,142,0,0,0,0,0,65,100,0.0,0,0.0,589232.0,2.69E-43,0.0,-1.05007105E-23,62,2.622619E-7,-2.622638E-7,9.4E-44,False,False,0,None,0.0,1.0842022E-19,
577153453,150.000,0.0,0.0,4,144.38428,144.50563,0.056071013,-0.0038380811,-0.9870433,0.9886421,0.4231019,-0.113590285,0.16157459,0.46693075,-132,-213,2551,2563.0,0.0018520466,0.044044644,-0.027277816,0.05184052,0.044083564566420506,-0.044083564566420506,0.296833422013619,3.033517920497748,46.780719761228056,46.780719761228056,16.808994794660165,47.193675738983934,-6.918985010312117,89.20878537348422,,0.0,,,64.81,,,10.4407629,63.4120402,20190508,170633,2019-05-08T17:06:33Z,115.105,3.44,6.9,163.84,4,0,4,0.0,-0.02,-0.01,0,0,0,0,0,0,,,,90992,114,99,63,3559,3559,4382,4390,304,17586,26,3562,17571,0,false,false,false,false,false,false,false,false,false,false,0,0,0,0,49,62,62,50,944,945,944,945,940,940,940,940,0.0,0.0,0.0,0.0,1706.1,1701.1,1701.1,1706.1,0.0,0.0,0.0,0.0,0,0,0,0,-45.0,3.133912269015174E-11,8.449683373479249E-12,0,144.3288,144.76956,0.054863445,-0.004798586,-0.9881342,0.9896677,0.38210323,-0.12844758,0.011594083,0.40328166,-132,-213,2545,2557.0,2.0930028E-4,6.8728655E-4,-0.0011930482,0.0013926713,7.184492977584936E-4,-7.148806723852884E-4,0.20194011936188835,3.2011956965103345,90.75001773372135,90.75001773372134,9.202670460244859,42.662347116059834,-1.0282356053547588,87.3478667623901,,0.0016275245938010825,,,64.82,NONE,0.0,0.0,0.0,NONE,-4.291769871855559E-11,2.817676594231875E-11,0.0,17.162,17.162,6.133,1.3443328,0,3467,4.284,12.0,1.32,97,20.9,OK,143,0,0,0,0,0,65,100,0.0,0,0.0,589232.0,2.69E-43,0.0,-1.05007105E-23,62,2.622619E-7,-2.622638E-7,9.4E-44,False,False,0,None,0.0,1.0842022E-19,
