Tick#,offsetTime,IMU_ATTI(0):Longitude,IMU_ATTI(0):Latitude,IMU_ATTI(0):numSats,IMU_ATTI(0):barometer:Raw,IMU_ATTI(0):barometer:Smooth,IMU_ATTI(0):accel:X,IMU_ATTI(0):accel:Y,IMU_ATTI(0):accel:Z,IMU_ATTI(0):accel:Composite,IMU_ATTI(0):gyro:X,IMU_ATTI(0):gyro:Y,IMU_ATTI(0):gyro:Z,IMU_ATTI(0):gyro:Composite,IMU_ATTI(0):mag:X,IMU_ATTI(0):mag:Y,IMU_ATTI(0):mag:Z,IMU_ATTI(0):mag:Mod,IMU_ATTI(0):velN,IMU_ATTI(0):velE,IMU_ATTI(0):velD,IMU_ATTI(0):velComposite,IMU_ATTI(0):velH,IMU_ATTI(0):GPS-H,IMU_ATTI(0):roll,IMU_ATTI(0):pitch,IMU_ATTI(0):yaw,IMU_ATTI(0):yaw360,IMU_ATTI(0):totalGyro:Z,IMU_ATTI(0):totalGyro:X,IMU_ATTI(0):totalGyro:Y,IMU_ATTI(0):magYaw,IMU_ATTI(0):distanceHP,IMU_ATTI(0):distanceTravelled,IMU_ATTI(0):directionOfTravel[mag],IMU_ATTI(0):directionOfTravel[true],IMU_ATTI(0):temperature,General:relativeHeight,General:absoluteHeight,GPS(0):Long,GPS(0):Lat,GPS(0):Date,GPS(0):Time,GPS:dateTimeStamp,GPS(0):heightMSL,GPS(0):hDOP,GPS(0):pDOP,GPS(0):sAcc,GPS(0):numGPS,GPS(0):numGLNAS,GPS(0):numSV,GPS(0):velN,GPS(0):velE,GPS(0):velD,RC:Aileron,RC:Elevator,RC:Rudder,RC:Throttle,Controller:navHealth,Controller:ctrl_level,HP:Longitude,HP:Latitude,HP:rthHeight,BatBlackBox:tick,BatBlackBox:id,BatBlackBox:rsoc,BatBlackBox:index,BatBlackBox:rm,BatBlackBox:fcc,BatBlackBox:cell_min,BatBlackBox:cell_max,BatBlackBox:current,BatBlackBox:voltage,BatBlackBox:temp,BatBlackBox:flag,BatBlackBox:reserve,BatBlackBox:user_data,OA:avoidObst,OA:emergBrake,OA:radiusLimit,OA:airportLimit,OA:groundForceLanding,OA:horizNearBoundary,OA:vertLowLimit,OA:vertAirportLimit,OA:roofLimit,OA:hitGroundLimit,Motor:Speed:RFront,Motor:Speed:LFront,Motor:Speed:LBack,Motor:Speed:RBack,Motor:EscTemp:RFront,Motor:EscTemp:LFront,Motor:EscTemp:LBack,Motor:EscTemp:RBack,Motor:PPMrecv:RFront,Motor:PPMrecv:LFront,Motor:PPMrecv:LBack,Motor:PPMrecv:RBack,Motor:PPMsend:RFront,Motor:PPMsend:LFront,Motor:PPMsend:LBack,Motor:PPMsend:RBack,Motor:V_out:RFront,Motor:V_out:LFront,Motor:V_out:LBack,Motor:V_out:RBack,Motor:Volts:RFront,Motor:Volts:LFront,Motor:Volts:LBack,Motor:Volts:RBack,Motor:Current:RFront,Motor:Current:LFront,Motor:Current:LBack,Motor:Current:RBack,Motor:Status:RFront,Motor:Status:LFront,Motor:Status:LBack,Motor:Status:RBack,Motor:thrustAngle,IMU_ATTI(1):Longitude,IMU_ATTI(1):Latitude,IMU_ATTI(1):numSats,IMU_ATTI(1):barometer:Raw,IMU_ATTI(1):barometer:Smooth,IMU_ATTI(1):accel:X,IMU_ATTI(1):accel:Y,IMU_ATTI(1):accel:Z,IMU_ATTI(1):accel:Composite,IMU_ATTI(1):gyro:X,IMU_ATTI(1):gyro:Y,IMU_ATTI(1):gyro:Z,IMU_ATTI(1):gyro:Composite,IMU_ATTI(1):mag:X,IMU_ATTI(1):mag:Y,IMU_ATTI(1):mag:Z,IMU_ATTI(1):mag:Mod,IMU_ATTI(1):velN,IMU_ATTI(1):velE,IMU_ATTI(1):velD,IMU_ATTI(1):velComposite,IMU_ATTI(1):velH,IMU_ATTI(1):GPS-H,IMU_ATTI(1):roll,IMU_ATTI(1):pitch,IMU_ATTI(1):yaw,IMU_ATTI(1):yaw360,IMU_ATTI(1):totalGyro:Z,IMU_ATTI(1):totalGyro:X,IMU_ATTI(1):totalGyro:Y,IMU_ATTI(1):magYaw,IMU_ATTI(1):distanceHP,IMU_ATTI(1):distanceTravelled,IMU_ATTI(1):directionOfTravel[mag],IMU_ATTI(1):directionOfTravel[true],IMU_ATTI(1):temperature,IMUEX(0):err,IMUEX(0):rtk_Longitude,IMUEX(0):rtk_Latitude,IMUEX(0):rtk_Alti,IMUEX(1):err,IMUEX(1):rtk_Longitude,IMUEX(1):rtk_Latitude,IMUEX(1):rtk_Alti,MotorCtrl:Status,MotorCtrl:PWM:RFront,MotorCtrl:PWM:LFront,MotorCtrl:PWM:LBack,MotorCtrl:PWM:RBack,BattInfo:Voltage,BattInfo:BatVoltage,BattInfo:AdVoltage,BattInfo:AvgCurrent,BattInfo:R_time,BattInfo:R_CAP_MAH,BattInfo:LowCellVoltage,BattInfo:LowCellVolThreshold,BattInfo:BatCurrent,BattInfo:Remaining%,BattInfo:Temp,BattInfo:status,battery_info:BatDynCnt,battery_info:Vol1Protect,battery_info:Vol2Protect,battery_info:Cap1Protect,battery_info:Cap2Protect,battery_info:Batpresent,battery_info:sopPercentage,battery_info:sopValue,battery_info:sopScale,battery_info:sopFlg,BattInfo:WindHeading:WindDir,battery_info:home_dir,BattInfo:Wind:rangeMin,BattInfo:Wind:rangeMax,battery_info:cap_speed,battery_info:against_wind,battery_info:emergency_land_cap,battery_info:intel_bat_land_cap,battery_info:intel_bat_gh_cap,BattInfo:Smart:SmartGh,BattInfo:Smart:SmartLand,BattInfo:GoHome:CntDown,BattInfo:GoHome:GhCmd,BattInfo:GoHome:CapLevel,BattInfo:GoHome:LandCapLv,Attribute|Value,ConvertDatV3,3.6.6-Tablet
2299059401,.000,14.097320250108789,66.33177609575817,18,-120.822716,-120.666145,0.02233005,-0.0032640104,-0.9922958,0.9925524,0.2706642,-0.1585222,-0.11706996,0.33480406,-267,199,1435,1473.0,-0.0017924116,-0.023505857,-0.014786079,0.027827436,0.023574097013988816,-0.023574097013988816,0.10389490125791534,1.2089489496281143,-161.74645404562142,198.25354595437858,-204.27913702335817,95.87354840586843,-55.92561165194279,-140.31124889030053,2.4195849737403856,193.15428593377825,-46.60223732509359,-41.27950127413279,65.02,-2.74664275927735,,14.0973201,66.3317758,20190513,183834,2019-05-13T18:38:34Z,49.074,0.64,1.22,9.69,10,8,18,-0.01,0.0,0.01,-9969,-9971,9923,-9970,5,5,14.097307505380453,66.33175494593233,30,1592555,20,65,124,2330,3610,3972,3999,-1335,16014,18,2,15421,0,false,false,false,false,false,false,false,false,false,false,0,0,0,0,48,62,61,48,944,946,945,944,940,940,940,940,0.0,0.0,0.0,0.0,1549.7,1544.7,1545.4,1549.1,0.0,0.0,0.0,0.0,0,0,0,0,-45.0,14.097320495576426,66.3317755648112,0,-120.63775,-118.87554,0.023267847,-0.00349988,-0.9923268,0.99260575,0.30679294,-0.0097109815,-0.20912565,0.37141588,-267,199,1435,1473.0,-4.953323E-4,-2.9935926E-4,-8.711881E-4,0.0010459153,5.787659501482502E-4,-5.787659501482502E-4,0.19418216347276954,0.8138415289246365,-157.98706785695765,202.01293214304235,-203.8815372967675,88.00763601934496,-54.05761971855431,-141.78634444273726,2.3649050075666156,8.205583380078283E7,140.4418987400238,145.7646347909846,65.02,NONE,0.0,0.0,0.0,NONE,-2.1341082123802142E-10,-1.7134323639789208E-11,0.0,,,,,,15.58,15.58,5.565,1.3815044,0,2105,3.884,12.0,1.388,59,17.9,OK,574,0,0,0,0,0,65,95,0.0,0,0.0,2.1322444E-4,2.69E-43,0.0,-5.9807744E7,62,3.0994852E-7,-3.0995042E-7,4.2207076E-33,False,False,0,None,3.6197367E31,1.0842106E-19,Firmware Date| Oct 17 2018
2302912088,1.001,14.097320876681747,66.33177606096322,18,-120.82323,-120.67831,0.028545745,0.010237082,-0.98684007,0.98730594,0.47944933,-0.5139011,1.36032,1.5311552,-265,196,1429,1466.0,0.0023624976,-0.027757019,-0.0013427074,0.027889717,0.02785737782488022,3.4142487927140905E-4,0.10487972850351418,1.2217456362272738,-161.73771560821095,198.26228439178905,-204.18510243573883,96.0529911027512,-56.171400604691755,-140.4843855863364,2.422563494587157,193.20426707616687,48.20318666688931,53.52592271785011,65.01,-2.1086119287109426,,14.0973206,66.3317757,20190513,183835,2019-05-13T18:38:35Z,48.969,0.64,1.22,9.51,10,8,18,-0.03,-0.02,-0.01,0,0,0,0,5,5,14.097307505380453,66.33175494593233,30,1592555,20,65,124,2330,3610,3972,3999,-1335,16014,18,2,15421,0,false,false,false,false,false,false,false,false,false,false,556,576,573,542,53,67,67,53,1321,1331,1327,1324,1312,1312,1312,1312,0.1,0.1,0.1,0.1,1519.0,1515.3,1513.5,1518.4,7.35,6.84,7.43,6.94,0,0,0,0,108.43494882292202,14.097321067573732,66.331775448136,0,-120.82323,-118.87356,0.024408195,0.005680291,-0.991293,0.99160975,0.2977951,-0.17371339,0.5598736,0.6575079,-267,193,1432,1469.0,-0.005249068,4.8070893E-4,-0.0028702677,0.0060018525,0.005271033781198722,0.02333179057605617,0.1783396462156433,0.8235020045640256,-158.00651052334103,201.99348947665897,-204.25585714130048,88.20077789239326,-54.3571843581072,-142.57535272245838,2.3587532429337155,8.20558338636909E7,162.29355000419775,167.61628605515855,65.02,NONE,0.0,0.0,0.0,NONE,8.002905723313879E-11,-2.3131336905663538E-10,-1.5258789E-5,1,22.5,22.5,22.5,22.5,15.568,15.568,5.455,1.3823196,0,2105,3.884,12.0,1.382,59,17.9,OK,575,0,0,0,0,0,65,95,0.0,0,0.0,7.539801E-5,2.69E-43,0.0,-5.9807744E7,62,3.0994852E-7,-3.0995042E-7,4.4385972E-33,False,False,0,None,3.8738239E31,1.0842106E-19,ACType|MavicEnterprise
2306915027,2.042,14.097321516156374,66.33177601286874,18,-120.82323,-120.681015,0.01973527,-0.008425523,-0.9938461,0.99407774,3.1092424,-1.2876202,0.18793195,3.3705597,-262,199,1441,1478.0,0.004220502,-0.026768059,0.0032170294,0.027289025,0.02709873838141892,8.165502264412226E-4,0.10649801060638958,1.1917624516092047,-161.78528728059118,198.21471271940882,-207.0554701558595,96.79438851066202,-56.843373772545476,-139.75740740253545,2.4245865994276774,193.24196511222922,72.04993658350341,77.37267263446421,65.01,-2.1086119287109426,,14.0973214,66.3317757,20190513,183836,2019-05-13T18:38:36Z,48.875,0.64,1.22,9.32,10,8,18,-0.03,0.0,0.0,0,0,0,0,5,5,14.097307505380453,66.33175494593233,30,1592555,20,65,124,2330,3610,3972,3999,-1335,16014,18,2,15421,0,false,false,false,false,false,false,false,false,false,false,1859,1856,1878,1872,53,67,68,53,1205,1209,1206,1208,1201,1200,1202,1202,0.0,0.0,0.0,0.0,1542.9,1539.9,1539.3,1544.7,0.58,0.16,0.64,0.2,0,0,0,0,4.899092453787773,14.097321742345521,66.33177567547455,0,-120.82323,-118.87276,0.023860272,-0.0016362136,-0.9903191,0.9906078,-1.125714,-0.67518276,1.4259561,1.9381576,-262,199,1441,1478.0,-0.010984963,5.8003573E-4,0.0012668241,0.011072971,0.01100026577756204,0.02679736773960563,0.16792044104857456,0.7808806838167446,-157.98942319029007,202.01057680970993,-201.7786217873545,87.96749669728105,-54.11590248107752,-141.2088596805234,2.3910230340804737,8.205583392439725E7,-1.415870673679433,3.906865377281367,64.99,NONE,0.0,0.0,0.0,NONE,-1.0670540993101161E-11,-5.097461280782401E-10,0.0,2,10.0,10.35,10.65,10.49,15.358,15.358,5.544,1.4524455,0,2104,3.885,12.0,4.843,59,17.9,OK,576,0,0,0,0,0,65,95,0.0,0,0.0,2.316432E-5,2.69E-43,0.0,-5.9807744E7,62,3.0994852E-7,-3.0995042E-7,4.4648343E-33,False,False,0,None,3.904401E31,1.0842106E-19,dateTime|2019-5-13 18:29:4 GMT
2310764689,3.042,14.09732327745684,66.33177591308258,18,-120.82323,-120.67921,0.025776008,-0.0060653295,-0.98965687,0.99001104,-1.3506453,0.5301158,1.8012178,2.3129313,-265,199,1435,1472.0,0.0090206815,-0.041165035,-0.0021939352,0.04219889,0.04214181827498903,0.037217888659538484,0.13682684412919305,1.1783967296183957,-161.7643714296826,198.2356285703174,-206.7146705856037,97.08365302548283,-57.37849957088058,-140.28261000120395,2.4354223201022975,193.35650617548268,82.96787560874745,88.29061165970825,65.01,-2.1086119287109426,,14.0973228,66.3317756,20190513,183837,2019-05-13T18:38:37Z,48.775,0.64,1.22,9.05,10,8,18,0.0,0.0,-0.01,0,0,0,0,5,5,14.097307505380453,66.33175494593233,30,1592555,20,65,124,2330,3610,3972,3999,-1335,16014,18,2,15421,0,false,false,false,false,false,false,false,false,false,false,1890,1857,1876,1881,53,68,67,53,1206,1207,1213,1210,1203,1205,1201,1200,0.0,0.0,0.0,0.0,1544.1,1539.3,1539.3,1543.5,0.52,0.27,0.71,0.32,0,0,0,0,-75.25643716352926,14.097323377762384,66.33177538906268,0,-120.82323,-118.86331,0.025941148,-0.0024116235,-0.9920575,0.9923995,1.703287,1.0159649,-2.1197586,2.9028862,-262,199,1435,1472.0,-0.009622089,-2.8503366E-4,-0.0046034595,0.010670411,0.00962630937580393,0.06997943543407056,0.18207096824944702,0.7937718596929205,-158.01522626673597,201.98477373326403,-202.04368824816586,88.00169964815447,-53.77246638915955,-141.2292714901641,2.3810298769704348,8.205583403877749E7,43.96217614215712,49.28491219311792,64.99,NONE,0.0,0.0,0.0,NONE,-1.227112206135594E-10,-3.983730238898065E-10,-2.2888184E-5,2,10.14,10.0,10.1,10.05,15.485,15.485,5.544,1.6389729,0,2103,3.885,12.0,1.79,59,17.9,OK,577,0,0,0,0,0,65,95,0.0,0,0.0,1.4426187E-6,2.69E-43,0.0,-3.3654391E38,62,3.0994852E-7,-3.0995042E-7,4.4893786E-33,False,False,0,None,3.9329974E31,1.0842106E-19,geoDeclination|532 degrees
2314645497,4.051,14.097324128913277,66.33177576366307,18,-120.82323,-120.67873,0.020955412,-0.0063321153,-0.9905605,0.99080235,0.9631791,-1.4754714,3.7296755,4.1249495,-259,199,1435,1471.0,0.012419821,-0.05005308,-0.0037857885,0.051709715,0.051570946370092345,-0.010444599851418039,0.1669922801051633,1.189989140775179,-161.78255244370027,198.21744755629973,-206.97945561976223,97.7217530505804,-57.311968166776346,-139.62736148861657,2.430853197265412,193.40637632841518,74.51003014690542,79.83276619786622,64.99,-2.1086119287109426,,14.0973238,66.3317754,20190513,183838,2019-05-13T18:38:38Z,48.675,0.64,1.22,8.81,10,8,18,0.0,0.0,0.0,0,0,0,0,5,5,14.097307505380453,66.33175494593233,30,1592555,20,65,124,2330,3610,3972,3999,-1335,16014,18,2,15421,0,false,false,false,false,false,false,false,false,false,false,1877,1831,1879,1874,53,67,67,53,1208,1209,1212,1209,1204,1200,1200,1202,0.0,0.0,0.0,0.0,1543.5,1539.3,1539.3,1543.5,0.6,0.22,0.7,0.25,0,0,0,0,-42.33699923393283,14.097324556783411,66.33177510610977,0,-120.82323,-118.84176,0.024277488,5.59459E-4,-0.99110407,0.99140155,1.229459,0.8398294,-5.086934,5.300357,-265,199,1438,1475.0,-0.0063790507,8.231357E-4,-0.011953174,0.013573806,0.006431939046007706,0.054361773758151016,0.16678526852075168,0.7959424554255151,-158.03210865899473,201.96789134100527,-202.1187853015773,87.94947208400174,-53.989267544507854,-141.5087631555758,2.36740337350736,8.205583412324204E7,106.54821204095747,111.87094809191827,64.96,NONE,0.0,0.0,0.0,NONE,8.536432675366775E-11,-3.3840289040387123E-10,-4.5776367E-5,2,10.25,10.0,10.29,10.34,15.526,15.526,5.54,1.833596,0,2103,3.809,12.0,1.867,59,17.9,OK,578,0,0,0,0,0,65,95,0.0,0,0.0,2.3059329E-7,2.69E-43,0.0,-3.3654391E38,62,3.0994852E-7,-3.0995042E-7,4.490319E-33,False,False,0,None,3.9340497E31,1.0842106E-19,geoInclination|7644 degrees
2318561951,5.069,14.097325122704152,66.33177564624249,18,-120.82323,-120.60174,0.0058521284,-0.013570072,-1.2246491,1.2247382,12.4462385,15.493061,9.025044,21.826479,-181,196,1447,1471.0,-0.060582932,-0.033995852,-0.63762563,0.64139885,0.06946948782876076,-0.024038822935954496,0.33784192187365464,-0.4613606023232906,-161.85962487893482,198.14037512106518,-206.72790906518767,100.06841829140083,-59.744015176831354,-135.78228468595998,2.4324008053543733,193.46224948754897,129.2639503892968,134.5866864402576,65.02,-2.1086119287109426,,14.0973248,66.3317754,20190513,183839,2019-05-13T18:38:39Z,48.596,0.64,1.22,8.62,10,8,18,0.0,0.0,-0.01,0,0,0,10000,5,5,14.097307505380453,66.33175494593233,30,1592555,20,65,124,2330,3610,3972,3999,-1335,16014,18,2,15421,0,false,false,false,false,false,false,true,false,false,false,5731,5629,4705,4620,51,66,65,51,1648,1622,1500,1510,1653,1646,1454,1481,0.0,0.0,0.0,0.0,1477.3,1471.8,1473.6,1477.9,5.74,4.39,5.2,4.64,0,0,0,0,-179.52137317209394,14.097325562951811,66.33177507938296,0,-120.82323,-118.76188,-0.007300875,-0.018230744,-1.2693012,1.269453,16.631298,22.256641,12.532068,30.47968,-170,196,1447,1470.0,-0.08659753,0.0194353,-0.59198076,0.59859675,0.08875169690282927,-0.04453024111358835,0.24927492335037194,-1.1582528399670873,-158.10637925613136,201.89362074386864,-201.51673241656667,91.03414289530402,-55.771688426146206,-136.4034900514749,2.379426741284031,8.205583418403974E7,132.8882852501073,138.2110213010681,64.98,NONE,0.0,0.0,0.0,NONE,2.192796120449092E-9,-2.2317456309609883E-9,-0.0012817383,2,62.93,63.63,48.08,48.25,15.478,15.478,5.343,1.9599365,0,2102,3.87,12.0,1.886,59,17.9,OK,579,0,0,0,0,0,65,95,0.0,0,0.0,-1.5261993E-27,2.68E-43,0.0,-3.3654391E38,62,3.4967525E-7,-3.298138E-7,2.0259211E-34,False,False,0,None,1.8004774E29,1.1642155E-19,geoIntensity|5257330 nanoTesla
2322466975,6.084,14.097327744604126,66.33177594051861,17,-119.75994,-119.99324,-0.01411191,-0.01656571,-0.86151177,0.86178654,2.5879471,-0.1577367,-0.8547043,2.7299945,-175,219,1447,1473.0,0.071167566,0.004219559,0.08517015,0.11107016,0.07129254397944554,0.04844838354808195,1.3181630903252866,-1.1947298090341338,-161.69956036101036,198.30043963898964,-205.70788198316586,101.41208714082302,-59.092268074063284,-137.86686702801407,0.14443941750393383,193.60139506881114,78.37169111676425,83.69442716772505,64.95,-1.0453261010742239,,14.097328,66.3317754,20190513,183840,2019-05-13T18:38:40Z,49.297,0.68,1.35,8.48,10,7,17,0.1,0.1,-0.55,0,0,0,0,5,5,14.097325172366054,66.33177515243544,30,1592555,20,65,124,2330,3610,3972,3999,-1335,16014,18,2,15421,0,false,false,false,false,false,false,true,false,false,false,4765,5125,4305,4437,50,65,65,51,1506,1548,1454,1474,1500,1542,1452,1469,0.0,0.0,0.0,0.0,1497.6,1494.5,1492.6,1496.9,3.91,3.82,3.16,2.72,0,0,0,0,168.7668714739623,14.097328098082802,66.33177534215453,0,-119.72293,-117.93724,-0.013645397,-0.013585795,-0.8483021,0.8485206,5.564048,-3.6579828,1.9865388,6.9487987,-178,216,1450,1476.0,0.0404621,0.077731036,-0.086506575,0.12313685,0.0876315909140104,0.027527430359680777,1.230389657548939,-1.5969320445364754,-157.91014271949967,202.08985728050033,-200.51110188801786,94.34866909201261,-58.00638071506725,-139.76908666873808,0.1322912306095583,8.205583431978185E7,61.35614792071988,66.67888397168068,64.97,NONE,0.0,0.0,0.0,NONE,6.621069745596566E-9,2.111805118468248E-9,-0.0037994385,2,45.11,51.73,41.44,41.55,15.064,15.064,5.402,2.131767,0,2101,3.871,12.0,6.722,59,17.9,OK,580,0,0,0,0,0,65,95,0.0,0,0.0,-1.03436776E18,2.68E-43,0.0,-3.3654391E38,62,8.1647886E-7,-4.7978045E-7,3.0265607E-34,False,False,0,None,3.3484344E29,1.7623332E-19,mcID(SN)|298DG13001W644
2326327294,7.087,14.097330255002674,66.3317759592962,18,-119.73009,-120.0573,-0.013787493,-0.013174647,-1.0177251,1.0179038,1.7216703,-3.4358318,1.0567942,3.9857123,-164,216,1450,1475.0,0.024899777,-0.07052638,-0.007856093,0.0752043,0.07479283759379123,0.036919608444059254,0.9701402622850364,-1.3095392571396534,-161.87834853395813,198.12165146604187,-207.53128126382256,100.08234894027981,-60.99239726417966,-135.8485354392161,0.2439746129173974,193.72759518302482,115.25915657340674,120.58189262436754,64.89,-1.0154722802734426,,14.0973296,66.3317756,20190513,183841,2019-05-13T18:38:41Z,49.145,0.64,1.22,8.39,10,8,18,0.03,0.0,-0.13,0,0,0,0,5,5,14.097325172366054,66.33177515243544,30,1592555,20,65,124,2330,3610,3972,3999,-1335,16014,18,2,15421,0,false,false,false,false,false,false,true,false,false,false,5329,5564,4667,4715,52,65,65,52,1565,1588,1488,1506,1549,1580,1485,1487,0.0,0.0,0.0,0.0,1490.2,1484.0,1484.6,1490.2,4.25,4.13,3.49,3.03,0,0,0,0,172.94499882542854,14.097330381819651,66.33177545845916,0,-119.59264,-118.064835,-0.013297651,-0.011841562,-1.0118147,1.0119714,5.249881,1.6583325,5.8664083,8.045251,-164,219,1450,1475.0,0.010311855,-0.007503844,-0.040067915,0.04204854,0.01275311832984416,0.0896696471039291,0.9288334882475575,-1.6575626663670682,-158.0987778173005,201.9012221826995,-200.15274023995474,95.22064768092781,-57.99336990325674,-136.49901383469881,0.23501655314746112,8.205583445291577E7,83.49429024888062,88.81702629984142,64.9,NONE,0.0,0.0,0.0,NONE,3.254514582505742E-10,8.352981713083038E-10,-7.6293945E-5,2,53.92,57.65,46.06,46.16,15.052,15.052,5.342,2.5115683,0,2099,3.871,12.0,6.621,59,17.9,OK,581,0,0,0,0,0,65,95,0.0,0,0.0,-9.9367264E16,2.68E-43,0.0,-3.3654391E38,62,7.250637E-7,-4.5545502E-7,3.3037423E-34,False,False,0,None,4.1563837E29,1.6702846E-19,mcVer|v3.4.1.6
2330176173,8.087,14.097329882477649,66.33177595977659,18,-119.87968,-119.97384,-0.014626636,-0.013821722,-0.9831405,0.98334646,5.7320085,0.0067929435,5.685042,8.073145,-187,196,1453,1478.0,0.026772259,-0.046732638,-0.011774898,0.055130225,0.053858085119844606,-0.03723429136700111,0.21031699547625898,-0.5092283380550333,-161.98487635691245,198.01512364308755,-207.7409958341704,99.96848576919568,-59.06592777069154,-136.35630321977445,0.22861377920994783,193.76696361697478,7.88944245609389,13.21217850705469,64.9,-1.1650618188476614,,14.0973298,66.3317755,20190513,183842,2019-05-13T18:38:42Z,49.062,0.64,1.22,8.28,10,8,18,0.0,-0.02,-0.06,0,0,0,0,5,5,14.097325172366054,66.33177515243544,30,1592555,20,65,124,2330,3610,3972,3999,-1335,16014,18,2,15421,0,false,false,false,false,false,false,true,false,false,false,5198,5358,4679,4652,51,65,65,51,1548,1569,1486,1492,1531,1564,1494,1479,0.0,0.0,0.0,0.0,1490.8,1487.1,1486.5,1490.8,3.95,3.94,3.46,2.74,0,0,0,0,171.32062829623015,14.097330078425854,66.33177540774506,0,-119.9008,-118.00132,-0.01239362,-0.016929518,-0.9840837,0.98430735,-1.2967787,1.4412367,-2.1208434,2.8734605,-187,196,1450,1475.0,-0.0023987326,0.0011062344,-0.029853513,0.029970152,0.002641528517843355,0.012024036468481727,0.20977135239324549,-0.8731024529848512,-158.23214387082285,201.76785612917715,-202.51964576264874,92.95247889719654,-56.000317330388974,-137.6343929687929,0.22082950362525566,8.205583450391123E7,72.91051255148889,78.23324860244969,64.94,NONE,0.0,0.0,0.0,NONE,-3.4252431742624583E-9,-3.85522229406231E-11,-3.2043457E-4,2,52.59,55.67,45.71,45.14,15.041,15.041,5.348,3.111769,0,2097,3.724,12.0,7.839,59,17.9,OK,582,0,0,0,0,0,65,95,0.0,0,0.0,-5.0073134E15,2.68E-43,0.0,-3.3654391E38,62,7.7072764E-7,-4.6686372E-7,3.29857E-34,False,False,0,None,4.1411996E29,1.7162427E-19,
2334131041,9.115,14.097331104965278,66.33177566134957,18,-119.87004,-119.97253,-0.018923197,-0.022098929,-1.2232789,1.2236248,-7.4373503,-12.334548,-2.191815,14.569121,-170,213,1444,1469.0,0.013283434,-0.031126456,-0.09527448,0.10110654,0.033842368813538054,0.02829387305899289,0.7396156061816038,-1.1514175151777544,-161.54466701321843,198.45533298678157,-207.2167974957968,100.95662340751244,-60.77218599825837,-135.6834552503021,0.2707984967429336,193.83900967839986,138.85439898747254,144.17713503843333,64.99,-1.1554258935546926,,14.0973309,66.3317753,20190513,183843,2019-05-13T18:38:43Z,48.859,0.64,1.22,8.23,10,8,18,-0.03,0.01,0.02,0,0,0,9262,5,5,14.097325172366054,66.33177515243544,30,1592555,20,65,124,2330,3610,3972,3999,-1335,16014,18,2,15421,0,false,false,false,false,false,false,true,false,false,false,5826,6166,5130,5270,52,66,65,52,1671,1719,1598,1610,1667,1724,1596,1602,0.0,0.0,0.0,0.0,1441.1,1438.1,1438.7,1441.7,6.47,6.78,6.08,5.18,0,0,0,0,172.83955027310887,14.097331113302559,66.3317751254346,0,-119.436676,-118.02686,-0.020914637,-0.020584255,-1.1585375,1.1589091,-8.451279,1.7913197,-5.257368,10.113005,-170,213,1444,1469.0,-0.016589832,0.018695863,-0.051971972,0.057670128,0.024995155209622134,0.02934294092936097,0.8117916767813091,-1.503054372419201,-157.80819153938054,202.19180846061946,-203.3443666389329,92.74693914627804,-54.335759595119214,-137.1987018901069,0.26520899925932306,8.20558345798981E7,105.89860149275928,111.22133754372008,65.0,NONE,0.0,0.0,0.0,NONE,1.862009127258943E-9,-5.183132208054382E-10,-7.6293945E-5,2,69.96,75.96,59.87,61.84,15.025,15.025,5.324,3.8447914,0,2095,3.739,12.0,7.48,58,17.9,OK,583,0,0,0,0,0,65,94,0.0,0,0.0,-85788.0,2.68E-43,0.0,-3.3654391E38,62,7.52334E-7,-4.622726E-7,3.4386302E-34,False,False,0,None,4.5495264E29,1.6977139E-19,
2337995542,10.119,14.097331535328387,66.33177606824398,18,-117.21312,-117.78636,-0.020161336,-0.013530117,-0.6673771,0.66781867,4.758348,-9.8415785,1.6175973,11.050573,-170,190,1465,1487.0,0.088285014,-0.07755115,-3.3152137,3.3172956,0.11750925318700459,-0.06856890947106878,0.0731537001031556,-0.699990561304837,-162.06407460861098,197.93592539138902,-205.93647819935376,103.09060756372004,-63.28227846640828,-134.9632095538016,0.3017338136342653,193.9183376505738,22.694727142095015,28.017463193055814,64.99,1.5014954931640574,,14.0973328,66.3317757,20190513,183844,2019-05-13T18:38:44Z,50.745,0.62,1.18,8.16,11,8,19,-0.27,0.01,-1.81,0,0,0,0,5,5,14.097325172366054,66.33177515243544,30,1592555,20,65,124,2330,3610,3972,3999,-1335,16014,18,2,15421,0,false,false,false,false,false,false,true,false,false,false,4817,4991,4454,4430,52,65,65,52,1499,1512,1447,1453,1490,1502,1439,1441,0.0,0.0,0.0,0.0,1501.2,1496.3,1496.3,1500.6,2.88,2.66,2.62,2.02,0,0,0,0,167.9052429229879,14.097332817605066,66.33177553430225,0,-117.23955,-115.902916,-0.022113184,-0.013375951,-0.68800765,0.68849283,-2.4609902,3.362954,1.2161609,4.3410807,-170,193,1465,1487.0,0.03391922,-0.026015842,-3.346768,3.347041,0.042747368881301526,0.04549381357927612,0.0376838576140633,-0.958497759155414,-158.31585499250926,201.68414500749074,-202.55123082312102,95.0150418354297,-55.840547076588074,-135.36297230621318,0.3439002502275046,8.205583471031867E7,27.742895854046132,33.06563190500693,64.98,NONE,0.0,0.0,0.0,NONE,-3.942763709945886E-9,5.225967182140625E-10,-0.016044617,2,45.83,47.06,38.73,39.64,14.81,14.81,5.304,4.6671953,0,2093,3.733,12.0,10.121,58,17.9,OK,584,0,0,0,0,0,65,94,0.0,0,0.0,-1.71970491E15,2.68E-43,0.0,-3.3654391E38,62,6.686314E-6,-1.4556939E-6,6.5388356E-34,False,False,0,None,1.3327585E30,4.2758788E-19,
2341897651,11.133,14.097335733219968,66.33177730060643,19,-116.14208,-116.35351,-0.0213334,-0.018118586,-0.9279446,0.9283666,-2.3436522,5.189681,-2.7421412,6.3201923,-132,225,1475,1497.0,0.0486422,-0.034853384,0.002589941,0.059895992,0.059839971120511905,0.1690681920082036,1.3623980797695592,-1.6212710188430848,-162.03961913039268,197.96038086960732,-205.86163810658914,105.09272117691238,-65.06647783585142,-132.473377413838,0.5284790375892063,194.17214785282312,-8.095540154733957,-2.772804103773156,65.0,2.572532785644526,,14.0973354,66.3317768,20190513,183845,2019-05-13T18:38:45Z,52.21,0.62,1.18,8.04,11,8,19,0.25,0.07,-1.31,0,0,0,0,5,5,14.097325172366054,66.33177515243544,30,1592555,20,65,124,2330,3610,3972,3999,-1335,16014,18,2,15421,0,false,false,false,false,false,false,true,false,false,false,5007,5123,4579,4489,52,67,66,53,1528,1556,1486,1477,1526,1546,1477,1468,0.0,0.0,0.0,0.0,1487.7,1482.8,1484.0,1488.4,3.82,3.72,3.63,2.71,0,0,0,0,169.02245410616933,14.097336113450059,66.33177689398366,0,-116.33225,-114.39701,-0.02006961,-0.01713898,-0.9171279,0.9175075,-4.4627423,-6.894802,-2.078389,8.471957,-129,225,1478,1500.0,0.0076489216,0.043219298,-0.037456438,0.05770094,0.04389093001107921,0.16412415486565585,1.3473532754709112,-1.9457005152096032,-158.34875279501927,201.65124720498073,-202.67286907340633,95.8037630130566,-55.633089843724036,-133.30828792142214,0.5253804602253578,8.205583493461949E7,41.48163790114895,46.80437395210975,64.99,NONE,0.0,0.0,0.0,NONE,5.991504857987281E-9,5.482979718505461E-10,-8.010864E-4,2,51.72,52.49,44.53,45.03,14.971,14.971,5.352,5.5652876,0,2090,3.73,12.0,9.402,58,17.9,OK,585,0,0,0,0,0,65,94,0.0,0,0.0,-6.495315E34,2.68E-43,0.0,-3.3654391E38,62,3.1900592E-5,-3.1903771E-6,1.20272495E-33,False,False,0,None,4.0087593E30,8.617932E-19,
2345749982,12.135,14.097337937413082,66.33177798910768,19,-116.37705,-116.44326,-0.025579443,-0.017007563,-1.0174644,1.017928,4.0376086,3.2198105,4.026642,6.548535,-150,211,1475,1497.0,0.039748654,-0.055167966,-0.042207174,0.08003065,0.06799602673734864,0.05652118707752865,0.9459555079360419,-1.1665780460826398,-161.95735094120056,198.04264905879944,-202.30484651172608,107.05983883487217,-64.10452034011921,-133.97595493801177,0.6512850627758544,194.30343089866784,69.48181771814339,74.80455376910419,65.01,2.3375626928710886,,14.0973372,66.331777,20190513,183846,2019-05-13T18:38:46Z,51.91,0.62,1.18,7.92,11,8,19,0.05,0.0,-0.22,0,0,0,0,5,5,14.097325172366054,66.33177515243544,30,1592555,20,65,124,2330,3610,3972,3999,-1335,16014,18,2,15421,0,false,false,false,false,false,false,true,false,false,false,5219,5321,4819,4756,52,66,67,54,1549,1574,1516,1496,1544,1559,1500,1495,0.0,0.0,0.0,0.0,1482.2,1478.5,1477.9,1483.4,3.95,3.69,3.71,2.96,0,0,0,0,170.29714276714762,14.097338248606505,66.33177705328366,0,-116.107635,-114.58118,-0.025257327,-0.020612534,-1.0149736,1.0154971,2.3909175,6.2950354,4.844937,8.295624,-152,211,1472,1494.0,0.021245182,-8.173356E-4,0.0067536565,0.022307795,0.021260898228738927,0.07556389620489987,1.0281830071473548,-1.4777223105116317,-158.24918776229626,201.75081223770374,-200.23629039985002,98.15854926873037,-55.435585311952266,-135.83350344924042,0.6207887582434088,8.205583510752748E7,165.2497255720505,170.5724616230113,65.0,NONE,0.0,0.0,0.0,NONE,-5.335267224533962E-12,8.995513844084919E-10,3.0517578E-5,2,52.98,54.5,47.47,47.44,15.022,15.022,5.316,6.4177246,0,2088,3.626,12.0,7.101,58,18.0,OK,586,0,0,0,0,0,65,95,0.0,0,0.0,-5.26507E36,2.68E-43,0.0,-3.3654391E38,62,2.7315691E-5,-2.947011E-6,1.2927913E-33,False,False,0,None,4.5338007E30,8.127844E-19,
2349608506,13.137,14.097338284796338,66.331777150928,19,-116.28864,-116.4896,-0.03407736,-0.018704925,-1.0055623,1.0063134,8.459041,3.287519,3.2898514,9.653303,-129,187,1481,1498.0,0.032888006,-0.024390996,-0.095641054,0.10403726,0.0409455921960182,0.05327184606888898,0.17977924905036674,-1.7699071716593613,-161.80042624748467,198.19957375251533,-201.10571595482574,106.79392215178937,-64.44813706347637,-133.77197206274357,0.6260789479216998,194.42498362665944,91.54758424401408,96.87032029497487,64.94,2.4259721166992136,,14.0973381,66.331777,20190513,183847,2019-05-13T18:38:47Z,51.756,0.62,1.18,7.81,11,8,19,-0.02,-0.01,-0.05,0,0,0,0,5,5,14.097325172366054,66.33177515243544,30,1592555,20,65,124,2330,3610,3972,3999,-1335,16014,18,2,15421,0,false,false,false,false,false,false,true,false,false,false,5129,5335,4780,4817,54,66,67,54,1540,1571,1507,1507,1538,1559,1496,1504,0.0,0.0,0.0,0.0,1483.4,1478.5,1478.5,1484.0,3.84,3.68,3.59,3.03,0,0,0,0,168.9699292321747,14.09733873247566,66.33177672283776,0,-116.362686,-114.62429,-0.032226473,-0.014341811,-0.9899203,0.9905486,11.774236,-2.52938,2.5400178,12.307806,-118,196,1484,1501.0,3.1383208E-4,0.031290527,-0.081650995,0.08744187,0.031292100948147945,0.011210290837739383,1.013872835589716,-2.1143453956406657,-158.0898396248216,201.9101603751784,-198.4739292100441,99.35898066664984,-58.06336741877815,-135.5150505497594,0.6299818845142175,8.20558352188973E7,131.5515197198472,136.874255770808,64.98,NONE,0.0,0.0,0.0,NONE,-2.9343969647617665E-10,6.853724886394596E-10,-3.3569336E-4,2,52.21,54.01,46.99,49.23,14.969,14.969,5.318,7.076784,0,2086,3.78,12.0,7.661,58,18.0,OK,587,0,0,0,0,0,65,95,0.0,0,0.0,-1.1667645E28,2.68E-43,0.0,-1.2335205,63,2.59527E-5,-2.861853E-6,1.2762874E-33,False,False,0,None,4.4375508E30,7.95632E-19,
2353505989,14.150,14.097339508140257,66.33177703370447,19,-116.35928,-116.44964,-0.030860392,-0.016878314,-1.0012832,1.0019008,0.94647104,-0.46082112,3.3240952,3.4867997,-121,216,1478,1498.0,0.03786815,-0.02836281,-0.09900437,0.10972835,0.047312214939179593,0.008112513431211901,1.170843239481569,-1.8168669641509425,-161.89588444481467,198.10411555518533,-202.14100960845175,106.37369268876755,-65.63121578094191,-132.1148911846805,0.6732450290663147,194.5361289949777,163.85165951140465,169.17439556236545,64.99,2.35533155273437,,14.0973389,66.3317765,20190513,183848,2019-05-13T18:38:48Z,51.713,0.62,1.18,7.75,11,8,19,-0.05,-0.01,-0.04,0,0,0,0,5,5,14.097325172366054,66.33177515243544,30,1592555,20,65,124,2330,3610,3972,3999,-1335,16014,18,2,15421,0,false,false,false,false,false,false,true,false,false,false,5251,5320,4869,4738,52,67,67,52,1564,1575,1503,1499,1555,1562,1488,1491,0.0,0.0,0.0,0.0,1482.2,1477.3,1476.7,1482.2,4.24,3.83,3.66,2.74,0,0,0,0,168.2791885011905,14.097339534808922,66.33177619362407,0,-116.39095,-114.60408,-0.031904735,-0.0155885955,-1.0020996,1.0027286,6.489254,8.040442,2.3260489,10.591017,-121,216,1478,1498.0,-0.009358978,0.028678278,-0.09957269,0.10404208,0.030166770691589653,0.037841082555432504,1.1280564199321823,-2.1261318710210966,-158.23589937353515,201.76410062646485,-200.4765014249179,99.38211824861534,-57.11299317022785,-133.26884286509807,0.6514815878695683,8.205583531281248E7,129.87056580619256,135.19330185715336,64.99,NONE,0.0,0.0,0.0,NONE,3.3718887875501377E-9,-3.6410413336714767E-10,-5.0354004E-4,2,51.52,55.97,48.76,45.52,14.953,14.953,5.306,7.536282,0,2084,3.716,12.0,7.717,58,18.0,OK,588,0,0,0,0,0,65,95,0.0,0,0.0,-4.8290297E20,2.68E-43,0.0,-1.2335205,63,2.6386231E-5,-2.8889779E-6,1.3052986E-33,False,False,0,None,4.6066844E30,8.0108477E-19,
2357430973,15.171,14.097339750109468,66.33177642933516,18,-116.30254,-116.42017,-0.023086352,-0.008222695,-0.9933563,0.99365854,-7.324811,1.9368875,-4.691225,8.91134,-155,213,1478,1501.0,0.064134784,-0.098052815,-0.05997739,0.13162413,0.1171649434315422,-0.05043991212573355,0.8651315671190527,-1.0085985008126923,-161.9058388438161,198.0941611561839,-202.27024310527818,106.43406680609185,-68.10010102074386,-133.51846202187716,0.6660325906124472,194.6062285332041,162.81219483844757,168.13493088940837,64.96,2.412071359863276,,14.0973401,66.3317759,20190513,183849,2019-05-13T18:38:49Z,51.581,0.66,1.31,7.71,11,7,18,-0.03,-0.02,-0.03,0,0,0,0,5,5,14.097325172366054,66.33177515243544,30,1592555,20,65,124,2330,3610,3972,3999,-1335,16014,18,2,15421,0,false,false,false,false,false,false,true,false,false,false,5209,5279,4757,4730,54,68,68,55,1558,1573,1499,1497,1550,1557,1498,1488,0.0,0.0,0.0,0.0,1481.6,1475.5,1476.7,1480.4,4.21,3.88,3.63,2.81,0,0,0,0,174.4651428469772,14.097340329147347,66.33177559347831,0,-116.31312,-114.59149,-0.020968018,-0.009284849,-0.99254733,0.9928122,0.15480933,-2.9062011,2.4718008,3.8183465,-155,213,1478,1501.0,0.0077331136,-0.02540722,-0.06913584,0.07406141,0.026558008936275447,0.04752232171726694,0.9051599581630795,-1.3140907316162334,-158.21877352913688,201.78122647086312,-198.65065944448295,101.87339386507438,-55.057332640202304,-134.89443370837793,0.6783447104377067,8.205583539939766E7,88.99973260197022,94.32246865293102,64.96,NONE,0.0,0.0,0.0,NONE,-8.696485117704882E-10,-2.4416394773837874E-10,-3.6621094E-4,2,52.84,54.28,47.74,46.98,14.95,14.95,5.319,7.8421454,0,2082,3.714,12.0,7.606,58,18.0,OK,589,0,0,0,0,0,65,95,0.0,0,0.0,-3.08683997E11,2.68E-43,0.0,-1.2335205,63,2.6745722E-5,-2.9113878E-6,1.3452419E-33,False,False,0,None,4.8395718E30,8.056111E-19,
2361280139,16.171,14.097340853997293,66.33177588201188,18,-116.280136,-116.41494,-0.019153826,-0.0078012045,-1.0015568,1.0017703,-6.947579,-8.641468,-2.1932805,11.302845,-164,202,1468,1490.0,0.082582034,-0.10606449,-0.052318446,0.14424524,0.1344227229252009,-0.05614574163516059,0.46828427803013517,-1.0744673298520095,-161.7589659116397,198.2410340883603,-201.02838390845227,108.18136303877006,-70.89170172108949,-135.23032512212015,0.7046831744768717,194.6900308097265,173.78250526853753,179.10524131949833,65.01,2.4344788916015574,,14.0973408,66.3317755,20190513,183850,2019-05-13T18:38:50Z,51.424,0.66,1.31,7.68,11,7,18,-0.01,-0.03,-0.02,0,0,0,0,5,5,14.097325172366054,66.33177515243544,30,1592555,20,65,124,2330,3610,3972,3999,-1335,16014,18,2,15421,0,false,false,false,false,false,false,true,false,false,false,5175,5319,4680,4854,53,68,67,52,1548,1572,1510,1524,1546,1564,1492,1510,0.0,0.0,0.0,0.0,1480.4,1475.5,1474.9,1479.7,3.54,3.85,3.92,3.03,0,0,0,0,-178.21008939175394,14.097341144468945,66.33177516070687,0,-116.16391,-114.59206,-0.022584999,-0.005627004,-1.0046374,1.0049069,-2.7680433,6.310986,3.4021025,7.68537,-164,202,1468,1490.0,0.026831072,-0.034826107,-0.06458597,0.078128815,0.043963214089089445,0.016348518359408835,0.5319025059347224,-1.4215119760242465,-158.09419144076105,201.90580855923895,-199.17601778663317,101.1986097281892,-50.454411388402356,-136.775084600628,0.7129646137344416,8.205583546626356E7,118.99220806340158,124.31494411436238,65.06,NONE,0.0,0.0,0.0,NONE,-3.766698387403773E-9,1.2722226752313572E-9,-3.4332275E-4,2,54.24,55.05,45.88,48.08,14.948,14.948,5.313,8.021329,0,2080,3.709,12.0,7.594,58,18.1,OK,590,0,0,0,0,0,65,95,0.0,0,0.0,-2049920.0,2.68E-43,0.0,-1.2335205,63,2.6736408E-5,-2.9108057E-6,1.391815E-33,False,False,0,None,5.151533E30,8.0547875E-19,
2365311818,17.219,14.097342224105136,66.33177600347588,18,-116.47398,-116.413284,-0.025255267,-0.0056107617,-1.0081292,1.0084611,-0.21316391,3.3312395,-0.4393592,3.366843,-161,202,1472,1494.0,0.08033061,-0.06711088,-0.04819241,0.115236215,0.1046751061262682,-0.04490067528029871,0.6944730065265355,-0.9603358673794398,-161.80706948291993,198.19293051708007,-202.87465947415458,106.77664267907207,-70.51171576809348,-135.2391947150055,0.7670168949573142,194.76132121762402,65.52580046934973,70.84853652031053,65.05,2.2406312353515574,,14.0973419,66.3317755,20190513,183851,2019-05-13T18:38:51Z,51.253,0.66,1.31,7.65,11,7,18,0.01,-0.01,-0.01,0,0,0,0,5,5,14.097325172366054,66.33177515243544,30,1592555,20,65,124,2330,3610,3972,3999,-1335,16014,18,2,15421,0,false,false,false,false,false,false,true,false,false,false,5215,5304,4613,4820,53,68,69,53,1550,1565,1491,1518,1541,1557,1488,1505,0.0,0.0,0.0,0.0,1480.4,1476.1,1475.5,1481.0,3.93,3.78,3.4,3.14,0,0,0,0,-173.7988191730315,14.097342545168468,66.33177528702416,0,-116.40531,-114.59232,-0.023479408,-0.009074817,-1.0037775,1.004093,0.14422826,-1.7742712,3.1567042,3.624034,-161,202,1472,1494.0,0.025854426,-8.0181257E-4,-0.06292205,0.06803146,0.025866855433641776,0.03529161932276263,0.6763001048070407,-1.2961860201709003,-158.1271742848618,201.8728257151382,-197.23418181820495,103.76168686267619,-49.35668527417224,-136.46592769620722,0.7756329485505058,8.205583554045974E7,42.78436771487869,48.10710376583949,65.06,NONE,0.0,0.0,0.0,NONE,1.2271113775988276E-10,9.252528545222401E-10,-3.4332275E-4,2,52.68,55.19,46.37,46.75,14.937,14.937,5.309,8.100354,0,2076,3.711,12.0,7.504,58,18.1,OK,591,0,0,0,0,0,65,95,0.0,0,0.0,-1.1593728E7,2.68E-43,0.0,-1.2335205,63,2.6742928E-5,-2.9112714E-6,1.47927175E-33,False,False,0,None,6.171131E30,8.0558463E-19,
2369173518,18.222,14.09734371195916,66.33177616558912,18,-116.39399,-116.40727,-0.020220866,-0.014339481,-1.0053121,1.0056177,-0.38518175,5.5363727,-0.82152694,5.610231,-152,199,1472,1493.0,0.07571003,-0.053322203,-0.039971415,0.100861184,0.09260272833887534,-0.024034429736493737,0.378034056654364,-1.2088780493709135,-161.95776308428233,198.04223691571767,-203.9032957069146,107.66367181283807,-67.69131022555163,-134.040610351684,0.8352046894202281,194.8380009205609,42.99748801560827,48.32022406656907,65.08,2.3206254370117136,,14.0973434,66.3317756,20190513,183852,2019-05-13T18:38:52Z,51.118,0.66,1.31,7.62,11,7,18,0.0,0.0,-0.01,0,0,0,0,5,5,14.097325172366054,66.33177515243544,30,1592555,20,65,124,2330,3610,3972,3999,-1335,16014,18,2,15421,0,false,false,false,false,false,false,true,false,false,false,5289,5405,4840,4716,54,68,67,54,1565,1601,1522,1484,1565,1582,1493,1490,0.0,0.0,0.0,0.0,1476.1,1472.4,1470.5,1476.7,3.92,4.3,4.1,2.46,0,0,0,0,168.09104410292233,14.0973443446898,66.33177548627602,0,-116.29885,-114.59716,-0.020758364,-0.015740938,-1.0065111,1.0068482,-0.37202856,-0.005714734,-2.801368,2.825969,-161,199,1475,1497.0,0.023183847,0.02033744,-0.06704221,0.07379539,0.030839945465026452,0.05218464191297431,0.3976537950519396,-1.4881936820559953,-158.2422580945317,201.7577419054683,-197.98692016212,103.37159715683731,-56.1352139388416,-136.5543291524595,0.8566204318312661,8.205583563634048E7,70.4840505586849,75.8067866096457,65.05,NONE,0.0,0.0,0.0,NONE,1.3604930608125092E-9,1.2550883641549627E-9,-2.593994E-4,2,55.92,55.58,46.65,48.62,14.931,14.931,5.296,8.1056795,0,2074,3.705,12.0,7.541,58,18.1,OK,592,0,0,0,0,0,65,95,0.0,0,0.0,-2.97736602E9,2.68E-43,0.0,-1.2335205,63,2.6641414E-5,-2.9049268E-6,1.6031985E-33,False,False,0,None,7.252162E30,8.0430085E-19,
2373089910,19.240,14.097345635113951,66.33177620080096,18,-116.12476,-116.37871,-0.028494513,-0.017785821,-1.004628,1.0051894,4.0237694,1.2600828,0.20886174,4.221629,-178,127,1484,1500.0,0.101204604,-0.05545529,-0.04988174,0.12572132,0.11540217224951269,-0.03097426391511328,0.9814622523712321,-1.6240390038533832,-177.06454033086732,182.93545966913268,-221.1439663292597,108.78599041666908,-66.30798603973861,-155.2239610731822,0.9208264123372394,194.9310060272649,61.66111404151782,66.98385009247862,65.01,2.5898515112304636,,14.0973455,66.3317755,20190513,183853,2019-05-13T18:38:53Z,51.004,0.66,1.31,7.57,11,7,18,0.0,0.05,-0.02,0,0,0,0,5,5,14.097325172366054,66.33177515243544,30,1592555,20,65,124,2330,3610,3972,3999,-1335,16014,18,2,15421,0,false,false,false,false,false,false,true,false,false,false,5231,5208,4792,4721,53,69,67,52,1559,1552,1491,1512,1540,1546,1510,1498,0.0,0.0,0.0,0.0,1478.5,1474.9,1474.3,1478.5,4.47,3.78,3.05,3.06,0,0,0,0,177.03268017208936,14.097346042947752,66.33177541586451,0,-116.38369,-114.57605,-0.028448874,-0.014431665,-1.0042542,1.0047607,3.477576,-4.1760545,-5.853328,7.9871407,-181,127,1487,1503.0,0.06122345,0.009911961,-0.07319715,0.095939465,0.062020625954058536,0.012852892019638254,0.9464453227343489,-1.923953447166469,-173.31178064166582,186.68821935833418,-213.60176716605602,104.0294282458653,-59.39006940378762,-156.07788034678202,0.9320830925615405,8.205583572654392E7,61.33288369077859,66.65561974173939,65.03,NONE,0.0,0.0,0.0,NONE,1.0723886460439678E-9,2.4159380069119626E-9,-4.4250488E-4,2,51.24,56.52,50.47,44.23,14.919,14.919,5.31,8.068612,0,2072,3.703,12.0,7.821,58,18.1,OK,593,0,0,0,0,0,65,95,0.0,0,0.0,-1.45870848E8,2.68E-43,0.0,-1.2335205,63,2.7094502E-5,-2.9332157E-6,1.8485007E-33,False,False,0,None,8.682138E30,8.100051E-19,
2377004533,20.258,14.097347453724323,66.3317756185671,19,-116.08438,-116.36348,-0.027136873,-0.025499046,-1.0002842,1.000977,-1.8917812,-0.8904867,-7.827479,8.101928,-184,141,1481,1499.0,0.050670326,-0.032836825,-0.056249823,0.0825214,0.06037995571747876,0.041679080290334646,2.01234168150456,-1.3314995256627926,-178.05705759535113,181.94294240464887,-222.5522983199733,108.89512057107713,-67.02831474400092,-157.85465927871817,0.995946695264786,195.04132411433818,105.91531936938856,111.23805542034935,64.98,2.63023389648437,,14.0973475,66.3317752,20190513,183854,2019-05-13T18:38:54Z,50.86,0.62,1.18,7.52,11,8,19,-0.04,0.03,-0.02,0,0,0,0,5,5,14.097325172366054,66.33177515243544,30,1592555,20,65,124,2330,3610,3972,3999,-1335,16014,18,2,15421,0,false,false,false,false,false,false,true,false,false,false,5136,5392,4587,4760,54,68,68,54,1541,1581,1482,1511,1527,1555,1490,1511,0.0,0.0,0.0,0.0,1479.7,1475.5,1475.5,1479.1,4.08,3.99,3.07,2.67,0,0,0,0,175.9798956071188,14.097347748768398,66.3317749614336,0,-116.38027,-114.56415,-0.021142574,-0.026322559,-0.98848075,0.9890571,5.5108266,-1.340324,0.9271971,5.7467704,-184,141,1481,1499.0,0.010947983,0.03667746,-0.082798414,0.09121771,0.038276552987478056,0.0515466909426174,1.9808843108396343,-1.6257608346554382,-174.32488354440542,185.67511645559458,-213.17805954413595,107.489669682508,-59.576520212398634,-158.35154154005966,1.0079910499893274,8.205583583607021E7,118.11477620054438,123.43751225150518,64.96,NONE,0.0,0.0,0.0,NONE,8.525756324773725E-9,1.2765062484891697E-9,-7.8582764E-4,2,51.31,53.63,46.48,50.8,14.902,14.902,5.303,8.01625,0,2070,3.698,12.0,7.668,58,18.1,OK,594,0,0,0,0,0,65,95,0.0,0,0.0,-14048.25,2.68E-43,0.0,-1.2335205,63,2.7369242E-5,-2.950387E-6,2.055952E-33,False,False,0,None,9.8914504E30,8.134594E-19,
2380855199,21.258,14.097348422873592,66.33177526349954,19,-116.29236,-116.33485,-0.02903604,-0.030393232,-0.9987846,0.9996687,-9.9694,7.248246,-5.422015,13.465671,-198,130,1481,1499.0,0.07539752,-0.09159911,-0.030221883,0.12242771,0.11863887380741645,-0.06011508368879981,1.137783211847077,-0.8313319126981038,-178.41144630594667,181.58855369405333,-224.29184163658508,107.67561065507175,-60.45768265524333,-155.3845745968368,1.0379315076049584,195.10129092198403,136.33095874881485,141.65369479977565,65.0,2.422256601562495,,14.0973484,66.3317749,20190513,183855,2019-05-13T18:38:55Z,50.935,0.62,1.18,7.42,11,8,19,-0.02,-0.03,-0.03,0,0,0,0,5,5,14.097325172366054,66.33177515243544,30,1592555,20,65,124,2330,3610,3972,3999,-1335,16014,18,2,15421,0,false,false,false,false,false,false,true,false,false,false,5232,5123,4804,4670,53,69,69,53,1539,1557,1536,1475,1533,1560,1529,1464,0.0,0.0,0.0,0.0,1476.7,1473.6,1472.4,1477.9,3.9,3.21,3.91,2.59,0,0,0,0,178.37456277279506,14.097348785582703,66.3317747239368,0,-116.334625,-114.54972,-0.027672067,-0.020515013,-0.9963965,0.99699175,1.0534062,-1.0445969,0.29102817,1.5118018,-198,133,1481,1500.0,0.020361548,-0.017852938,-0.054778945,0.061106894,0.0270798821860047,0.026164848080445734,1.2164654175599063,-1.1974751695627412,-174.68859863339156,185.31140136660844,-214.67690940941512,106.40290137136539,-60.40550271732588,-156.08577564683185,1.0551250408188313,8.205583590923023E7,122.36053594890747,127.68327199986827,64.99,NONE,0.0,0.0,0.0,NONE,-4.695034701079859E-10,4.883278926174013E-10,-3.2043457E-4,2,51.82,55.31,49.6,44.13,14.903,14.903,5.305,7.9544706,0,2068,3.693,12.0,7.504,58,18.1,OK,595,0,0,0,0,0,65,95,0.0,0,0.0,-196.69531,2.68E-43,0.0,-1.2335205,63,2.7703587E-5,-2.9712835E-6,2.189347E-33,False,False,0,None,1.1196858E31,8.176681E-19,
2384704227,22.259,14.097348514085539,66.33177554759136,19,-116.11262,-116.32075,-0.030237384,-0.036608167,-0.9707394,0.9718999,-1.2856697,6.962082,-2.1837094,7.4089212,-178,141,1484,1501.0,0.11436667,-0.04977344,-0.027241684,0.12766849,0.12472822775417548,-0.09288834194616036,1.8006353374523847,-1.5878767669137022,-178.16381259647468,181.83618740352532,-224.82133642833614,107.71237691879382,-62.039966895675065,-156.7183288264481,1.0428556277637733,195.13859200542396,-27.199682723244244,-21.876946672283445,64.97,2.6019975073242136,,14.0973484,66.3317749,20190513,183856,2019-05-13T18:38:56Z,51.094,0.62,1.18,7.37,11,8,19,0.0,0.0,-0.02,0,0,0,0,5,5,14.097325172366054,66.33177515243544,30,1592555,20,65,124,2330,3610,3972,3999,-1335,16014,18,2,15421,0,false,false,false,false,false,false,true,false,false,false,5077,5243,4820,4710,54,68,69,53,1536,1574,1506,1481,1533,1574,1510,1479,0.0,0.0,0.0,0.0,1475.5,1472.4,1472.4,1477.3,3.96,3.72,3.65,2.63,0,0,0,0,160.74226585696678,14.097348826329997,66.33177483864812,0,-116.14431,-114.546326,-0.03273645,-0.033628434,-0.97349614,0.9746267,2.4586334,-15.806632,-2.6171577,16.20938,-181,141,1484,1501.0,0.054893352,0.029674284,-0.055242,0.083339795,0.0624006662904461,-0.049520764310936535,1.7508615179983384,-1.8896303184132626,-174.46147275319564,185.53852724680436,-215.3096747222007,107.10001381038182,-61.41139047925528,-157.42722197597496,1.0564439074402994,8.205583595465112E7,37.652509868423635,42.975245919384435,64.98,NONE,0.0,0.0,0.0,NONE,2.3101704910021248E-9,2.2917142310278527E-9,-3.5095215E-4,2,52.6,55.06,48.18,48.3,14.906,14.906,5.301,7.883441,0,2066,3.699,12.0,7.578,58,18.1,OK,596,0,0,0,0,0,65,95,0.0,0,0.0,-1638.3125,2.68E-43,0.0,-1.2335205,63,2.7781352E-5,-2.976173E-6,2.193955E-33,False,False,0,None,1.1250709E31,8.186607E-19,
2388658934,23.287,14.097348628806708,66.3317758229645,19,-116.317184,-116.30889,-0.033876356,-0.035704587,-1.0035452,1.0047513,0.3703002,4.258182,0.9197539,4.372092,-167,161,1478,1496.0,0.09781248,-0.0695336,-0.030868381,0.12391554,0.12000917990658991,-0.08980385202050889,2.394635823625307,-1.9928876298402283,-178.19280569417575,181.80719430582425,-221.87549026094285,110.87317228791701,-60.310698949610774,-155.60092728536355,1.0497017758484144,195.18565927442097,14.078734888260392,19.40147093922119,64.99,2.3974305517578074,,14.0973493,66.3317753,20190513,183857,2019-05-13T18:38:57Z,51.241,0.62,1.18,7.34,11,8,19,0.01,0.02,-0.02,0,0,0,0,5,5,14.097325172366054,66.33177515243544,30,1592555,20,65,124,2330,3610,3972,3999,-1335,16014,18,2,15421,0,false,false,false,false,false,false,true,false,false,false,5109,5301,4923,4728,54,68,68,54,1537,1579,1526,1499,1539,1563,1517,1495,0.0,0.0,0.0,0.0,1476.7,1469.3,1470.5,1476.1,3.54,3.9,4.24,2.72,0,0,0,0,152.98381027613473,14.097349163875238,66.33177507542956,0,-116.41219,-114.54822,-0.035925902,-0.038289692,-1.0029925,1.0043658,-0.36770713,-8.137859,2.918854,8.653304,-167,161,1478,1496.0,0.047499605,0.022069434,-0.049738657,0.072230235,0.05237625744218902,-0.02286167795084856,2.3429664121306155,-2.326304931770849,-174.46799364223955,185.53200635776045,-217.67766825466697,106.20425295121149,-65.60889107552546,-156.1382636750254,1.0709691597542634,8.205583602253206E7,12.37485624924254,17.69759230020334,64.97,NONE,0.0,0.0,0.0,NONE,4.310895564382323E-9,2.5615796459915345E-9,-2.746582E-4,2,52.71,55.21,49.12,46.61,14.895,14.895,5.301,7.8127456,0,2065,3.697,12.0,7.622,58,18.1,OK,597,0,0,0,0,0,65,95,0.0,0,0.0,-133696.0,2.68E-43,0.0,2.0469024E-31,64,2.7739909E-5,-2.9735536E-6,2.2316648E-33,False,False,0,None,1.1690177E31,8.181313E-19,
2392597456,24.310,14.097349219623668,66.3317761924731,19,-116.025894,-116.31041,-0.0273235,-0.034422036,-0.98177034,0.98275346,-7.2894306,-7.8064017,-4.9419465,11.76854,-181,147,1481,1499.0,0.06633389,-0.101014934,-0.0052519497,0.12096191,0.12084784458297514,-0.07315042414412185,1.6475071243722168,-1.613289870578312,-178.2540540885827,181.7459459114173,-224.5109580748622,107.63989856009741,-56.32595289179538,-154.89417184340897,1.0796351331249416,195.2608044297045,-33.2812573557407,-27.9585213047799,64.99,2.6887208349609324,,14.0973491,66.3317756,20190513,183858,2019-05-13T18:38:58Z,51.381,0.62,1.18,7.3,11,8,19,0.0,-0.04,0.01,0,0,0,0,5,5,14.097325172366054,66.33177515243544,30,1592555,20,65,124,2330,3610,3972,3999,-1335,16014,18,2,15421,0,false,false,false,false,false,false,true,false,false,false,5179,5351,4892,4662,54,68,69,54,1566,1586,1532,1495,1560,1593,1511,1477,0.0,0.0,0.0,0.0,1471.8,1468.1,1468.1,1472.4,4.01,3.96,4.32,2.78,0,0,0,0,157.613959992943,14.097349362672452,66.33177552275615,0,-115.9785,-114.556984,-0.028948974,-0.0323914,-1.0115885,1.0125208,-2.5741682,-7.476226,-2.0142875,8.1595125,-181,141,1481,1498.0,0.01608912,-0.0114362985,-0.023622233,0.030784065,0.019739521722374507,0.029621177767777954,1.4603392743855683,-1.9448333384556407,-174.52859309042245,185.47140690957755,-217.10731822706128,106.02902323052709,-67.14906177933416,-155.9490913391121,1.0805937036387152,8.205583610681027E7,-14.458135819045314,-9.135399768084513,65.0,NONE,0.0,0.0,0.0,NONE,-1.5045452535336456E-9,6.168352325540905E-10,-2.1362305E-4,2,54.53,58.09,49.67,46.24,14.885,14.885,5.297,7.7484474,0,2063,3.692,12.0,7.485,58,18.1,OK,598,0,0,0,0,0,65,95,0.0,0,0.0,-1.04265728E8,2.68E-43,0.0,2.0469024E-31,64,2.7622096E-5,-2.9662194E-6,2.258372E-33,False,False,0,None,1.2001519E31,8.16649E-19,
2396513922,25.328,14.097348045130813,66.33177640501272,19,-116.185135,-116.29964,-0.024835423,-0.011386987,-0.9936096,0.9939852,-0.3965404,-0.5030194,7.0915265,7.1203947,-181,130,1484,1500.0,0.077729926,-0.112029344,-0.042576935,0.14284715,0.13635436955848015,-0.07985640038737621,0.9407100951072086,-1.5891928058761913,-178.24470839279374,181.75529160720626,-221.11246780883235,109.64379415250248,-58.256213939142405,-154.57080582832245,1.0304525339105797,195.33313401842045,-69.65756148851872,-64.33482543755792,64.97,2.5294801123046824,,14.0973484,66.3317758,20190513,183859,2019-05-13T18:38:59Z,51.5,0.62,1.18,7.25,11,8,19,0.02,-0.03,-0.01,0,0,0,0,5,5,14.097325172366054,66.33177515243544,30,1592555,20,65,124,2330,3610,3972,3999,-1335,16014,18,2,15421,0,false,false,false,false,false,false,true,false,false,false,5238,5289,4809,4768,54,69,70,54,1560,1571,1511,1501,1553,1569,1509,1489,0.0,0.0,0.0,0.0,1474.3,1469.3,1469.9,1474.3,4.06,3.68,3.71,2.76,0,0,0,0,174.46860492138245,14.097348475908094,66.33177563614167,0,-116.22742,-114.56463,-0.025116693,-0.0138108255,-0.9977221,0.9981337,-0.51268125,1.1233958,1.5708197,1.9980828,-181,133,1484,1500.0,0.035056222,-0.041963417,-0.055413965,0.07784969,0.054679678459782624,-0.013866235376483294,0.9942295812446273,-1.913877850635491,-174.47955454949388,185.52044545050612,-218.97214297763162,105.17338307559038,-67.43075579170646,-155.05472488675184,1.0416149715960807,8.20558361792996E7,-171.91446962020066,-166.59173356923986,64.97,NONE,0.0,0.0,0.0,NONE,-4.406930471049546E-9,1.6534611130197264E-9,-2.89917E-4,2,53.2,57.6,49.42,45.2,14.894,14.894,5.282,7.6944604,964,2061,3.695,12.0,7.767,58,18.2,OK,599,0,0,0,0,0,65,95,0.0,0,0.0,-1.95617096E10,2.68E-43,0.0,2.0469024E-31,64,2.7365051E-5,-2.950154E-6,2.1521074E-33,False,False,0,None,1.0762651E31,8.134197E-19,
2400438960,26.348,14.09734756235278,66.33177620032708,19,-116.155716,-116.31004,-0.014186793,-0.024291124,-1.0095123,1.0099041,-9.577979,5.8401427,-4.390883,12.046776,-201,127,1484,1502.0,0.047086988,-0.06522505,-0.027116947,0.084892996,0.08044558048009161,-0.04971939071144342,0.9664695860087938,-0.7922747722721253,-178.3012915885073,181.6987084114927,-220.65073199000756,110.36530535659354,-58.820799444648,-155.287251415781,1.006215338117555,195.3766123472165,178.95780562034332,-175.71945832869588,65.04,2.5588990576171824,,14.0973475,66.3317757,20190513,183900,2019-05-13T18:39:00Z,51.55,0.62,1.18,7.19,11,8,19,-0.01,-0.02,0.0,0,0,0,0,5,5,14.097325172366054,66.33177515243544,30,1592555,20,65,124,2330,3610,3972,3999,-1335,16014,18,2,15421,0,false,false,false,false,false,false,true,false,false,false,5236,5501,4842,4708,55,70,70,55,1552,1594,1526,1501,1547,1581,1516,1495,0.0,0.0,0.0,0.0,1473.0,1468.7,1468.7,1473.0,3.85,4.01,4.06,2.65,0,0,0,0,161.42036517272516,14.097347757685814,66.33177562081967,0,-116.1505,-114.57302,-0.015498632,-0.023381375,-1.0068482,1.0072389,-5.2535677,-6.381234,-2.0451689,8.51486,-201,127,1484,1502.0,0.009394973,-0.007920557,-0.041228678,0.04302098,0.01228823534047738,0.019184470776869317,1.0031175063639681,-1.193127194667072,-174.49302138718858,185.50697861281142,-218.80622796167015,106.38696318918565,-67.6744498236556,-156.46508672867358,1.009509704358234,8.205583623420188E7,-48.8352703529267,-43.5125343019659,65.05,NONE,0.0,0.0,0.0,NONE,-3.788039506753383E-10,2.784325710084907E-10,-2.746582E-4,2,55.38,58.05,48.19,46.77,14.868,14.868,5.284,7.658714,967,2059,3.695,12.0,7.703,57,18.2,OK,600,0,0,0,0,0,65,95,0.0,0,0.0,-3.49700096E9,2.68E-43,0.0,2.0469024E-31,64,2.7231406E-5,-2.9417722E-6,2.0639923E-33,False,False,0,None,9.938492E30,8.117256E-19,
2404288138,27.348,14.097346929070904,66.33177624394821,19,-116.50103,-116.326355,-0.029208064,-0.020911567,-1.003421,1.0040637,3.1831205,5.656474,-2.36291,6.9073367,-181,118,1487,1502.0,0.08796114,-0.038012974,-0.020060055,0.09790073,0.09582352363440359,-0.06715293680156063,0.7963335003699126,-1.723013322756753,-178.2770687188437,181.7229312811563,-218.51958826379197,113.10031429984511,-59.14357489519838,-156.671849744639,0.978732157603082,195.42142650218128,137.6553766110963,142.9781126620571,65.05,2.213585031738276,,14.0973472,66.3317756,20190513,183901,2019-05-13T18:39:01Z,51.56,0.62,1.18,7.13,11,8,19,0.02,0.01,0.01,0,0,0,0,5,5,14.097325172366054,66.33177515243544,30,1592555,20,65,124,2330,3610,3972,3999,-1335,16014,18,2,15421,0,false,false,false,false,false,false,true,false,false,false,5167,5372,4724,4792,54,70,70,54,1549,1581,1501,1512,1550,1568,1490,1509,0.0,0.0,0.0,0.0,1473.0,1468.1,1468.7,1473.0,3.92,3.87,3.78,2.83,0,0,0,0,172.37234158828505,14.097347246455652,66.33177547865792,0,-116.34254,-114.57953,-0.028543495,-0.026771497,-1.0012708,1.0020353,0.52738816,-11.874694,-2.5495546,12.156756,-181,115,1490,1505.0,0.057147775,0.018207517,-0.04633301,0.07579003,0.05997817734453335,-0.03222825471450318,0.7639125452299569,-2.009664700920089,-174.39516937211727,185.60483062788273,-220.46346275759794,106.35748754121045,-68.13000378563152,-157.8080566679811,0.9860124612057063,8.205583629717444E7,-76.8703201010463,-71.5475840500855,65.08,NONE,0.0,0.0,0.0,NONE,1.8673434125152163E-9,2.6686691080649346E-9,-2.4414062E-4,2,54.36,56.06,46.35,48.21,14.874,14.874,5.292,7.658714,967,2059,3.689,12.0,7.703,57,18.2,OK,600,0,0,0,0,0,65,95,0.0,0,0.0,-2.86056448E8,2.68E-43,0.0,2.0469024E-31,64,2.7080067E-5,-2.9322844E-6,2.003948E-33,False,False,0,None,9.58831E30,8.098198E-19,
2408137607,28.349,14.09734748114686,66.33177590050123,19,-116.02506,-116.32899,-0.021929571,-0.019189816,-1.0089945,1.0094151,-8.696704,3.6159315,-7.1224794,11.808358,-193,78,1487,1501.0,0.03083157,0.03513888,-0.049230773,0.06788958,0.046747476244763386,-0.0013178383863392887,-1.3590177878298537,-1.3461137573082267,-178.4699134853568,181.5300865146432,-218.74977876928392,111.23495545508642,-52.12085727949795,-153.5694199371017,0.9992891751587356,195.4686522478823,119.88542432470949,125.20816037567029,64.99,2.6895524389648386,,14.0973473,66.3317753,20190513,183902,2019-05-13T18:39:02Z,51.534,0.62,1.18,7.09,11,8,19,-0.03,0.04,0.01,-9998,0,0,0,5,5,14.097325172366054,66.33177515243544,30,1592555,20,65,124,2330,3610,3972,3999,-1335,16014,18,2,15421,0,false,false,false,false,false,false,true,false,false,false,5217,5384,4789,4719,55,71,71,54,1554,1576,1510,1506,1549,1574,1506,1491,0.0,0.0,0.0,0.0,1473.6,1468.1,1468.1,1473.6,3.96,3.78,3.86,2.95,0,0,0,0,167.76569811671916,14.097347632326692,66.33177519778882,0,-116.120224,-114.5886,-0.024514733,-0.018191352,-1.0095737,1.0100352,-3.4369504,-9.127429,0.30227217,9.757764,-193,81,1487,1501.0,0.0064679757,0.08733949,-0.0679027,0.11081876,0.08757865693341708,-0.051928902321469954,-1.2743641514941335,-1.6464973319721428,-174.55331906096123,185.44668093903877,-223.00174436344827,103.98202275049802,-75.20911615233715,-154.1674325824363,1.0025822220543659,8.205583634573436E7,167.40116573982206,172.72390179078286,65.03,NONE,0.0,0.0,0.0,NONE,4.076143895176065E-9,1.0280587271448627E-9,-3.2043457E-4,2,53.71,56.18,48.04,46.78,14.878,14.878,5.278,7.6382194,969,2057,3.69,12.0,7.583,57,18.2,OK,601,0,0,0,0,0,65,95,0.0,0,0.0,-2.02752E7,2.68E-43,0.0,2.0469024E-31,64,2.6799273E-5,-2.9147639E-6,2.0243076E-33,False,False,0,None,9.7069973E30,8.062861E-19,
2412178938,29.399,14.097352989155482,66.33177431462964,19,-116.36899,-116.33472,-0.028323075,-0.003705195,-0.9943693,0.9947795,20.7054,4.7563105,3.959896,21.610575,-190,58,1487,1500.0,0.009959869,0.4188038,-0.026836988,0.41978097,0.4189222280549136,-0.13085223767679216,-0.6836563997621447,-1.3750490511122482,-178.45973280763363,181.54026719236637,-220.25006808963678,111.03321482125128,-49.81327923580787,-161.44279390101826,1.2451779468749562,195.77533106014906,103.7381327671562,109.060868818117,65.05,2.34562696289062,,14.0973518,66.3317737,20190513,183903,2019-05-13T18:39:03Z,51.474,0.62,1.18,7.06,11,8,19,-0.17,0.39,0.0,-8575,0,0,0,5,5,14.097325172366054,66.33177515243544,30,1592555,20,65,124,2330,3610,3972,3999,-1335,16014,18,2,15421,0,false,false,false,false,false,false,true,false,false,false,5016,5271,4781,4577,55,71,70,54,1520,1617,1598,1424,1561,1550,1484,1501,0.0,0.0,0.0,0.0,1471.1,1468.7,1464.4,1470.5,2.37,4.01,4.68,1.5,0,0,0,0,153.7069595435208,14.097353010516793,66.33177335420625,0,-116.215805,-114.57444,-0.026817113,-0.0057882983,-0.9945461,0.9949244,10.147244,6.0804324,-2.7848227,12.15292,-190,55,1487,1500.0,-0.037257906,0.46529344,-0.06385462,0.47113007,0.4667827492336334,-0.16622099431126341,-1.122169553265418,-1.592906380397086,-174.54833979030315,185.45166020969685,-222.97525075265955,105.31741150616092,-77.69430887894592,-160.01037258989408,1.25862619706451,8.205583667529896E7,141.91387930848444,147.23661535944524,65.03,NONE,0.0,0.0,0.0,NONE,5.160803232464242E-8,-1.6277596475333258E-9,-3.2043457E-4,2,60.85,49.04,39.51,52.59,14.848,14.848,5.285,7.627125,969,2055,3.689,12.0,7.786,57,18.2,OK,602,0,0,0,0,0,65,95,0.0,0,0.0,-3.366992E-4,2.68E-43,0.0,2.0469024E-31,64,2.7117785E-5,-2.9346709E-6,2.5985601E-33,False,False,0,None,1.5967879E31,8.1029625E-19,
