Tick#,offsetTime,IMU_ATTI(0):Longitude,IMU_ATTI(0):Latitude,IMU_ATTI(0):numSats,IMU_ATTI(0):barometer:Raw,IMU_ATTI(0):barometer:Smooth,IMU_ATTI(0):accel:X,IMU_ATTI(0):accel:Y,IMU_ATTI(0):accel:Z,IMU_ATTI(0):accel:Composite,IMU_ATTI(0):gyro:X,IMU_ATTI(0):gyro:Y,IMU_ATTI(0):gyro:Z,IMU_ATTI(0):gyro:Composite,IMU_ATTI(0):mag:X,IMU_ATTI(0):mag:Y,IMU_ATTI(0):mag:Z,IMU_ATTI(0):mag:Mod,IMU_ATTI(0):velN,IMU_ATTI(0):velE,IMU_ATTI(0):velD,IMU_ATTI(0):velComposite,IMU_ATTI(0):velH,IMU_ATTI(0):GPS-H,IMU_ATTI(0):roll,IMU_ATTI(0):pitch,IMU_ATTI(0):yaw,IMU_ATTI(0):yaw360,IMU_ATTI(0):totalGyro:Z,IMU_ATTI(0):totalGyro:X,IMU_ATTI(0):totalGyro:Y,IMU_ATTI(0):magYaw,IMU_ATTI(0):distanceHP,IMU_ATTI(0):distanceTravelled,IMU_ATTI(0):directionOfTravel[mag],IMU_ATTI(0):directionOfTravel[true],IMU_ATTI(0):temperature,General:relativeHeight,General:absoluteHeight,GPS(0):Long,GPS(0):Lat,GPS(0):Date,GPS(0):Time,GPS:dateTimeStamp,GPS(0):heightMSL,GPS(0):hDOP,GPS(0):pDOP,GPS(0):sAcc,GPS(0):numGPS,GPS(0):numGLNAS,GPS(0):numSV,GPS(0):velN,GPS(0):velE,GPS(0):velD,RC:Aileron,RC:Elevator,RC:Rudder,RC:Throttle,Controller:navHealth,Controller:ctrl_level,HP:Longitude,HP:Latitude,HP:rthHeight,BatBlackBox:tick,BatBlackBox:id,BatBlackBox:rsoc,BatBlackBox:index,BatBlackBox:rm,BatBlackBox:fcc,BatBlackBox:cell_min,BatBlackBox:cell_max,BatBlackBox:current,BatBlackBox:voltage,BatBlackBox:temp,BatBlackBox:flag,BatBlackBox:reserve,BatBlackBox:user_data,OA:avoidObst,OA:emergBrake,OA:radiusLimit,OA:airportLimit,OA:groundForceLanding,OA:horizNearBoundary,OA:vertLowLimit,OA:vertAirportLimit,OA:roofLimit,OA:hitGroundLimit,Motor:Speed:RFront,Motor:Speed:LFront,Motor:Speed:LBack,Motor:Speed:RBack,Motor:EscTemp:RFront,Motor:EscTemp:LFront,Motor:EscTemp:LBack,Motor:EscTemp:RBack,Motor:PPMrecv:RFront,Motor:PPMrecv:LFront,Motor:PPMrecv:LBack,Motor:PPMrecv:RBack,Motor:PPMsend:RFront,Motor:PPMsend:LFront,Motor:PPMsend:LBack,Motor:PPMsend:RBack,Motor:V_out:RFront,Motor:V_out:LFront,Motor:V_out:LBack,Motor:V_out:RBack,Motor:Volts:RFront,Motor:Volts:LFront,Motor:Volts:LBack,Motor:Volts:RBack,Motor:Current:RFront,Motor:Current:LFront,Motor:Current:LBack,Motor:Current:RBack,Motor:Status:RFront,Motor:Status:LFront,Motor:Status:LBack,Motor:Status:RBack,Motor:thrustAngle,IMU_ATTI(1):Longitude,IMU_ATTI(1):Latitude,IMU_ATTI(1):numSats,IMU_ATTI(1):barometer:Raw,IMU_ATTI(1):barometer:Smooth,IMU_ATTI(1):accel:X,IMU_ATTI(1):accel:Y,IMU_ATTI(1):accel:Z,IMU_ATTI(1):accel:Composite,IMU_ATTI(1):gyro:X,IMU_ATTI(1):gyro:Y,IMU_ATTI(1):gyro:Z,IMU_ATTI(1):gyro:Composite,IMU_ATTI(1):mag:X,IMU_ATTI(1):mag:Y,IMU_ATTI(1):mag:Z,IMU_ATTI(1):mag:Mod,IMU_ATTI(1):velN,IMU_ATTI(1):velE,IMU_ATTI(1):velD,IMU_ATTI(1):velComposite,IMU_ATTI(1):velH,IMU_ATTI(1):GPS-H,IMU_ATTI(1):roll,IMU_ATTI(1):pitch,IMU_ATTI(1):yaw,IMU_ATTI(1):yaw360,IMU_ATTI(1):totalGyro:Z,IMU_ATTI(1):totalGyro:X,IMU_ATTI(1):totalGyro:Y,IMU_ATTI(1):magYaw,IMU_ATTI(1):distanceHP,IMU_ATTI(1):distanceTravelled,IMU_ATTI(1):directionOfTravel[mag],IMU_ATTI(1):directionOfTravel[true],IMU_ATTI(1):temperature,IMUEX(0):err,IMUEX(0):rtk_Longitude,IMUEX(0):rtk_Latitude,IMUEX(0):rtk_Alti,IMUEX(1):err,IMUEX(1):rtk_Longitude,IMUEX(1):rtk_Latitude,IMUEX(1):rtk_Alti,BattInfo:Voltage,BattInfo:BatVoltage,BattInfo:AdVoltage,BattInfo:AvgCurrent,BattInfo:R_time,BattInfo:R_CAP_MAH,BattInfo:LowCellVoltage,BattInfo:LowCellVolThreshold,BattInfo:BatCurrent,BattInfo:Remaining%,BattInfo:Temp,BattInfo:status,battery_info:BatDynCnt,battery_info:Vol1Protect,battery_info:Vol2Protect,battery_info:Cap1Protect,battery_info:Cap2Protect,battery_info:Batpresent,battery_info:sopPercentage,battery_info:sopValue,battery_info:sopScale,battery_info:sopFlg,BattInfo:WindHeading:WindDir,battery_info:home_dir,BattInfo:Wind:rangeMin,BattInfo:Wind:rangeMax,battery_info:cap_speed,battery_info:against_wind,battery_info:emergency_land_cap,battery_info:intel_bat_land_cap,battery_info:intel_bat_gh_cap,BattInfo:Smart:SmartGh,BattInfo:Smart:SmartLand,BattInfo:GoHome:CntDown,BattInfo:GoHome:GhCmd,BattInfo:GoHome:CapLevel,BattInfo:GoHome:LandCapLv,Attribute|Value,ConvertDatV3,3.6.6-Tablet
7367560,1.915,,,,,,,,,,,,,,,,,,,,,,,,,,,,,,,,,,,,,,,,,,,,,,,,,,,,,,,,,,,,,,,,,,,,,,,,,,,,,,,,,,,,,,,,,,,,,,,,,,,,,,,,,,,,,,,,,,,,,,,,,,,,,,,,,,,,,,,,,,,,,,,,,,,,,,,,,,,,,,,,,,,,,,,,,,,,,,,OK,,,,,,,,,,,,,,,,,,,,,,,,,,Firmware Date| Oct 17 2018
93188056,24.219,,,,,,,,,,,,,,,,,,,,,,,,,,,,,,,,,,,,,,,,,,,,,,,,,,,,,,,,,,,,,,,,,,,,,,,,,,,,,,,,,,,,,,,,,,,,,,,,,,,,,,,,,,,,,,,,,,,,,,,,,,,,,,,,,,,,,,,,,,,,,,,,,,,,,,,,,,,,,,,,,,,,,,,,,,,,,,,OK,,,,,,,,,,,,,,,,,,,,,,,,,,ACType|MavicEnterprise
97064545,25.227,,,0,55.82693,55.77128,0.065719545,-0.00463975,-0.97784764,0.9800646,0.4721109,-0.056344844,0.0729511,0.48102525,123,170,1473,1487.0,-0.18217292,0.09630934,0.024667256,0.20753539,0.20606422402248173,-0.20606422402248173,0.18387966891311422,4.090353019405563,-36.57265208875317,323.42734791124684,0.15364747729801997,0.34240462425109713,-0.06029320160458787,-35.962153030875804,,0.0,,,33.92,,,0.0,0.0,20151018,23,2015-10-18T00:00:23Z,-17.0,99.99,99.99,3.75E7,0,0,0,0.0,0.0,0.0,0,0,0,0,0,0,,,,2163135,20,100,228,3541,3556,4354,4365,-599,17392,20,2,16759,0,false,false,false,false,false,false,false,false,false,false,0,0,0,0,44,55,55,43,943,945,944,944,940,940,940,940,0.0,0.0,0.0,0.0,1580.9,1576.1,1576.7,1580.3,0.0,0.0,0.0,0.0,0,0,0,0,-45.0,2.0780969912388978E-10,-9.762606117888454E-11,0,55.863926,55.359936,0.06627696,-0.0036496415,-0.9782415,0.9804909,0.3958626,-0.08870935,0.07174261,0.41197518,123,170,1473,1487.0,-7.9467834E-4,0.0018613951,-4.0258083E-4,0.0020635836,0.0020239331694443382,-0.0020239331694443382,0.2508127806725254,4.348114842303302,-35.85180426341259,324.1481957365874,0.15409219024217602,0.3783917450664775,-0.06587728268981989,-34.907506007459645,,1.2816429473144327E-4,,,33.94,NONE,0.0,0.0,0.0,NONE,1.6661168663405572E-10,-2.9917318172401874E-10,6.1035156E-5,15.892,15.892,5.679,1.2769202,0,2397,3.965,12.0,1.312,65,24.4,OK,22,0,0,0,0,0,65,100,0.0,0,0.0,589232.0,2.69E-43,0.0,-1.04624128E8,62,1.15966424E-4,-1.1596691E-4,9.4E-44,False,False,0,None,0.0,1.0842022E-19,dateTime|2015-10-18 0:0:22 GMT
100944983,26.235,0.0,0.0,0,56.0621,55.797344,0.06587934,-0.023424447,-0.96657234,0.969098,0.287373,-1.3248557,0.34023765,1.3977079,118,164,1479,1492.0,-0.21284373,0.14745522,0.02309186,0.25995907,0.2589314482909615,-0.2589314482909615,0.17374802827599448,4.078717429769642,-36.57425946314754,323.42574053685246,0.28069442558813373,0.7525296639870586,-0.24977522193260593,-35.58471035223071,,0.0,,,34.18,,,0.0,0.0,20151018,24,2015-10-18T00:00:24Z,-17.0,99.99,99.99,3.75E7,0,0,0,0.0,0.0,0.0,0,0,0,0,0,0,,,,2163137,114,100,229,3540,3556,4274,4298,-2939,17430,20,3544,17059,0,false,false,false,false,false,false,false,false,false,false,0,0,0,0,41,55,56,43,943,945,944,944,940,940,940,940,0.0,0.0,0.0,0.0,1580.9,1574.8,1575.5,1580.3,0.0,0.0,0.0,0.0,0,0,0,0,-45.0,3.5361165704258605E-10,-7.958291072509521E-10,0,55.760876,55.359367,0.07096217,-0.010380534,-0.97418576,0.976822,0.6942401,-1.0779113,0.10622805,1.2865249,120,164,1485,1498.0,-0.035415906,0.0154917855,5.673745E-5,0.038655985,0.03865594144301363,-0.03857729921575679,0.2372264275569017,4.3139177610937045,-35.995111242562906,324.0048887574371,0.22089461207955832,0.6621985967458417,-0.1971052451152749,-34.29843228179228,,2.7628338449823674E-4,,,34.19,NONE,0.0,0.0,0.0,NONE,3.897512921129616E-10,-7.929218734562126E-10,0.0,15.89,15.89,5.68,1.2803172,0,2396,3.964,12.0,1.306,65,24.4,OK,23,0,0,0,0,0,65,100,0.0,0,0.0,589232.0,2.69E-43,0.0,-1.04624128E8,62,1.15966424E-4,-1.1596691E-4,9.4E-44,False,False,0,None,0.0,1.0842022E-19,
104862114,27.253,0.0,0.0,0,55.853355,55.74092,0.062868126,-0.003955021,-0.97775954,0.97978663,0.46096268,-0.15174694,0.21985471,0.5327756,118,161,1491,1504.0,-0.12644885,0.07352309,0.044065982,0.15276377,0.1462701502596002,-0.1462701502596002,0.18109457040367838,4.088396928338861,-36.58215104892208,323.41784895107793,0.4096896300558114,1.1962690517052432,-0.45043955609782715,-34.89935339374122,,0.0,,,34.44,,,0.0,0.0,20151018,24,2015-10-18T00:00:24Z,-17.0,99.99,99.99,3.75E7,0,0,0,0.0,0.0,0.0,0,0,0,0,0,0,,,,2163538,48,96,230,3552,3717,4292,4301,-1092,17170,26,212,17168,0,false,false,false,false,false,false,false,false,false,false,0,0,0,0,44,56,55,43,944,945,944,944,940,940,940,940,0.0,0.0,0.0,0.0,1579.7,1574.8,1576.1,1579.1,0.0,0.0,0.0,0.0,0,0,0,0,-45.0,1.9705942373204975E-9,-1.7228895444453435E-9,0,55.739735,55.169273,0.06323886,-0.002611488,-0.97962266,0.9816652,0.515618,-0.08124055,0.18803422,0.5548143,120,164,1491,1504.0,-0.07670079,0.0878981,0.21993634,0.24896,0.116657991987967,-0.1164544108230645,0.31103506038613726,4.349494509209513,-35.895403624928676,324.1045963750713,0.2541005387531396,1.2303693687738972,-0.29325787851127294,-33.81002966387254,,0.002653560440195161,,,34.49,NONE,0.0,0.0,0.0,NONE,1.2603925341972194E-9,-8.024467343054981E-10,3.0136108E-4,15.89,15.89,5.679,1.2846795,0,2396,3.964,12.0,1.306,65,24.4,OK,24,0,0,0,0,0,65,100,0.0,0,0.0,589232.0,2.69E-43,0.0,-1.04624128E8,62,1.15966424E-4,-1.1596691E-4,9.4E-44,False,False,0,None,0.0,1.0842022E-19,
108718644,28.255,0.0,0.0,0,55.784657,55.6249,0.06339716,-0.0031913002,-0.9776247,0.97968334,0.41856834,-0.16755909,0.10472974,0.46286482,120,167,1479,1493.0,-0.18040878,0.11346576,0.07095788,0.22462597,0.213123919898174,-0.213123919898174,0.18146350026081692,4.094577543394606,-36.59002352803132,323.40997647196866,0.6032699180171797,1.6393468709888563,-0.588718084018317,-35.76611360530266,,0.0,,,34.82,,,0.0,0.0,20151018,25,2015-10-18T00:00:25Z,-17.0,99.99,99.99,3.75E7,0,0,0,0.0,0.0,0.0,0,0,0,0,0,0,,,,2163538,17,96,231,3552,3717,4292,4301,-1019,17171,26,0,17168,0,false,false,false,false,false,false,false,false,false,false,0,0,0,0,44,55,54,44,944,944,944,944,940,940,940,940,0.0,0.0,0.0,0.0,1579.7,1575.5,1576.1,1579.7,0.0,0.0,0.0,0.0,0,0,0,0,-45.0,2.8139096002705215E-10,-9.518079863905422E-11,0,55.636684,55.129486,0.065538235,-0.003953251,-0.97823066,0.9804316,0.47602588,-0.013954824,0.16069375,0.50261104,120,164,1482,1495.0,-8.5881585E-4,0.0024786592,2.6066284E-4,0.002636145,0.0026232262654321357,-0.0023629808774857704,0.24128375575531252,4.334113388467267,-36.05986366321785,323.94013633678213,0.3853989293464354,1.5844327790775894,-0.3778130659128982,-34.24903955852485,,0.0034756409989003118,,,34.81,NONE,0.0,0.0,0.0,NONE,5.591719303410356E-11,-2.132241683318863E-11,0.0,15.888,15.888,5.678,1.2891299,0,2395,3.964,12.0,1.303,65,24.4,OK,25,0,0,0,0,0,65,100,0.0,0,0.0,589232.0,2.69E-43,0.0,-1.04624128E8,62,1.15966424E-4,-1.1596691E-4,9.4E-44,False,False,0,None,0.0,1.0842022E-19,
112616493,29.269,0.0,0.0,0,55.900917,55.687645,0.065376565,-0.004119195,-0.978859,0.9810484,0.3518691,-0.09696644,0.14811519,0.393894,120,167,1479,1493.0,-0.21473213,0.16322517,-0.003645151,0.26975104,0.26972641996674085,-0.26972641996674085,0.1737783484772142,4.085583455943667,-36.598381137885184,323.4016188621148,0.7399456458119866,2.0663786340448715,-0.7358540628041309,-35.82731118662466,,0.0,,,35.14,,,0.0,0.0,20151018,27,2015-10-18T00:00:27Z,-17.0,99.99,99.99,3.75E7,0,0,0,0.0,0.0,0.0,0,0,0,0,0,0,,,,2163601,16,96,232,3393,3558,4285,4303,-1386,17264,25,0,17033,0,false,false,false,false,false,false,false,false,false,false,0,0,0,0,44,55,55,43,943,945,944,944,940,940,940,940,0.0,0.0,0.0,0.0,1579.1,1574.8,1574.2,1579.7,0.0,0.0,0.0,0.0,0,0,0,0,-45.0,2.337499717116863E-11,-7.984226395957331E-11,0,55.871853,55.129177,0.06443216,-0.0028149197,-0.97787744,0.9800019,0.4115119,-0.033897195,0.23639712,0.47578844,120,167,1485,1499.0,-0.0035621019,0.0010682027,0.0014394908,0.003987701,0.00371882056148631,-0.0036904496165747896,0.24805610531290456,4.298527267867005,-36.138935478764004,323.861064521236,0.504653389353548,1.9475538275992823,-0.44936503698535774,-34.800930600107044,,0.003532847097268843,,,35.13,NONE,0.0,0.0,0.0,NONE,-2.8381217341535603E-11,2.2036153211148215E-11,0.0,15.887,15.887,5.679,1.2933794,0,2395,3.964,12.0,1.314,65,24.4,OK,26,0,0,0,0,0,65,100,0.0,0,0.0,589232.0,2.69E-43,0.0,-1.04624128E8,62,1.15966424E-4,-1.1596691E-4,9.4E-44,False,False,0,None,0.0,1.0842022E-19,
116675034,30.323,0.0,0.0,0,55.92734,55.69548,0.06454311,-0.0039001391,-0.978759,0.98089254,0.44436607,-0.09083539,0.1835271,0.48927954,120,164,1499,1512.0,-0.13593166,0.07592723,0.018146656,0.15675351,0.15569958299511785,-0.15569958299511785,0.17422688723640167,4.098856154734583,-36.60747985281109,323.3925201471889,0.869767907515944,2.4950081171855243,-0.8208354162599841,-35.09864772502069,,0.0,,,35.45,,,0.0,0.0,20151018,27,2015-10-18T00:00:27Z,-17.0,99.99,99.99,3.75E7,0,0,0,0.0,0.0,0.0,0,0,0,0,0,0,,,,2163601,20,96,233,3393,3558,4285,4303,-1386,17264,25,2,17033,0,false,false,false,false,false,false,false,false,false,false,0,0,0,0,44,56,56,44,944,944,944,945,940,940,940,940,0.0,0.0,0.0,0.0,1579.7,1575.5,1574.8,1579.7,0.0,0.0,0.0,0.0,0,0,0,0,-45.0,8.680289317546592E-11,-1.2505288860684083E-10,0,55.74502,55.11911,0.06534561,-0.0036007725,-0.97805697,0.98024404,0.2996588,-0.013476095,0.1171573,0.32202926,120,164,1491,1504.0,-0.0055785007,0.0038597751,0.0062100706,0.009196875,0.0067836226368054794,-0.00677541143428114,0.23461618192883957,4.336275009343782,-36.0643436630181,323.9356563369819,0.670324356211523,2.3982466286618562,-0.5474777542997313,-34.18761826799961,,0.0035677466809795957,,,35.42,NONE,0.0,0.0,0.0,NONE,1.2284631900114362E-10,-1.5306272779674286E-10,3.0517578E-5,15.886,15.886,5.679,1.2972593,0,2394,3.962,12.0,1.3,65,24.4,OK,27,0,0,0,0,0,65,100,0.0,0,0.0,589232.0,2.69E-43,0.0,-5.9807744E7,62,1.15966424E-4,-1.1596691E-4,9.4E-44,False,False,0,None,0.0,1.0842022E-19,
120592069,31.341,0.0,0.0,0,55.61026,55.681084,0.06486186,-0.0034424828,-0.9776272,0.9797826,0.39103925,-0.20417431,0.067664504,0.44629288,120,161,1485,1498.0,-0.20017955,0.11151542,0.006790043,0.22924583,0.22914524231091218,-0.22914524231091218,0.1716720935211102,4.099262166073414,-36.63254500205313,323.3674549979469,0.9554826138792157,2.8490743927427524,-0.8921887662739573,-34.724338466721704,,0.0,,,35.75,,,0.0,0.0,20151018,29,2015-10-18T00:00:29Z,-17.0,99.99,99.99,3.75E7,0,0,0,0.0,0.0,0.0,0,0,0,0,0,0,,,,2164765,48,13,234,440,3529,3689,3693,-1168,14775,46,212,14771,0,false,false,false,false,false,false,false,false,false,false,0,0,0,0,44,56,56,44,944,944,943,945,940,940,940,940,0.0,0.0,0.0,0.0,1579.7,1574.2,1575.5,1579.7,0.0,0.0,0.0,0.0,0,0,0,0,-45.0,1.1370631032085154E-11,-3.863457649145552E-11,0,55.678963,55.114445,0.064721,-0.0041764937,-0.9771878,0.9793377,0.49529564,-0.046177268,-0.015585477,0.49768767,120,164,1488,1501.0,-0.0017289355,5.05023E-4,-9.2068396E-4,0.0020228508,0.0018011846883091078,-0.001788655407171947,0.22338474729269017,4.319842334300994,-36.11161440440123,323.8883855955988,0.7786539073324904,2.812628336577185,-0.6260577958533974,-34.31381148385585,,0.0037300982072788536,,,35.71,NONE,0.0,0.0,0.0,NONE,9.662925234031925E-12,-3.7264882387653577E-11,-3.8146973E-6,15.885,15.885,5.676,1.2972593,0,2394,3.962,12.0,1.3,65,24.4,OK,27,0,0,0,0,0,65,100,0.0,0,0.0,589232.0,2.69E-43,0.0,-5.9807744E7,62,1.15966424E-4,-1.1596691E-4,9.4E-44,False,False,0,None,0.0,1.0842022E-19,
124447096,32.343,0.0,0.0,0,56.194214,55.739925,0.064506084,-0.004254977,-0.97776765,0.9799024,0.37784418,-0.031119268,0.06930678,0.38540637,120,164,1497,1510.0,-0.20036453,0.14509243,-0.011767052,0.24766152,0.2473818055576183,-0.2473818055576183,0.15759074959093208,4.0992041799594165,-36.64372509348072,323.3562749065193,1.07220709149325,3.285163070938202,-0.9694645085750951,-35.18943870627245,,0.0,,,36.03,,,0.0,0.0,20151018,30,2015-10-18T00:00:30Z,-17.0,99.99,99.99,3.75E7,0,0,0,0.0,0.0,0.0,0,0,0,0,0,0,,,,2164765,48,13,234,440,3529,3689,3693,-1168,14775,46,212,14771,0,false,false,false,false,false,false,false,false,false,false,0,0,0,0,43,56,55,44,944,944,943,945,940,940,940,940,0.0,0.0,0.0,0.0,1579.1,1574.2,1574.8,1578.5,0.0,0.0,0.0,0.0,0,0,0,0,-45.0,1.9077415316568212E-11,-7.853296316913836E-11,0,55.840145,55.110317,0.06453585,-0.0044364072,-0.9782761,0.9804125,0.43223557,-0.04067902,0.1323286,0.45386478,120,164,1494,1507.0,-0.0035199556,8.2387525E-4,0.0063996627,0.007350139,0.0036150875089494784,-0.0036105775918605348,0.21116864629846074,4.293877892012171,-36.149594412871764,323.85040558712825,0.9454430967650864,3.1922229750948246,-0.7277457107441921,-34.389150130564595,,0.0037588794896867275,,,36.04,NONE,0.0,0.0,0.0,NONE,9.662925234031925E-12,-3.7264882387653577E-11,-3.8146973E-6,15.884,15.884,5.677,1.3024898,0,2394,3.962,12.0,1.31,65,24.4,OK,29,0,0,0,0,0,65,100,0.0,0,0.0,589232.0,2.69E-43,0.0,-5.9807744E7,62,1.15966424E-4,-1.1596691E-4,9.4E-44,False,False,0,None,0.0,1.0842022E-19,
128303247,33.345,0.0,0.0,0,56.03832,55.7498,0.06463495,-0.0035179555,-0.98008376,0.98221904,0.41243657,-0.021838976,0.12075033,0.43030396,120,167,1485,1499.0,-0.15645263,0.08650002,-0.0027954862,0.17879456,0.1787727019925802,-0.1787727019925802,0.16241696970982833,4.115064023059858,-36.64653797527373,323.35346202472624,1.1847534195435603,3.698098279982127,-1.0674023009164517,-35.73102300895668,,0.0,,,36.29,,,0.0,0.0,20151018,30,2015-10-18T00:00:30Z,-17.0,99.99,99.99,3.75E7,0,0,0,0.0,0.0,0.0,0,0,0,0,0,0,,,,2170199,48,13,236,444,3533,3742,3743,0,14971,29,212,5,0,false,false,false,false,false,false,false,false,false,false,0,0,0,0,44,56,56,43,944,944,943,945,940,940,940,940,0.0,0.0,0.0,0.0,1579.1,1574.2,1574.2,1579.7,0.0,0.0,0.0,0.0,0,0,0,0,-45.0,1.3681568288112344E-10,-2.3783264946002855E-10,0,56.011894,55.100292,0.064971045,-0.003939277,-0.97929615,0.98145694,0.39949596,-0.20019603,0.16732676,0.47715166,120,167,1494,1508.0,-0.010604451,0.006097018,0.008157181,0.01470264,0.012232253125063876,-0.012210275063148935,0.19605555604047553,4.34349074866552,-36.01462920822497,323.98537079177504,1.0617141410265802,3.5855604295881465,-0.8743445534321896,-34.80895289905589,,0.003799958072697541,,,36.32,NONE,0.0,0.0,0.0,NONE,1.325865987253283E-10,-2.3013579995812287E-10,2.2888184E-5,15.882,15.882,5.677,1.3042436,0,2393,3.963,12.0,1.305,65,24.4,OK,30,0,0,0,0,0,65,100,0.0,0,0.0,589232.0,2.69E-43,0.0,-5.9807744E7,62,1.15966424E-4,-1.1596691E-4,9.4E-44,False,False,0,None,0.0,1.0842022E-19,
132169453,34.350,0.0,0.0,0,55.816364,55.72557,0.06512158,-0.0043919245,-0.9779869,0.98016244,0.36091232,-0.039879,0.030796269,0.3644125,120,161,1482,1495.0,-0.22375599,0.12636754,0.005871613,0.2570408,0.25697372279736286,-0.25697372279736286,0.15145819410572128,4.12734424716013,-36.654294076801044,323.345705923199,1.3087721759936077,4.089307216048753,-1.1221920457214543,-34.755789546513675,,0.0,,,36.61,,,0.0,0.0,20151018,31,2015-10-18T00:00:31Z,-17.0,99.99,99.99,3.75E7,0,0,0,0.0,0.0,0.0,0,0,0,0,0,0,,,,2170199,48,13,237,444,3533,3742,3743,0,14971,29,212,5,0,false,false,false,false,false,false,false,false,false,false,0,0,0,0,45,56,56,44,944,945,943,944,940,940,940,940,0.0,0.0,0.0,0.0,1579.1,1574.8,1574.8,1579.7,0.0,0.0,0.0,0.0,0,0,0,0,-45.0,2.052214328716771E-11,-1.7574385878346676E-11,0,55.82429,55.097645,0.06330692,-0.0034130309,-0.9789316,0.9809824,0.23566356,-0.047389653,-5.337019E-4,0.24038173,120,161,1482,1495.0,-8.237385E-4,9.4523194E-4,0.0013769865,0.0018622837,0.0012537976766401062,-0.0012262344729308619,0.18112789398416299,4.332643041988306,-35.993654650532186,324.00634534946784,1.1972863480541078,3.916874465586727,-1.0109477935311808,-34.010311115169635,,0.003856661737612768,,,36.61,NONE,0.0,0.0,0.0,NONE,2.6460796017049274E-11,-2.7805260981506455E-11,-3.8146973E-6,15.881,15.881,5.675,1.3057102,0,2393,3.962,12.0,1.314,65,24.4,OK,31,0,0,0,0,0,65,100,0.0,0,0.0,589232.0,2.69E-43,0.0,-5.9807744E7,62,1.15966424E-4,-1.1596691E-4,9.4E-44,False,False,0,None,0.0,1.0842022E-19,
136040433,35.356,0.0,0.0,0,55.848072,55.70923,0.064685285,-0.0031984667,-0.97663635,0.9787814,0.41050702,-0.011072821,0.0889294,0.42017502,123,164,1494,1507.0,-0.15254013,0.0931833,0.008724641,0.17896296,0.17875016412527378,-0.17875016412527378,0.16059380339769558,4.111276044606881,-36.66192333453333,323.3380766654667,1.4432885541136873,4.492395468617671,-1.153397717113743,-34.81315746988628,,0.0,,,36.96,,,0.0,0.0,20151018,33,2015-10-18T00:00:33Z,-17.0,99.99,99.99,3.75E7,0,0,0,0.0,0.0,0.0,0,0,0,0,0,0,,,,2170199,48,13,238,444,3533,3742,3743,0,14971,29,212,5,0,false,false,false,false,false,false,false,false,false,false,0,0,0,0,44,55,55,44,944,944,944,944,940,940,940,940,0.0,0.0,0.0,0.0,1580.3,1574.2,1574.2,1579.7,0.0,0.0,0.0,0.0,0,0,0,0,-45.0,7.079219162103326E-11,-3.4429806552120986E-11,0,55.80051,55.09448,0.06567816,-0.0031811325,-0.97779816,0.98000664,0.47537807,-0.09873283,0.15262018,0.50894535,123,161,1497,1510.0,-0.001522162,0.0031305698,0.0051295045,0.006199134,0.0034810119771102343,-0.0034751518126429383,0.2009778935418247,4.310687561163117,-35.963594720922956,324.03640527907703,1.2575124670925895,4.320020986434293,-1.0550577464460387,-33.51054615726239,,0.003881237304796561,,,36.91,NONE,0.0,0.0,0.0,NONE,-1.9561736470055715E-11,-1.2730913260173919E-11,-3.8146973E-6,15.881,15.881,5.677,1.3070757,0,2393,3.962,12.0,1.311,65,24.4,OK,32,0,0,0,0,0,65,100,0.0,0,0.0,589232.0,2.69E-43,0.0,-5.9807744E7,62,1.15966424E-4,-1.1596691E-4,9.4E-44,False,False,0,None,0.0,1.0842022E-19,
140039786,36.396,0.0,0.0,0,55.67368,55.620956,0.064974904,-0.0065105297,-0.9765533,0.97873414,0.46716654,0.30133438,0.012750062,0.55606616,120,164,1494,1507.0,-0.13009223,0.07616153,0.034991115,0.15475447,0.15074670425532213,-0.15074670425532213,0.17552740366017058,4.116576015500408,-36.65051356050362,323.3494864394964,1.5639186973862431,4.912286431699171,-1.238743931628881,-35.083460689349934,,0.0,,,37.29,,,0.0,0.0,20151018,33,2015-10-18T00:00:33Z,-17.0,99.99,99.99,3.75E7,0,0,0,0.0,0.0,0.0,0,0,0,0,0,0,,,,2170199,48,13,239,444,3533,3742,3743,0,14971,29,212,5,0,false,false,false,false,false,false,false,false,false,false,0,0,0,0,44,56,56,44,944,943,943,944,940,940,940,940,0.0,0.0,0.0,0.0,1579.1,1574.8,1574.2,1578.5,0.0,0.0,0.0,0.0,0,0,0,0,-45.0,1.6620593576046128E-10,-1.6215254055365866E-10,0,55.702744,55.085037,0.06511494,-2.4466263E-4,-0.97966224,0.98182386,0.7084285,-0.24432537,0.1704248,0.76851183,123,164,1497,1510.0,-0.007178835,0.0074612247,0.008442431,0.013359647,0.010354011089724528,-0.01033695586087525,0.23221131744062617,4.3474775603929405,-35.84984567858217,324.15015432141786,1.3628196321447497,4.720735081813586,-1.1157877112719379,-33.77079777486094,,0.003918317588979545,,,37.26,NONE,0.0,0.0,0.0,NONE,1.353306932165834E-10,-2.143070621560337E-10,3.8146973E-5,15.88,15.88,5.676,1.3082466,0,2392,3.961,12.0,1.307,65,24.4,OK,33,0,0,0,0,0,65,100,0.0,0,0.0,589232.0,2.69E-43,0.0,-5.9807744E7,62,1.15966424E-4,-1.1596691E-4,9.4E-44,False,False,0,None,0.0,1.0842022E-19,
144029937,37.433,0.0,0.0,0,55.718597,55.550903,0.06481587,-0.003092649,-0.9786106,0.98075956,0.34458733,-0.11212813,0.14560644,0.39053088,123,161,1491,1504.0,-0.17910022,0.107578166,0.035734624,0.21195969,0.2089257024240822,-0.2089257024240822,0.1756147511656363,4.123912765117177,-36.65918054979398,323.340819450206,1.717764557381814,5.325543201004007,-1.2641796950343658,-34.227649995975696,,0.0,,,37.59,,,0.0,0.0,20151018,35,2015-10-18T00:00:35Z,-17.0,99.99,99.99,3.75E7,0,0,0,0.0,0.0,0.0,0,0,0,0,0,0,,,,2170201,114,13,240,444,3533,3742,3743,0,14974,29,3555,4,0,false,false,false,false,false,false,false,false,false,false,0,0,0,0,44,57,57,45,944,944,943,944,940,940,940,940,0.0,0.0,0.0,0.0,1578.5,1574.2,1573.6,1579.1,0.0,0.0,0.0,0.0,0,0,0,0,-45.0,-1.3996945690444417E-11,-9.916295163750435E-12,0,55.797867,55.082085,0.06558993,-0.004968285,-0.9795479,0.98175395,0.49392363,-0.24585587,-0.012381885,0.5518686,123,161,1485,1498.0,-4.5035445E-4,-6.699052E-4,-0.0017029971,0.0018846197,8.072125688826469E-4,-7.819181128953959E-4,0.2218017171424492,4.30799899366144,-35.929212429118564,324.0707875708814,1.4949616939101986,5.140022605763714,-1.2489088530434045,-33.53474209628858,,0.003957663916241372,,,37.52,NONE,0.0,0.0,0.0,NONE,-9.187721950611362E-12,-5.964470133051433E-12,-3.8146973E-6,15.878,15.878,5.673,1.3082466,0,2392,3.962,12.0,1.307,65,24.4,OK,33,0,0,0,0,0,65,100,0.0,0,0.0,589232.0,2.69E-43,0.0,-5.9807744E7,62,1.15966424E-4,-1.1596691E-4,9.4E-44,False,False,0,None,0.0,1.0842022E-19,
147944361,38.450,0.0,0.0,0,55.55213,55.513184,0.06377246,-0.0047470313,-0.9778479,0.9799367,0.5425192,-0.19431391,0.24421659,0.6258808,123,158,1479,1492.0,-0.14893909,0.0949289,0.027426478,0.178736,0.1766192172110138,-0.1766192172110138,0.17259344155423537,4.128039505180367,-36.6795801226096,323.3204198773904,1.834761421431225,5.78723360700502,-1.3399921057575788,-33.820803874537695,,0.0,,,37.89,,,0.0,0.0,20151018,36,2015-10-18T00:00:36Z,-17.0,99.99,99.99,3.75E7,0,0,0,0.0,0.0,0.0,0,0,0,0,0,0,,,,2173961,16,13,241,445,3533,3745,3746,0,14982,26,1,17517,0,false,false,false,false,false,false,false,false,false,false,0,0,0,0,44,56,57,44,944,944,943,945,940,940,940,940,0.0,0.0,0.0,0.0,1578.5,1574.2,1574.8,1579.1,0.0,0.0,0.0,0.0,0,0,0,0,-45.0,2.601294612167505E-11,-4.2791764351155656E-11,0,55.6314,55.078964,0.0645416,-0.004201998,-0.9770623,0.97920066,0.50918525,-0.067053474,0.17847192,0.54370767,120,158,1479,1492.0,-0.0019323255,0.0011363258,0.0040269215,0.0046088193,0.002241677563424977,-0.0022360175908017867,0.21325823249640016,4.289192139943618,-35.98065755341174,324.01934244658827,1.619013938193129,5.536190737509873,-1.3650066779237375,-33.508109124220844,,0.003977319627253344,,,37.78,NONE,0.0,0.0,0.0,NONE,1.981474692446609E-11,-4.874845658295027E-11,7.6293945E-6,15.875,15.875,5.672,1.3098774,0,2391,3.961,12.0,1.315,65,24.5,OK,35,0,0,0,0,0,65,100,0.0,0,0.0,589232.0,2.69E-43,0.0,-5.9807744E7,62,1.15966424E-4,-1.1596691E-4,9.4E-44,False,False,0,None,0.0,1.0842022E-19,
151865977,39.469,0.0,0.0,0,55.64461,55.522373,0.06426759,-0.0035821614,-0.9785145,0.98062927,0.38155955,-0.06293283,0.20189378,0.43624458,120,164,1488,1501.0,-0.17803496,0.10183912,-2.945367E-4,0.20510422,0.2051040088122761,-0.2051040088122761,0.17263707548578475,4.128201306273776,-36.681197007061094,323.3188029929389,1.9701554710818183,6.205922187989792,-1.4475319332397356,-35.11491656010683,,0.0,,,38.17,,,0.0,0.0,20151018,37,2015-10-18T00:00:37Z,-17.0,99.99,99.99,3.75E7,0,0,0,0.0,0.0,0.0,0,0,0,0,0,0,,,,2173963,18,13,242,443,3532,3793,3794,3553,15176,26,1,15278,0,false,false,false,false,false,false,false,false,false,false,0,0,0,0,44,57,56,44,945,944,943,946,940,940,940,940,0.0,0.0,0.0,0.0,1579.1,1573.6,1574.8,1577.9,0.0,0.0,0.0,0.0,0,0,0,0,-45.0,9.112191404216596E-11,-1.281232632587739E-10,0,55.72388,55.069183,0.064692706,-0.0039694645,-0.9786007,0.9807447,0.43305916,-0.17086539,0.06689986,0.47033054,120,161,1494,1507.0,-0.005707115,0.004066206,0.0064531523,0.009526194,0.007007509842557759,-0.006995799773437835,0.18470569500631087,4.310167100545353,-35.94451673940264,324.0554832605974,1.7028561323772946,5.922619806238332,-1.4545867497636769,-33.95063288199085,,0.003998989093230354,,,38.2,NONE,0.0,0.0,0.0,NONE,1.6028689164827757E-10,-2.383262530604146E-10,4.196167E-5,15.873,15.873,5.672,1.3098774,0,2391,3.96,12.0,1.315,65,24.5,OK,35,0,0,0,0,0,65,100,0.0,0,0.0,589232.0,2.69E-43,0.0,-5.9807744E7,62,1.15966424E-4,-1.1596691E-4,9.4E-44,False,False,0,None,0.0,1.0842022E-19,
155795087,40.490,0.0,0.0,0,55.55213,55.593822,0.06406475,-0.0037716012,-0.9779596,0.98006296,0.383972,-0.10406875,0.062190834,0.4026568,120,158,1479,1492.0,0.0,0.0,-0.020086087,0.020086087,0.0,0.0,0.1728685734574608,4.113851513334738,-36.690729204728164,323.30927079527186,2.06038200312341,6.620353808838713,-1.4876634017847588,-34.211426079356634,,0.0,,,38.49,,,0.0,0.0,20151018,37,2015-10-18T00:00:37Z,-17.0,99.99,99.99,3.75E7,0,0,0,0.0,0.0,0.0,0,0,0,0,0,0,,,,2176836,19,92,243,3227,3532,4318,4329,-23,17344,30,1,17291,0,false,false,false,false,false,false,false,false,false,false,0,0,0,0,45,56,57,44,945,944,943,946,940,940,940,940,0.0,0.0,0.0,0.0,1577.9,1574.2,1572.3,1577.9,0.0,0.0,0.0,0.0,0,0,0,0,-45.0,3.056556470605637E-11,3.704402963059245E-12,0,55.546844,55.065083,0.06399061,-0.0028816974,-0.9785655,0.9806598,0.57641834,-0.18937239,0.2100283,0.6420529,120,158,1482,1495.0,1.691079E-4,0.0013931168,-2.2000552E-4,0.0014204838,0.0014033430982384814,-0.001387546168147217,0.16711505826517858,4.287564876641812,-36.00807603514207,323.99192396485796,1.8549758126874498,6.360539313310207,-1.5643310662980716,-33.6922793433415,,0.0040364911450504115,,,38.43,NONE,0.0,0.0,0.0,NONE,2.994686245292931E-11,-2.5740262279481038E-11,7.6293945E-6,15.872,15.872,5.671,1.3123326,0,2391,3.96,12.0,1.317,65,24.5,OK,37,0,0,0,0,0,65,100,0.0,0,0.0,589232.0,2.69E-43,0.0,-1.05007105E-23,62,1.15966424E-4,-1.1596691E-4,9.4E-44,False,False,0,None,0.0,1.0842022E-19,
159656636,41.494,0.0,0.0,0,55.75559,55.68662,0.065402515,-0.0031959235,-0.9779976,0.98018724,0.4366105,-0.07535976,0.11307746,0.45726833,120,161,1485,1498.0,-0.16581547,0.11092507,-0.03354731,0.20229821,0.19949722461454986,-0.19949722461454986,0.16940813726291942,4.107933196090455,-36.69435612725065,323.30564387274933,2.1619486623634385,7.057975314644216,-1.5898906966166253,-34.70798699286229,,0.0,,,38.8,,,0.0,0.0,20151018,39,2015-10-18T00:00:39Z,-17.0,99.99,99.99,3.75E7,0,0,0,0.0,0.0,0.0,0,0,0,0,0,0,,,,2177135,48,92,244,3227,3532,4292,4303,0,17173,29,212,5,0,false,false,false,false,false,false,false,false,false,false,0,0,0,0,45,58,57,45,945,944,944,945,940,940,940,940,0.0,0.0,0.0,0.0,1578.5,1573.6,1572.3,1579.1,0.0,0.0,0.0,0.0,0,0,0,0,-45.0,5.949141816939572E-10,-5.306601287131071E-10,0,55.763515,55.057957,0.06501938,-0.0038351761,-0.9783775,0.98054314,0.39805156,-0.1678444,0.098685555,0.44312033,120,161,1485,1498.0,-0.0046992125,0.005294615,0.011124643,0.013186099,0.007079233332910125,-0.006993122932016032,0.1642845413955458,4.291355946655219,-35.988985964277056,324.01101403572295,2.00135702365733,6.846526598956832,-1.63560548094181,-34.179257498831284,,0.0041383499156015255,,,38.77,NONE,0.0,0.0,0.0,NONE,-3.216388975873656E-12,1.977611892765885E-11,-7.6293945E-6,15.871,15.871,5.667,1.3123326,0,2391,3.959,12.0,1.317,65,24.5,OK,37,0,0,0,0,0,65,100,0.0,0,0.0,589232.0,2.69E-43,0.0,-1.05007105E-23,62,1.15966424E-4,-1.1596691E-4,9.4E-44,False,False,0,None,0.0,1.0842022E-19,
163523034,42.499,0.0,0.0,0,55.74766,55.739532,0.064544745,-0.0033922452,-0.9795045,0.9816347,0.39346632,-0.23717183,0.09209716,0.46855962,120,158,1488,1501.0,-0.19232939,0.11805768,-0.024443856,0.22699277,0.22567280009401736,-0.22567280009401736,0.16784021020379128,4.125543219048347,-36.705943700085,323.294056299915,2.2956920405839325,7.426675795418579,-1.7034445358462231,-34.11808519167036,,0.0,,,39.11,,,0.0,0.0,20151018,40,2015-10-18T00:00:40Z,-17.0,99.99,99.99,3.75E7,0,0,0,0.0,0.0,0.0,0,0,0,0,0,0,,,,2177135,48,92,245,3227,3532,4292,4303,0,17173,29,212,5,0,false,false,false,false,false,false,false,false,false,false,0,0,0,0,44,56,57,45,944,944,943,945,940,940,940,940,0.0,0.0,0.0,0.0,1577.9,1573.6,1573.6,1578.5,0.0,0.0,0.0,0.0,0,0,0,0,-45.0,1.4366337027592265E-10,-2.2281542863723785E-10,0,55.784657,55.0477,0.06405231,-0.0036703122,-0.9774386,0.97954196,0.29640225,-0.08024625,0.049260173,0.3109989,120,161,1491,1504.0,-0.0099535715,0.0064130505,0.011478198,0.0164909,0.011840642111705614,-0.011780194956677778,0.16324088771178863,4.3361173569496865,-35.95486727956834,324.04513272043164,2.0762292253294654,7.202191654052793,-1.701685844477083,-33.996823907755164,,0.004242149525807319,,,39.14,NONE,0.0,0.0,0.0,NONE,1.3832577242468876E-10,-2.146835397477887E-10,2.670288E-5,15.869,15.869,5.671,1.3138686,0,2390,3.959,12.0,1.323,65,24.5,OK,38,0,0,0,0,0,65,100,0.0,0,0.0,589232.0,2.69E-43,0.0,-1.05007105E-23,62,1.15966424E-4,-1.1596691E-4,9.4E-44,False,False,0,None,0.0,1.0842022E-19,
167455890,43.521,0.0,0.0,0,55.758232,55.71853,0.06421944,-0.0036130757,-0.97747225,0.97958624,0.3777265,-0.047379438,-0.025557654,0.38154334,120,161,1491,1504.0,0.0,0.0,0.008602036,0.008602036,0.0,0.0,0.16679427325039917,4.112070718050876,-36.725998140650354,323.27400185934965,2.3867704555824183,7.832553973474248,-1.848137834040076,-34.65310549501712,,0.0,,,39.37,,,0.0,0.0,20151018,41,2015-10-18T00:00:41Z,-17.0,99.99,99.99,3.75E7,0,0,0,0.0,0.0,0.0,0,0,0,0,0,0,,,,2177135,48,92,246,3227,3532,4292,4303,0,17173,29,212,5,0,false,false,false,false,false,false,false,false,false,false,0,0,0,0,45,57,57,46,945,944,943,945,940,940,940,940,0.0,0.0,0.0,0.0,1577.3,1571.7,1572.3,1578.5,0.0,0.0,0.0,0.0,0,0,0,0,-45.0,-4.0579443185112997E-11,-5.891540945326351E-11,0,55.980186,55.04942,0.064902134,-0.0038380448,-0.9784146,0.98057234,0.47297725,-0.04459326,0.14179428,0.4957839,120,161,1488,1501.0,-0.0026342394,-0.0018254002,9.478229E-4,0.0033421058,0.0032048873500346805,-0.0031780610521687557,0.14423818640919508,4.281944590275825,-36.00271229395583,323.9972877060442,2.213847286566749,7.559752796745043,-1.7944842162586467,-34.268713716818986,,0.004292661218382201,,,39.37,NONE,0.0,0.0,0.0,NONE,2.3438527843768587E-11,1.3869492834568754E-13,0.0,15.868,15.868,5.666,1.3153665,0,2390,3.959,12.0,1.318,65,24.5,OK,39,0,0,0,0,0,65,100,0.0,0,0.0,589232.0,2.69E-43,0.0,-1.05007105E-23,62,1.15966424E-4,-1.1596691E-4,9.4E-44,False,False,0,None,0.0,1.0842022E-19,
171356750,44.535,0.0,0.0,0,55.784657,55.74538,0.06417041,-0.0032756133,-0.98059446,0.98269737,0.38274544,-0.04203076,0.12442153,0.40464967,120,155,1476,1488.0,-0.1426341,0.094637185,-0.0052463626,0.1712548,0.17117442053848184,-0.17117442053848184,0.15392593812933783,4.114857808206163,-36.736195549959426,323.2638044500406,2.507023375867943,8.200282219257202,-1.9613698596705658,-33.79764743993723,,0.0,,,39.67,,,0.0,0.0,20151018,41,2015-10-18T00:00:41Z,-17.0,99.99,99.99,3.75E7,0,0,0,0.0,0.0,0.0,0,0,0,0,0,0,,,,2177135,48,92,247,3227,3532,4292,4303,0,17173,29,212,5,0,false,false,false,false,false,false,false,false,false,false,0,0,0,0,45,57,57,45,944,945,944,945,940,940,940,940,0.0,0.0,0.0,0.0,1577.3,1572.3,1571.7,1578.5,0.0,0.0,0.0,0.0,0,0,0,0,-45.0,8.974777577108244E-12,-8.746381932405327E-11,0,55.900917,55.04395,0.06457459,-0.0037347998,-0.9771196,0.9792582,0.44674334,0.05037799,-0.14662696,0.47288162,123,155,1470,1483.0,-0.0038951496,3.8993143E-4,0.004371496,0.005868067,0.003914618282954237,-0.003908345768278226,0.15458872655406666,4.261866083385832,-36.03043851703835,323.96956148296164,2.278283245920435,7.9468761272661,-1.7999425018846062,-33.07184016714063,,0.0043497044554539465,,,39.65,NONE,0.0,0.0,0.0,NONE,4.60660629606578E-11,-1.1693773349059603E-10,1.1444092E-5,15.867,15.867,5.665,1.31792,0,2389,3.959,12.0,1.325,65,24.5,OK,41,0,0,0,0,0,65,100,0.0,0,0.0,589232.0,2.69E-43,0.0,-1.05007105E-23,62,1.15966424E-4,-1.1596691E-4,9.4E-44,False,False,0,None,0.0,1.0842022E-19,
175208554,45.536,0.0,0.0,0,55.887707,55.749943,0.06417522,-0.0037019514,-0.97935754,0.9814649,0.34500167,-0.10141119,0.25828052,0.44274056,120,158,1476,1489.0,-0.1927439,0.124664426,-0.016032303,0.23010533,0.22954613883365438,-0.22954613883365438,0.15705382889351427,4.115439509418029,-36.74198660846772,323.2580133915323,2.644452463563512,8.619985622097136,-2.0395208892312633,-34.3046383429114,,0.0,,,40.01,,,0.0,0.0,20151018,42,2015-10-18T00:00:42Z,-17.0,99.99,99.99,3.75E7,0,0,0,0.0,0.0,0.0,0,0,0,0,0,0,,,,2177135,48,92,247,3227,3532,4292,4303,0,17173,29,212,5,0,false,false,false,false,false,false,false,false,false,false,0,0,0,0,47,56,57,47,944,945,943,945,940,940,940,940,0.0,0.0,0.0,0.0,1577.3,1572.9,1571.1,1577.3,0.0,0.0,0.0,0.0,0,0,0,0,-45.0,1.141434426665925E-10,-1.326702615756092E-10,0,55.848072,55.031067,0.064351454,-0.0029920023,-0.98094624,0.9830593,0.31203088,-0.15552044,-0.01735657,0.3490718,120,158,1482,1495.0,-0.0059114527,0.0051215757,0.007115695,0.010573974,0.007821496518355025,-0.007808781262387793,0.16363240959832354,4.310216290473724,-35.9816468567514,324.0183531432486,2.326252740562152,8.405280325569393,-1.8774262373349129,-33.641320030929606,,0.004389654657883887,,,40.0,NONE,0.0,0.0,0.0,NONE,1.400282824157746E-10,-1.874266533807676E-10,2.670288E-5,15.865,15.865,5.667,1.31792,0,2389,3.958,12.0,1.325,65,24.5,OK,41,0,0,0,0,0,65,100,0.0,0,0.0,589232.0,2.69E-43,0.0,-1.05007105E-23,62,1.15966424E-4,-1.1596691E-4,9.4E-44,False,False,0,None,0.0,1.0842022E-19,
179152016,46.561,0.0,0.0,0,55.911488,55.752476,0.064701475,-0.0034917947,-0.979279,0.9814203,0.3851294,0.03275343,0.045881215,0.38923326,123,158,1485,1498.0,0.0,0.0,-0.014280923,0.014280923,0.0,0.0,0.1504160299081394,4.104366065788238,-36.7609199102998,323.2390800897002,2.7213355900464924,9.037513059743159,-2.1518505567730473,-33.93773952487613,,0.0,,,40.33,,,0.0,0.0,20151018,43,2015-10-18T00:00:43Z,-17.0,99.99,99.99,3.75E7,0,0,0,0.0,0.0,0.0,0,0,0,0,0,0,,,,2177137,16,92,248,3227,3532,4292,4303,0,17173,29,1,17529,0,false,false,false,false,false,false,false,false,false,false,0,0,0,0,44,57,57,45,944,944,943,944,940,940,940,940,0.0,0.0,0.0,0.0,1576.7,1572.3,1571.1,1577.9,0.0,0.0,0.0,0.0,0,0,0,0,-45.0,-1.2400071736472167E-10,-3.216558929708959E-11,0,55.890347,55.0329,0.06424384,-0.004342002,-0.97873765,0.98085344,0.33026627,-0.0981914,0.117708676,0.36410534,123,161,1491,1504.0,-4.0938583E-4,-0.0011747914,-0.0026039938,0.0028859167,0.0012440786090760266,-0.0012160344966180407,0.16274635851257155,4.288617451492721,-36.05448065676741,323.9455193432326,2.366921775628354,8.83066454091774,-1.9516091195754357,-33.79823059970743,,0.004450121469303427,,,40.32,NONE,0.0,0.0,0.0,NONE,-1.3153468862736456E-11,-1.0489890601026383E-11,-1.1444092E-5,15.865,15.865,5.664,1.3192109,0,2389,3.958,12.0,1.326,65,24.5,OK,42,0,0,0,0,0,65,100,0.0,0,0.0,589232.0,2.69E-43,0.0,-1.05007105E-23,62,1.15966424E-4,-1.1596691E-4,9.4E-44,False,False,0,None,0.0,1.0842022E-19,
183080762,47.582,0.0,0.0,0,55.75295,55.763573,0.059836335,-0.004115792,-0.97917396,0.9810092,0.44018307,-0.042054754,-0.05568531,0.44567993,106,164,1482,1494.0,-0.09067683,0.035002444,0.007821303,0.09751221,0.09719803598919419,-0.09719803598919419,0.057568040178652226,4.074453945978735,-39.02758330195963,320.9724166980404,-0.06379228814229686,9.298870956931836,-2.3746592199402605,-37.59748031558023,,0.0,,,40.63,,,0.0,0.0,20151018,45,2015-10-18T00:00:45Z,-17.0,99.99,99.99,3.75E7,0,0,0,0.0,0.0,0.0,0,0,0,0,0,0,,,,2177138,18,92,249,3210,3520,4325,4335,2959,17303,29,1,17319,0,false,false,false,false,false,false,false,false,false,false,0,0,0,0,46,58,58,45,944,945,944,944,940,940,940,940,0.0,0.0,0.0,0.0,1577.9,1572.3,1572.3,1577.9,0.0,0.0,0.0,0.0,0,0,0,0,-45.0,4.038336210146954E-10,-7.282223680879044E-10,0,55.692173,54.995415,0.06646853,-0.0045791063,-0.97888297,0.98114777,0.50978816,-0.20052202,-0.014232053,0.54799235,106,161,1485,1497.0,-0.03242927,0.017913606,0.058748763,0.06945482,0.03704800833439077,-0.03695287688236254,0.1067329979219461,4.281283260355277,-38.32978998529786,321.67021001470215,-0.6806490004149264,9.380204092825917,-2.0370148919296205,-36.15110748922232,,0.005550438940672754,,,40.62,NONE,0.0,0.0,0.0,NONE,5.661785822057364E-11,-6.513145230579142E-11,1.5258789E-5,15.863,15.863,5.667,1.3212469,0,2388,3.958,12.0,1.36,65,24.5,OK,43,0,0,0,0,0,65,100,0.0,0,0.0,589232.0,2.69E-43,0.0,-1.05007105E-23,62,1.15966424E-4,-1.1596691E-4,9.4E-44,False,False,0,None,0.0,1.0842022E-19,
187037898,48.610,0.0,0.0,0,55.737095,55.72252,0.063050225,-0.0013617054,-0.9797453,0.98177296,0.28347805,-0.16303073,0.13435142,0.353538,109,164,1485,1497.0,-0.12232269,0.04644034,0.027089193,0.1336165,0.1308416881280381,-0.1308416881280381,0.07373629559647422,4.080139989543526,-39.05386022983963,320.94613977016036,0.007313805152332588,9.638267153912352,-2.461903688012728,-37.08981621851483,,0.0,,,40.91,,,0.0,0.0,20151018,46,2015-10-18T00:00:46Z,-17.0,99.99,99.99,3.75E7,0,0,0,0.0,0.0,0.0,0,0,0,0,0,0,,,,2178775,48,99,250,3501,3501,4386,4394,171,17544,27,212,17543,0,false,false,false,false,false,false,false,false,false,false,0,0,0,0,47,58,58,46,944,944,944,944,940,940,940,940,0.0,0.0,0.0,0.0,1578.5,1572.9,1572.3,1576.1,0.0,0.0,0.0,0.0,0,0,0,0,-45.0,7.041747545059946E-9,-1.3137786494031073E-8,0,55.715954,54.79789,0.064468585,-0.004795243,-0.98042935,0.98255837,0.25515217,-0.26112223,0.020938465,0.36568546,109,164,1485,1497.0,-0.1170819,0.06271469,0.19080363,0.23248082,0.1328205709249014,-0.13129896324632376,0.08798280123623933,4.343050132900359,-38.284354665732224,321.7156453342678,-0.5810206733973471,9.686480298727616,-2.170133927759391,-36.175255466326824,,0.0071158303572880525,151.62995756249833,151.62995756249833,40.93,NONE,0.0,0.0,0.0,NONE,9.294782684512083E-10,-1.8774289762970183E-9,3.7765503E-4,15.863,15.863,5.667,1.3242798,0,2388,3.958,12.0,1.325,65,24.5,OK,44,0,0,0,0,0,65,100,0.0,0,0.0,589232.0,2.69E-43,0.0,-1.05007105E-23,62,1.15966424E-4,-1.1596691E-4,9.4E-44,False,False,0,None,0.0,1.0842022E-19,
190952423,49.628,0.0,0.0,0,55.819004,55.72979,0.06723993,-0.003309762,-0.97862333,0.98093617,0.3657103,-0.15680292,0.045135144,0.40046018,106,161,1482,1494.0,-0.19784825,0.079974525,0.010302428,0.21364923,0.21340068470307436,-0.21340068470307436,0.07245690113508262,4.10804271739921,-39.08611797720351,320.9138820227965,0.09094266104766796,10.04249479946058,-2.5301627120571837,-36.90346456966585,,0.0,,,41.25,,,0.0,0.0,20151018,47,2015-10-18T00:00:47Z,-17.0,99.99,99.99,3.75E7,0,0,0,0.0,0.0,0.0,0,0,0,0,0,0,,,,2178775,48,99,251,3501,3501,4386,4394,171,17544,27,212,17543,0,false,false,false,false,false,false,false,false,false,false,0,0,0,0,46,57,58,46,944,944,944,944,940,940,940,940,0.0,0.0,0.0,0.0,1577.3,1572.9,1572.9,1577.3,0.0,0.0,0.0,0.0,0,0,0,0,-45.0,1.609520046298619E-10,-3.2444757758145487E-10,0,55.750305,54.87589,0.06246778,-0.0036707786,-0.97725517,0.9792565,0.33779818,0.008659863,0.12114648,0.35896945,106,161,1476,1488.0,-0.0031122859,0.0015621374,-0.0015400879,0.0038076853,0.0034823263244516366,-0.0018927184279863684,0.06729970472604256,4.367436339452313,-38.31617218741011,321.68382781258987,-0.5470981960643914,10.0831296970827,-2.3067691915507287,-36.13763248113588,,0.009076189834306376,,,41.24,NONE,0.0,0.0,0.0,NONE,1.4553738981918995E-10,-2.7407478101153493E-10,2.670288E-5,15.86,15.86,5.662,1.3268651,0,2387,3.957,12.0,1.319,65,24.5,OK,45,0,0,0,0,0,65,100,0.0,0,0.0,589232.0,2.69E-43,0.0,-1.05007105E-23,62,1.15966424E-4,-1.1596691E-4,9.4E-44,False,False,0,None,0.0,1.0842022E-19,
194984319,50.676,0.0,0.0,0,55.924698,56.079422,-0.07423148,-0.3370654,-0.81033826,0.8807789,-31.83838,46.817333,133.96788,145.44049,75,358,1372,1419.0,0.0,0.0,-0.30493003,0.30493003,0.0,0.0,20.48594554566214,14.218858383414606,-6.230524309201652,353.76947569079834,32.52295118994279,22.99060841399323,15.802249765464616,19.058639370696778,,0.0,,,41.57,0.6834568759765602,,0.0,0.0,20151018,48,2015-10-18T00:00:48Z,-17.0,99.99,99.99,3.75E7,0,0,0,0.0,0.0,0.0,0,0,0,0,0,0,,,,2178775,48,99,252,3501,3501,4386,4394,171,17544,27,212,17543,0,false,false,false,false,false,false,false,false,false,false,0,0,0,0,45,57,58,45,944,944,944,944,940,940,940,940,0.0,0.0,0.0,0.0,1576.7,1571.7,1572.3,1577.3,0.0,0.0,0.0,0.0,0,0,0,0,-45.0,2.139463086067033E-8,-7.271528115045939E-8,0,56.133442,55.25094,-0.05631593,-0.35808864,-0.8491196,0.9232568,-50.60893,38.417603,145.81694,159.05898,60,328,1384,1423.0,-0.6646852,0.18684152,-0.30157718,0.75343543,0.6904463489469916,-0.682440955769713,20.234102317153535,13.685303779281009,2.2606245835923415,2.260624583592346,39.57791192768881,22.386402157891208,21.462972860419587,23.536985364119598,,0.02565473522402158,-164.24181017852342,-164.24181017852342,41.59,NONE,0.0,0.0,0.0,NONE,1.6295501887696017E-8,-7.382583717240302E-9,-0.0014152527,15.861,15.861,5.666,1.3281323,0,2387,3.957,12.0,1.325,65,24.5,OK,46,0,0,0,0,0,65,100,0.0,0,0.0,589232.0,2.69E-43,0.0,-5.9807744E7,62,1.15966424E-4,-1.1596691E-4,9.4E-44,False,False,0,None,0.0,1.0842022E-19,
198851137,51.681,0.0,0.0,0,55.943195,56.06666,0.20944335,-0.409947,-0.7965363,0.91999626,-45.769573,14.128,44.13971,65.136536,-420,445,1319,1454.0,0.0,0.0,0.1544622,0.1544622,0.0,0.0,27.52884414641076,10.142938115936916,88.7907258548719,88.79072585487188,120.42673431399064,15.996174716904136,40.5646448727115,128.5324827540214,,0.0,,,41.9,0.7019543430175759,,0.0,0.0,20151018,49,2015-10-18T00:00:49Z,-17.0,99.99,99.99,3.75E7,0,0,0,0.0,0.0,0.0,0,0,0,0,0,0,,,,2178775,48,99,252,3501,3501,4386,4394,171,17544,27,212,17543,0,false,false,false,false,false,false,false,false,false,false,0,0,0,0,45,58,58,46,944,945,944,945,940,940,940,940,0.0,0.0,0.0,0.0,1577.3,1571.7,1571.1,1577.3,0.0,0.0,0.0,0.0,0,0,0,0,-45.0,2.9412589048835216E-9,-6.949334577311002E-10,0,56.14401,55.32339,0.23050654,-0.40482956,-0.84733504,0.9669524,-44.97567,12.030886,40.02077,61.393936,-428,426,1322,1453.0,-0.031665366,0.13326637,0.11180854,0.17681564,0.13697672075425535,-0.12875059873371675,25.203503142405907,9.27673648762127,92.42564738032954,92.42564738032956,130.021126433625,4.736169189950855,48.80194893906177,138.45746210272904,,0.05946865917858822,,,41.87,NONE,0.0,0.0,0.0,NONE,2.2720513284981963E-9,-3.1108238390295445E-10,2.708435E-4,15.86,15.86,5.663,1.3285125,0,2387,3.957,12.0,1.322,65,24.5,OK,47,0,0,0,0,0,65,100,0.0,0,0.0,589232.0,2.69E-43,0.0,-5.9807744E7,62,1.15966424E-4,-1.1596691E-4,9.4E-44,False,False,0,None,0.0,1.0842022E-19,
202782994,52.702,0.0,0.0,0,56.294624,55.904892,-0.110268936,-0.07957273,-0.99864525,1.0078608,-8.643979,1.4306052,-15.859749,18.118958,-322,41,1446,1481.0,0.0,0.0,-0.041996196,0.041996196,0.0,0.0,3.7460407662320296,-3.4656116434470774,124.72444597540479,124.72444597540482,154.24627443537972,-10.74424604595561,35.51849379968191,172.53557887657087,,0.0,,,42.18,1.053383328613279,,0.0,0.0,20151018,50,2015-10-18T00:00:50Z,-17.0,99.99,99.99,3.75E7,0,0,0,0.0,0.0,0.0,0,0,0,0,0,0,,,,2178776,19,100,254,3501,3501,4380,4389,132,17538,27,1,17543,0,false,false,false,false,false,false,false,false,false,false,0,0,0,0,46,57,58,44,943,944,944,944,940,940,940,940,0.0,0.0,0.0,0.0,1577.9,1571.1,1572.3,1577.9,0.0,0.0,0.0,0.0,0,0,0,0,-45.0,-2.751155148604874E-9,4.884999970242187E-10,0,55.943195,55.199337,-0.123138435,-0.11455351,-1.0590191,1.0722905,-21.065477,0.1253019,14.430583,25.53452,-334,102,1405,1447.0,0.022514295,-0.12359303,0.051255427,0.13568069,0.12562695125706097,-0.12499428728688303,5.780911016937078,-3.094817473099502,125.8975504163209,125.89755041632088,160.08125269108055,-17.25183823272321,45.11121684629773,174.41637843341618,,0.0633391191659206,,,42.07,NONE,0.0,0.0,0.0,NONE,-2.458942585048443E-9,1.925417065737792E-9,-6.484985E-5,15.857,15.857,5.666,1.3289361,0,2386,3.957,12.0,1.354,65,24.5,OK,48,0,0,0,0,0,65,100,0.0,0,0.0,589232.0,2.69E-43,0.0,-5.9807744E7,62,1.15966424E-4,-1.1596691E-4,9.4E-44,False,False,0,None,0.0,1.0842022E-19,
206694294,53.719,0.0,0.0,0,56.04096,56.033546,0.09988334,-0.11468859,-0.9127057,0.92529017,-2.5409384,-8.395742,5.3931227,10.297117,-340,-57,1479,1518.0,0.0,0.0,-0.13387637,0.13387637,0.0,0.0,7.01642327225264,3.2782887987870377,117.05163409852294,117.05163409852292,146.88237745857037,-7.162359234014809,41.80229417401332,137.1668698476264,,0.0,,,42.43,0.7997174045410134,,0.0,0.0,20151018,51,2015-10-18T00:00:51Z,-17.0,99.99,99.99,3.75E7,0,0,0,0.0,0.0,0.0,0,0,0,0,0,0,,,,2178777,114,100,255,3501,3501,4379,4387,0,17518,27,3533,676,0,false,false,false,false,false,false,false,false,false,false,0,0,0,0,45,58,58,46,943,944,944,944,940,940,940,940,0.0,0.0,0.0,0.0,1577.3,1571.1,1571.1,1576.7,0.0,0.0,0.0,0.0,0,0,0,0,-45.0,2.4986148387131936E-9,-2.052030250018063E-9,0,55.974903,55.171005,0.10600787,-0.09439231,-0.9384451,0.9491189,-2.6487691,-8.935059,6.066316,11.119867,-343,-63,1473,1513.0,-0.09233986,0.11263841,-0.02714443,0.1481583,0.1456504736873966,-0.14501250947007013,6.307656515994059,2.9771872209119534,118.12748126754212,118.12748126754212,154.67893838512842,-16.930652438526888,49.61566053645138,139.93261100491858,,0.06484274388860112,,,42.47,NONE,0.0,0.0,0.0,NONE,2.2751301229969836E-9,-1.900921017216285E-9,-8.773804E-5,15.86,15.86,5.665,1.3293132,0,2386,3.955,12.0,1.291,65,24.5,OK,49,0,0,0,0,0,65,100,0.0,0,0.0,589232.0,2.69E-43,0.0,-5.9807744E7,62,1.15966424E-4,-1.1596691E-4,9.4E-44,False,False,0,None,0.0,1.0842022E-19,
210543774,54.719,0.0,0.0,0,56.22064,56.169228,0.017801275,-0.0019991077,-0.9161995,0.9163746,-9.553562,19.498268,-3.8926785,22.059147,-53,-338,1485,1523.0,0.0,0.0,-0.1672917,0.1672917,0.0,0.0,2.7568075516097106,-0.9288367969671862,110.08791770661317,110.08791770661315,141.23400295435744,-12.430096408871465,37.77187993178804,100.63057563137578,,0.0,,,42.75,0.9793972751464821,,0.0,0.0,20151018,52,2015-10-18T00:00:52Z,-17.0,99.99,99.99,3.75E7,0,0,0,0.0,0.0,0.0,0,0,0,0,0,0,,,,2250214,48,100,256,3500,3514,4369,4377,0,17471,22,212,4,0,false,false,false,false,false,false,false,false,false,false,0,0,0,0,46,58,58,46,944,944,943,944,940,940,940,940,0.0,0.0,0.0,0.0,1576.7,1571.7,1571.7,1577.3,0.0,0.0,0.0,0.0,0,0,0,0,-45.0,8.07811531546115E-10,-3.5521796465740787E-10,0,56.014538,55.203968,-0.022894677,-0.03720955,-0.94983906,0.9508433,-7.5491033,12.526813,-29.228523,32.683582,-62,-301,1491,1522.0,-0.015978714,0.03653454,-0.067214556,0.07815298,0.0398759572669451,-0.039609723021878866,2.5406052155503063,-1.752343929404716,111.68559156117884,111.68559156117885,148.34566419038137,-20.260144753623738,43.013837167179126,106.27889220675804,,0.06790674627651098,,,42.77,NONE,0.0,0.0,0.0,NONE,5.747203985980927E-10,-1.1454501481026241E-9,-1.9073486E-4,15.858,15.858,5.662,1.3278228,0,2386,3.957,12.0,1.295,65,24.6,OK,50,0,0,0,0,0,65,100,0.0,0,0.0,589232.0,2.69E-43,0.0,-5.9807744E7,62,1.15966424E-4,-1.1596691E-4,9.4E-44,False,False,0,None,0.0,1.0842022E-19,
214393461,55.720,0.0,0.0,0,56.17572,55.980873,0.06835575,0.043142002,-0.91157347,0.9151502,-3.9343033,-5.160284,-2.0303338,6.79923,-171,-569,1431,1549.0,-0.10126212,0.10266191,0.11549645,0.18475094,0.14419946090014485,-0.14419946090014485,-4.478616906793285,3.645043538410431,114.12398721243623,114.12398721243625,144.53571534269804,-19.2574073769739,42.54689853004221,99.61047977987289,,0.0,,,43.08,0.9344792148437477,,0.0,0.0,20151018,53,2015-10-18T00:00:53Z,-17.0,99.99,99.99,3.75E7,0,0,0,0.0,0.0,0.0,0,0,0,0,0,0,,,,2250214,48,100,257,3500,3514,4369,4377,0,17471,22,212,4,0,false,false,false,false,false,false,false,false,false,false,0,0,0,0,46,58,59,45,944,945,943,944,940,940,940,940,0.0,0.0,0.0,0.0,1576.7,1571.1,1571.1,1576.1,0.0,0.0,0.0,0.0,0,0,0,0,-45.0,7.351997021266625E-9,-1.0191431670473262E-8,0,56.133442,55.23371,0.06424934,0.04659301,-0.9181694,0.9215931,-4.3713107,3.4990396,-2.52374,6.141734,-165,-560,1443,1556.0,-0.090106614,0.066555604,0.050386246,0.122831695,0.11202165348391721,-0.11070864235589231,-4.39049531311877,3.8714348536149505,115.08069221996045,115.08069221996044,151.36520262313672,-27.44828238662206,47.767062365933946,98.20560040223343,,0.07222931010552104,144.13784565724472,144.13784565724472,43.06,NONE,0.0,0.0,0.0,NONE,1.4374033456412653E-9,-2.051645387157467E-9,1.02996826E-4,15.857,15.857,5.663,1.3244911,0,2385,3.957,12.0,1.312,65,24.5,OK,51,0,0,0,0,0,65,100,0.0,0,0.0,589232.0,2.69E-43,0.0,-5.9807744E7,62,1.15966424E-4,-1.1596691E-4,9.4E-44,False,False,0,None,0.0,1.0842022E-19,
218408586,56.763,0.0,0.0,0,56.21271,56.01555,0.08089109,0.13785811,-0.95484346,0.9681293,1.5377705,5.0388813,2.4204218,5.7977157,-185,-628,1425,1568.0,-0.060437806,0.042812802,0.06717615,0.09999149,0.07406526933594869,-0.07406526933594869,-6.200143921081559,4.9109443591956286,113.468598407077,113.46859840707702,143.8423078723906,-20.32471581235129,43.680417114770705,96.93723511994108,,0.0,,,43.41,0.9714703342285134,,0.0,0.0,20151018,54,2015-10-18T00:00:54Z,-17.0,99.99,99.99,3.75E7,0,0,0,0.0,0.0,0.0,0,0,0,0,0,0,,,,2250214,48,100,258,3500,3514,4369,4377,0,17471,22,212,4,0,false,false,false,false,false,false,false,false,false,false,0,0,0,0,46,60,59,47,943,945,944,944,940,940,940,940,0.0,0.0,0.0,0.0,1577.3,1569.3,1569.9,1576.7,0.0,0.0,0.0,0.0,0,0,0,0,-45.0,-5.598621411101734E-10,-1.2640837146364295E-8,0,56.080593,55.082012,0.07973019,0.104314804,-0.93614006,0.9453024,2.6853278,3.9979343,2.4079697,5.384495,-188,-628,1425,1568.0,-0.11321814,-0.00563639,0.1573844,0.19395867,0.11335835627933472,-0.11247580491275182,-5.971587532106914,5.388940314728293,114.47658795878601,114.47658795878601,150.74344942506687,-29.100694865969473,49.3517926647035,95.74568149428157,,0.07846311635139626,-175.52138779715392,-175.52138779715392,43.39,NONE,0.0,0.0,0.0,NONE,4.013739675025752E-10,-2.0208580248078635E-9,2.746582E-4,15.855,15.855,5.662,1.3212304,0,2385,3.956,12.0,1.323,65,24.5,OK,52,0,0,0,0,0,65,100,0.0,0,0.0,589232.0,2.69E-43,0.0,-5.9807744E7,62,1.15966424E-4,-1.1596691E-4,9.4E-44,False,False,0,None,0.0,1.0842022E-19,
222289071,57.772,0.0,0.0,0,56.16779,55.961384,0.06969256,0.15429689,-0.9145244,0.9300642,-2.1132905,4.54647,-7.750142,9.230444,-162,-625,1425,1564.0,0.0,0.0,0.12320178,0.12320178,0.0,0.0,-6.738035988474896,3.211708645726625,114.72935754332154,114.72935754332156,144.90188622296344,-20.42009056049923,42.039096347692805,99.8026031950344,,0.0,,,43.68,0.9265484592285134,,0.0,0.0,20151018,55,2015-10-18T00:00:55Z,-17.0,99.99,99.99,3.75E7,0,0,0,0.0,0.0,0.0,0,0,0,0,0,0,,,,2250214,48,100,259,3500,3514,4369,4377,0,17471,22,212,4,0,false,false,false,false,false,false,false,false,false,false,0,0,0,0,46,59,59,46,943,944,944,944,940,940,940,940,0.0,0.0,0.0,0.0,1577.3,1571.1,1571.1,1576.1,0.0,0.0,0.0,0.0,0,0,0,0,-45.0,-1.8621565901588046E-10,-2.204595292527972E-9,0,56.265556,54.877804,0.054739963,0.15807723,-0.87219435,0.8880923,-2.4563084,3.7486756,-16.33808,16.941631,-159,-631,1428,1569.0,-0.09967183,-0.009034765,0.28532326,0.30236644,0.10008047468150373,-0.09892908463266928,-6.746672646847465,3.627764579194503,114.99839962547601,114.998399625476,151.31861471695237,-29.541188871662282,47.1811015727256,97.97198515457164,,0.08380546439156403,,,43.69,NONE,0.0,0.0,0.0,NONE,3.002398856556219E-10,-1.411292693866458E-9,5.302429E-4,15.854,15.854,5.663,1.3192612,0,2384,3.956,12.0,1.333,65,24.6,OK,53,0,0,0,0,0,65,100,0.0,0,0.0,589232.0,2.69E-43,0.0,-5.9807744E7,62,1.15966424E-4,-1.1596691E-4,9.4E-44,False,False,0,None,0.0,1.0842022E-19,
226192050,58.786,0.0,0.0,0,56.093807,55.681736,0.1749713,0.035754614,-1.0513252,1.0663855,5.404494,-2.6307478,-20.183056,21.059088,155,-659,1668,1800.0,-0.42661533,-0.09147978,0.09566143,0.44667697,0.43631317741451836,-0.43631317741451836,-4.642565761338887,4.752462421577642,69.25516576678298,69.25516576678297,98.77073885337664,-17.445411383662268,47.41700048789364,60.38446186941653,,0.0,,,43.97,1.0250092204589833,,0.0,0.0,20151018,56,2015-10-18T00:00:56Z,-17.0,99.99,99.99,3.75E7,0,0,0,0.0,0.0,0.0,0,0,0,0,0,0,,,,2250216,114,100,260,3500,3514,4369,4377,0,17471,22,3501,6,0,false,false,false,false,false,false,false,false,false,false,0,0,0,0,47,57,59,47,944,944,943,944,940,940,940,940,0.0,0.0,0.0,0.0,1576.1,1571.1,1571.1,1576.1,0.0,0.0,0.0,0.0,0,0,0,0,-45.0,-3.5280353217202486E-9,-6.308204525312102E-9,0,55.980186,54.558598,0.14954095,0.06625956,-1.0618125,1.0743364,1.4577101,1.8709055,-4.3189507,4.927326,160,-668,1659,1795.0,-0.27951226,-0.15585014,0.1023939,0.33600727,0.3200255713825535,-0.3194454403391438,-4.611974349088905,4.716779795798379,69.43174730733615,69.43174730733614,106.40007567924764,-27.13037174182886,53.73360252716306,60.613230231137976,,0.0941485118434535,,,43.97,NONE,0.0,0.0,0.0,NONE,3.225816826517233E-9,-1.5275536915643908E-8,0.003200531,15.853,15.853,5.663,1.3186803,0,2384,3.955,12.0,1.322,65,24.6,OK,54,0,0,0,0,0,65,100,0.0,0,0.0,589232.0,2.69E-43,0.0,-5.9807744E7,62,1.15966424E-4,-1.1596691E-4,9.4E-44,False,False,0,None,0.0,1.0842022E-19,
230045864,59.788,0.0,0.0,0,56.204784,55.8132,0.05978561,0.08120106,-0.95602787,0.961331,-2.9689932,-2.4051952,3.6132648,5.2588563,189,-628,1618,1745.0,-0.08651794,-0.1074339,-0.029659683,0.14109251,0.13793983121837008,-0.13793983121837008,-3.5012690832442583,4.6447356004573015,65.76431354294834,65.76431354294834,95.39593524353909,-15.478035143868176,47.330342568872034,58.60320605161235,,0.0,,,44.3,1.1359863933105458,,0.0,0.0,20151018,57,2015-10-18T00:00:57Z,-17.0,99.99,99.99,3.75E7,0,0,0,0.0,0.0,0.0,0,0,0,0,0,0,,,,2289928,16,100,261,3491,3513,4325,4343,-1376,17436,22,0,17186,0,false,false,false,false,false,false,false,false,false,false,0,0,0,0,45,59,59,47,944,944,944,944,940,940,940,940,0.0,0.0,0.0,0.0,1576.7,1571.1,1571.7,1576.1,0.0,0.0,0.0,0.0,0,0,0,0,-45.0,-1.1542598220038607E-9,-1.1672440737415825E-9,0,56.017178,54.470657,0.07072132,0.0764467,-0.95017487,0.95586497,-3.4098005,-6.645888,5.987962,9.573414,189,-631,1618,1746.0,-0.052294243,-0.051260475,0.10840468,0.1308201,0.07322789370613783,-0.07259924763965116,-3.7818580360079914,4.260958280528326,66.65719773506206,66.65719773506203,103.73807369096876,-25.463895002863534,53.438240798052306,59.215383780077936,,0.0949278159796499,,,44.28,NONE,0.0,0.0,0.0,NONE,-9.675275398028633E-10,-9.137165172515696E-10,2.2125244E-4,15.853,15.853,5.661,1.3188155,0,2384,3.955,12.0,1.323,65,24.6,OK,55,0,0,0,0,0,65,100,0.0,0,0.0,589232.0,2.69E-43,0.0,-5.9807744E7,62,1.15966424E-4,-1.1596691E-4,9.4E-44,False,False,0,None,0.0,1.0842022E-19,mcID(SN)|298DG13001W644
233902618,60.790,0.0,0.0,0,55.953762,55.87806,0.054367296,0.051436253,-0.96702707,0.96991897,2.5584476,-3.310694,-0.27648386,4.193184,215,-646,1603,1741.0,-0.071573764,-0.059121348,0.029983046,0.09755573,0.09283392089037724,-0.09283392089037724,-3.56073746376331,3.19867096085668,67.24920502846466,67.24920502846464,96.93920009834008,-15.264869475672368,45.52744046667903,60.68193665451904,,0.0,,,44.6,0.8849640544433583,,0.0,0.0,20151018,58,2015-10-18T00:00:58Z,-17.0,99.99,99.99,3.75E7,0,0,0,0.0,0.0,0.0,0,0,0,0,0,0,,,,2289928,20,100,262,3491,3513,4325,4343,-1376,17436,22,2,17186,0,false,false,false,false,false,false,false,false,false,false,0,0,0,0,46,58,58,47,944,944,943,944,940,940,940,940,0.0,0.0,0.0,0.0,1576.1,1571.7,1571.1,1576.1,0.0,0.0,0.0,0.0,0,0,0,0,-45.0,2.7146456684450847E-10,-8.210866139172659E-10,0,55.900917,54.35928,0.039142277,0.07190116,-0.9876674,0.99105436,1.7540145,-0.744106,-0.37393016,1.9416705,218,-643,1603,1740.0,-0.036910415,0.012065593,0.13501841,0.14049174,0.0388324250223448,-0.03866966890059619,-3.4645847523026414,2.954514700517142,67.78155948744124,67.78155948744126,105.00934136042049,-24.99813355516032,52.25077765267366,60.990883984670084,,0.09518197466353909,,,44.57,NONE,0.0,0.0,0.0,NONE,2.0252755816976207E-10,-9.204094447952967E-10,3.2806396E-4,15.848,15.848,5.662,1.3197002,0,2383,3.955,12.0,1.347,65,24.6,OK,56,0,0,0,0,0,65,100,0.0,0,0.0,589232.0,2.69E-43,0.0,-1.05007105E-23,62,1.15966424E-4,-1.1596691E-4,9.4E-44,False,False,0,None,0.0,1.0842022E-19,mcVer|v3.4.1.6
237800233,61.803,0.0,0.0,0,55.90356,55.831173,0.048117276,0.07645431,-0.97049934,0.97469455,-0.013842476,-1.757616,1.9835736,2.6502774,215,-634,1609,1742.0,-0.053716615,-0.024498817,0.075917765,0.09617262,0.05903953608201408,-0.05903953608201408,-3.324310595510991,3.167705807704924,68.21518356844017,68.21518356844018,98.01698667607323,-14.564457030300126,45.117509363035396,60.48744263416288,,0.0,,,44.89,0.8347626384277333,,0.0,0.0,20151018,59,2015-10-18T00:00:59Z,-17.0,99.99,99.99,3.75E7,0,0,0,0.0,0.0,0.0,0,0,0,0,0,0,,,,2289929,114,100,263,3490,3513,4282,4304,-2908,17117,22,3514,17309,0,false,false,false,false,false,false,false,false,false,false,0,0,0,0,47,59,58,46,944,945,944,944,940,940,940,940,0.0,0.0,0.0,0.0,1576.1,1569.3,1571.1,1576.1,0.0,0.0,0.0,0.0,0,0,0,0,-45.0,6.049055206511492E-10,-1.590236243712249E-10,0,56.01982,54.26408,0.05699051,0.07038415,-0.9663418,0.9705763,0.5439664,0.3564993,0.44694003,0.78914297,215,-634,1612,1745.0,-0.0072714,0.027112316,0.15193179,0.15450314,0.028070464798097168,-0.02798909276904685,-3.25840657227426,3.113855814723906,68.60889940542634,68.60889940542631,106.0767346765655,-24.454421951817004,52.321479761013755,60.67816960530657,,0.0953919770900929,,,44.9,NONE,0.0,0.0,0.0,NONE,1.11410237601221E-9,-7.889606396991428E-10,0.0010643005,15.847,15.847,5.661,1.3223001,0,2383,3.954,12.0,1.363,65,24.6,OK,57,0,0,0,0,0,65,100,0.0,0,0.0,589232.0,2.69E-43,0.0,-1.05007105E-23,62,1.15966424E-4,-1.1596691E-4,9.4E-44,False,False,0,None,0.0,1.0842022E-19,
