Tick#,offsetTime,IMU_ATTI(0):Longitude,IMU_ATTI(0):Latitude,IMU_ATTI(0):numSats,IMU_ATTI(0):barometer:Raw,IMU_ATTI(0):barometer:Smooth,IMU_ATTI(0):accel:X,IMU_ATTI(0):accel:Y,IMU_ATTI(0):accel:Z,IMU_ATTI(0):accel:Composite,IMU_ATTI(0):gyro:X,IMU_ATTI(0):gyro:Y,IMU_ATTI(0):gyro:Z,IMU_ATTI(0):gyro:Composite,IMU_ATTI(0):mag:X,IMU_ATTI(0):mag:Y,IMU_ATTI(0):mag:Z,IMU_ATTI(0):mag:Mod,IMU_ATTI(0):velN,IMU_ATTI(0):velE,IMU_ATTI(0):velD,IMU_ATTI(0):velComposite,IMU_ATTI(0):velH,IMU_ATTI(0):GPS-H,IMU_ATTI(0):roll,IMU_ATTI(0):pitch,IMU_ATTI(0):yaw,IMU_ATTI(0):yaw360,IMU_ATTI(0):totalGyro:Z,IMU_ATTI(0):totalGyro:X,IMU_ATTI(0):totalGyro:Y,IMU_ATTI(0):magYaw,IMU_ATTI(0):distanceHP,IMU_ATTI(0):distanceTravelled,IMU_ATTI(0):directionOfTravel[mag],IMU_ATTI(0):directionOfTravel[true],IMU_ATTI(0):temperature,General:relativeHeight,General:absoluteHeight,GPS(0):Long,GPS(0):Lat,GPS(0):Date,GPS(0):Time,GPS:dateTimeStamp,GPS(0):heightMSL,GPS(0):hDOP,GPS(0):pDOP,GPS(0):sAcc,GPS(0):numGPS,GPS(0):numGLNAS,GPS(0):numSV,GPS(0):velN,GPS(0):velE,GPS(0):velD,RC:Aileron,RC:Elevator,RC:Rudder,RC:Throttle,Controller:navHealth,Controller:ctrl_level,HP:Longitude,HP:Latitude,HP:rthHeight,BatBlackBox:tick,BatBlackBox:id,BatBlackBox:rsoc,BatBlackBox:index,BatBlackBox:rm,BatBlackBox:fcc,BatBlackBox:cell_min,BatBlackBox:cell_max,BatBlackBox:current,BatBlackBox:voltage,BatBlackBox:temp,BatBlackBox:flag,BatBlackBox:reserve,BatBlackBox:user_data,OA:avoidObst,OA:emergBrake,OA:radiusLimit,OA:airportLimit,OA:groundForceLanding,OA:horizNearBoundary,OA:vertLowLimit,OA:vertAirportLimit,OA:roofLimit,OA:hitGroundLimit,Motor:Speed:RFront,Motor:Speed:LFront,Motor:Speed:LBack,Motor:Speed:RBack,Motor:EscTemp:RFront,Motor:EscTemp:LFront,Motor:EscTemp:LBack,Motor:EscTemp:RBack,Motor:PPMrecv:RFront,Motor:PPMrecv:LFront,Motor:PPMrecv:LBack,Motor:PPMrecv:RBack,Motor:PPMsend:RFront,Motor:PPMsend:LFront,Motor:PPMsend:LBack,Motor:PPMsend:RBack,Motor:V_out:RFront,Motor:V_out:LFront,Motor:V_out:LBack,Motor:V_out:RBack,Motor:Volts:RFront,Motor:Volts:LFront,Motor:Volts:LBack,Motor:Volts:RBack,Motor:Current:RFront,Motor:Current:LFront,Motor:Current:LBack,Motor:Current:RBack,Motor:Status:RFront,Motor:Status:LFront,Motor:Status:LBack,Motor:Status:RBack,Motor:thrustAngle,IMU_ATTI(1):Longitude,IMU_ATTI(1):Latitude,IMU_ATTI(1):numSats,IMU_ATTI(1):barometer:Raw,IMU_ATTI(1):barometer:Smooth,IMU_ATTI(1):accel:X,IMU_ATTI(1):accel:Y,IMU_ATTI(1):accel:Z,IMU_ATTI(1):accel:Composite,IMU_ATTI(1):gyro:X,IMU_ATTI(1):gyro:Y,IMU_ATTI(1):gyro:Z,IMU_ATTI(1):gyro:Composite,IMU_ATTI(1):mag:X,IMU_ATTI(1):mag:Y,IMU_ATTI(1):mag:Z,IMU_ATTI(1):mag:Mod,IMU_ATTI(1):velN,IMU_ATTI(1):velE,IMU_ATTI(1):velD,IMU_ATTI(1):velComposite,IMU_ATTI(1):velH,IMU_ATTI(1):GPS-H,IMU_ATTI(1):roll,IMU_ATTI(1):pitch,IMU_ATTI(1):yaw,IMU_ATTI(1):yaw360,IMU_ATTI(1):totalGyro:Z,IMU_ATTI(1):totalGyro:X,IMU_ATTI(1):totalGyro:Y,IMU_ATTI(1):magYaw,IMU_ATTI(1):distanceHP,IMU_ATTI(1):distanceTravelled,IMU_ATTI(1):directionOfTravel[mag],IMU_ATTI(1):directionOfTravel[true],IMU_ATTI(1):temperature,IMUEX(0):err,IMUEX(0):rtk_Longitude,IMUEX(0):rtk_Latitude,IMUEX(0):rtk_Alti,IMUEX(1):err,IMUEX(1):rtk_Longitude,IMUEX(1):rtk_Latitude,IMUEX(1):rtk_Alti,MotorCtrl:Status,MotorCtrl:PWM:RFront,MotorCtrl:PWM:LFront,MotorCtrl:PWM:LBack,MotorCtrl:PWM:RBack,BattInfo:Voltage,BattInfo:BatVoltage,BattInfo:AdVoltage,BattInfo:AvgCurrent,BattInfo:R_time,BattInfo:R_CAP_MAH,BattInfo:LowCellVoltage,BattInfo:LowCellVolThreshold,BattInfo:BatCurrent,BattInfo:Remaining%,BattInfo:Temp,BattInfo:status,battery_info:BatDynCnt,battery_info:Vol1Protect,battery_info:Vol2Protect,battery_info:Cap1Protect,battery_info:Cap2Protect,battery_info:Batpresent,battery_info:sopPercentage,battery_info:sopValue,battery_info:sopScale,battery_info:sopFlg,BattInfo:WindHeading:WindDir,battery_info:home_dir,BattInfo:Wind:rangeMin,BattInfo:Wind:rangeMax,battery_info:cap_speed,battery_info:against_wind,battery_info:emergency_land_cap,battery_info:intel_bat_land_cap,battery_info:intel_bat_gh_cap,BattInfo:Smart:SmartGh,BattInfo:Smart:SmartLand,BattInfo:GoHome:CntDown,BattInfo:GoHome:GhCmd,BattInfo:GoHome:CapLevel,BattInfo:GoHome:LandCapLv,Attribute|Value,ConvertDatV3,3.6.6-Tablet
418635860,.000,10.405691560237326,63.41958390572839,13,50.08517,50.428947,0.06783175,-0.0078622075,-0.99752563,0.99986017,0.430702,-0.15115574,-0.07644429,0.46281314,-253,-392,1477,1548.0,-0.052605603,0.003956439,-0.040275473,0.06637105,0.052754173271071174,-0.052754173271071174,0.5712562148422559,3.8730693918873325,115.81118201010447,115.81118201010446,1.888112465475315,33.21122073180769,-5.701914154495713,110.60670163330558,1.8660528121387567,7.489237343578128,-73.29337336151946,-70.13525681767936,63.58,,,10.4056921,63.4195839,20190906,72420,2019-09-06T07:24:20Z,34.052,0.86,1.64,9.24,8,5,13,0.0,0.0,0.0,-9998,-9998,9996,-9998,4,4,10.405678658207616,63.41959966330362,60,11623554,20,84,456,2942,3518,4181,4203,-613,16755,25,2,16132,0,false,false,false,false,false,false,false,false,false,false,0,0,0,0,48,63,63,48,943,945,944,944,940,940,940,940,0.0,0.0,0.0,0.0,1653.9,1648.4,1650.8,1653.3,0.0,0.0,0.0,0.0,0,0,0,0,-45.0,10.405691219131509,63.41958363284278,0,50.08517,50.317352,0.06783175,-0.0078622075,-0.99752563,0.99986017,0.430702,-0.15115574,-0.07644429,0.46281314,-253,-392,1477,1548.0,5.398207E-4,-7.70726E-4,-0.002162323,0.0023581914,9.409702038271497E-4,-9.409702038271497E-4,0.3582413774269776,4.028081930303888,111.8719854670587,111.87198546705872,1.508410420111679,32.01645104854854,-5.282715363072309,110.34750790179939,1.888890167429334,7104263.376724628,-25.12587602624143,-21.967759482401338,63.58,NONE,0.0,0.0,0.0,NONE,-1.4060328891291832E-11,3.2126004603098113E-12,0.0,,,,,,16.637,16.637,5.938,1.4002446,0,2898,4.142,12.0,1.397,83,26.0,OK,103,0,0,0,0,0,65,100,0.0,0,0.0,-1.632344E-9,2.66E-43,0.0,-5.9807744E7,62,3.026841E-10,-3.0268596E-10,4.7066986E-35,False,False,0,None,1.60932205E32,1.0842106E-19,Firmware Date| Oct 17 2018
422489796,1.002,10.405691144588905,63.41958433578091,13,50.32483,50.43171,0.0681431,-0.008955985,-0.9966739,0.9990408,0.7648513,-0.098868735,0.011819302,0.77130556,-255,-392,1465,1537.0,-0.05399699,0.00309347,-0.036409892,0.06519912,0.05408553064968298,-0.0020699412920492724,0.6005800268005499,3.8822168235234544,115.79054982792913,115.79054982792911,1.8616917364048946,33.68374161748261,-5.77305284562679,110.89556251346802,1.8140399538713305,7.545654649403628,0.4542901783947286,3.6124067222348204,63.91,-0.23152589843750349,,10.4056919,63.4195842,20190906,72421,2019-09-06T07:24:21Z,34.065,0.86,1.64,9.25,8,5,13,-0.01,0.01,0.01,0,0,0,0,4,4,10.405678658207616,63.41959966330362,60,11623554,20,84,456,2942,3518,4181,4203,-613,16755,25,2,16132,0,false,false,false,false,false,false,false,false,false,false,517,524,512,535,54,67,68,54,1350,1359,1355,1354,1342,1342,1342,1342,0.1,0.1,0.1,0.1,1627.6,1622.0,1622.0,1625.7,7.77,7.26,7.88,7.42,0,0,0,0,-69.44395478041656,10.405690905942457,63.41958383174634,0,50.32483,50.320103,0.0681431,-0.008955985,-0.9966739,0.9990408,0.7648513,-0.098868735,0.011819302,0.77130556,-255,-392,1465,1537.0,0.0015074363,0.0029957837,-0.0027890925,0.0043618944,0.003353667295742761,0.02365771097710365,0.3784525997616407,4.02436769871416,111.8559570802712,111.8559570802712,1.4819819451475207,32.488969616609694,-5.353850159155083,110.69534689751158,1.8628777128200975,7104263.441240336,-149.72128864457977,-146.56317210073968,63.91,NONE,0.0,0.0,0.0,NONE,1.1068769640777144E-10,-3.212600459635397E-12,-3.8146973E-6,1,22.5,22.5,22.5,22.5,16.627,16.627,5.84,1.3995495,0,2898,4.143,12.0,1.399,83,26.0,OK,104,0,0,0,0,0,65,100,0.0,0,0.0,-1.040803E-10,2.66E-43,0.0,-5.9807744E7,62,3.026841E-10,-3.0268596E-10,4.7158822E-35,False,False,0,None,1.6149423E32,1.0842106E-19,ACType|MavicEnterprise
426389130,2.015,10.405690579701941,63.41958454920722,13,50.32483,50.432648,0.07024284,-0.0063498677,-0.9941099,0.99660873,-1.1750783,-1.4190185,0.38645452,1.8824903,-253,-386,1446,1517.0,-0.05913922,0.002000299,-0.027417097,0.06521615,0.059173037057742316,-0.022875159235460983,0.5916940235911277,3.8717734792490406,115.72137283617327,115.72137283617326,0.9190158869925016,33.76638166170803,-5.622518927424495,111.14457940807637,1.7822115111315187,7.588774838136751,-88.20859820327931,-85.05048165943921,64.24,-0.23152589843750349,,10.4056914,63.4195844,20190906,72422,2019-09-06T07:24:22Z,34.032,0.86,1.64,9.24,8,5,13,0.0,0.0,0.01,0,0,0,0,4,4,10.405678658207616,63.41959966330362,60,11623554,20,84,456,2942,3518,4181,4203,-613,16755,25,2,16132,0,false,false,false,false,false,false,false,false,false,false,2001,1984,2049,2065,53,67,67,53,1204,1206,1206,1206,1202,1200,1211,1213,0.0,0.0,0.0,0.0,1648.4,1642.9,1642.9,1648.4,0.53,0.22,0.76,0.31,0,0,0,0,-14.34933204294714,10.405690490004114,63.41958414923637,0,50.32483,50.340096,0.0667932,-0.0078705195,-1.0003335,1.0025918,2.301424,-0.13276222,-1.0150478,2.518829,-253,-386,1453,1524.0,0.0023786563,0.00472439,-0.016527634,0.017353402,0.0052894106573419305,0.03509055796048063,0.37022767984534355,4.056317135926938,111.79242269982242,111.7924226998224,0.5706608618773901,32.515356739094784,-5.1259099664570345,110.74590044943204,1.8227646386802137,7104263.510298666,-19.015812524003625,-15.857695980163534,64.21,NONE,0.0,0.0,0.0,NONE,2.0940915697446628E-10,5.514964106083219E-11,-4.196167E-5,2,10.11,10.0,11.22,11.37,16.415,16.415,5.92,1.4773242,0,2897,4.143,12.0,5.298,83,26.0,OK,105,0,0,0,0,0,65,100,0.0,0,0.0,-5.2347016E-12,2.66E-43,0.0,-3.3654391E38,62,3.026841E-10,-3.0268596E-10,4.4261963E-35,False,False,0,None,1.4370998E32,1.0842106E-19,dateTime|2019-9-6 7:22:40 GMT
430332552,3.040,10.405689995891517,63.41958467637485,13,50.32483,50.423332,0.0688199,-0.0076902052,-0.99511594,0.9975225,0.40505317,-1.4260405,1.2309957,1.9269172,-255,-383,1440,1511.0,-0.07188731,-0.00214267,-0.021249864,0.07499289,0.07191923286069195,-0.040397205172421805,0.6229165927479334,3.86930657992604,115.6588153792471,115.65881537924713,0.9276980642912434,34.29985684950521,-5.645343975152313,111.56311907561354,1.7593561128596742,7.636659941666934,-12.168886179466895,-9.010769635626803,64.44,-0.23152589843750349,,10.4056909,63.4195846,20190906,72423,2019-09-06T07:24:23Z,33.986,0.86,1.64,9.23,8,5,13,0.0,-0.01,0.01,0,0,0,0,4,4,10.405678658207616,63.41959966330362,60,11623554,20,84,456,2942,3518,4181,4203,-613,16755,25,2,16132,0,false,false,false,false,false,false,false,false,false,false,1996,1964,2070,2073,52,67,66,53,1207,1207,1213,1215,1200,1200,1202,1203,0.0,0.0,0.0,0.0,1648.4,1643.5,1643.5,1649.0,0.6,0.24,0.77,0.32,0,0,0,0,-10.827453103825405,10.405689915273639,63.41958434456429,0,50.32483,50.37125,0.0688199,-0.0076902052,-0.99511594,0.9975225,0.40505317,-1.4260405,1.2309957,1.9269172,-255,-383,1440,1511.0,0.001796842,0.004291556,-0.020775408,0.02128999,0.004652536097281452,0.0303845352821347,0.36306022690913753,4.026866443994409,111.75897988340601,111.75897988340603,0.5479610206851554,33.10504151108637,-5.226177319566233,111.36846309491528,1.793085887655824,7104263.575944471,-51.33892744352901,-48.180810899688915,64.44,NONE,0.0,0.0,0.0,NONE,2.0432350702529962E-10,4.577955617119294E-11,-5.340576E-5,2,10.0,10.15,10.92,10.81,16.57,16.57,5.921,1.7002574,0,2896,4.072,12.0,2.531,83,26.0,OK,106,0,0,0,0,0,65,100,0.0,0,0.0,-3.5123271E-15,2.66E-43,0.0,-3.3654391E38,62,3.026841E-10,-3.0268596E-10,4.2245255E-35,False,False,0,None,1.3132811E32,1.0842106E-19,geoDeclination|316 degrees
434182071,4.040,10.405689309971704,63.41958482308301,13,50.32483,50.417572,0.0654613,-0.0056931367,-1.0014621,1.0036155,-0.10701845,-1.9560328,-1.6371982,2.5530245,-253,-383,1437,1508.0,-0.08415124,-9.3178544E-4,-0.014516418,0.08539921,0.0841563952631003,-0.046348142975910264,0.6376940109980538,3.8802049233288867,115.60502558181439,115.6050255818144,0.8328445588923817,35.279893944446435,-5.544746432013031,111.29004555852774,1.7331736614066386,7.685065806860585,-128.22171748265038,-125.0636009388103,64.56,-0.23152589843750349,,10.4056899,63.4195847,20190906,72424,2019-09-06T07:24:24Z,33.872,0.83,1.6,9.21,8,6,14,-0.01,-0.01,0.01,0,0,0,0,4,4,10.405678658207616,63.41959966330362,60,11623554,20,84,456,2942,3518,4181,4203,-613,16755,25,2,16132,0,false,false,false,false,false,false,false,false,false,false,2009,1952,2062,2080,53,68,68,54,1206,1207,1207,1210,1202,1200,1209,1211,0.0,0.0,0.0,0.0,1648.4,1644.1,1643.5,1648.4,0.62,0.28,0.8,0.29,0,0,0,0,-22.507388100941284,10.40568912952484,63.41958437283765,0,50.32483,50.383003,0.0654613,-0.0056931367,-1.0014621,1.0036155,-0.10701845,-1.9560328,-1.6371982,2.5530245,-253,-383,1437,1508.0,0.0017961634,0.00791161,-0.014100061,0.016267499,0.008112939191275955,0.031089312247999983,0.3443935179049984,4.049424827000949,111.73193556242443,111.73193556242444,0.4530706397631767,34.085021906891534,-5.1256070648790555,111.09217418610916,1.7782553361857754,7104263.636146607,-83.87733946421692,-80.71922292037682,64.56,NONE,0.0,0.0,0.0,NONE,3.28174066221082E-10,3.212600427640116E-11,-3.8146973E-5,2,10.05,10.24,10.25,10.0,16.583,16.583,5.921,1.9538344,0,2895,4.126,12.0,1.948,83,26.0,OK,107,0,0,0,0,0,65,100,0.0,0,0.0,-3.161691E-21,2.66E-43,0.0,-3.3654391E38,62,3.026841E-10,-3.0268596E-10,4.0987476E-35,False,False,0,None,1.2360584E32,1.0842106E-19,geoInclination|7479 degrees
438118177,5.063,10.405688105963817,63.41958480002424,14,50.32483,50.41145,0.06531642,-0.0045992993,-1.0016317,1.0037696,2.350409,-0.32778248,-3.3757417,4.1264386,-253,-383,1434,1505.0,-0.097044796,0.0031884932,-0.006758846,0.09733211,0.09709716018799884,-0.03848415363057581,0.6440779031814271,3.8728779773689133,115.55593236891004,115.55593236891002,0.637033537770761,35.867660970776285,-5.749698201589396,111.33260097445854,1.7182701151228879,7.750751631664631,-62.07034821950588,-58.91223167566579,64.62,-0.23152589843750349,,10.4056888,63.4195847,20190906,72425,2019-09-06T07:24:25Z,33.757,0.83,1.6,9.2,8,6,14,0.0,0.0,0.01,0,0,0,0,4,4,10.405678658207616,63.41959966330362,60,11623554,20,84,456,2942,3518,4181,4203,-613,16755,25,2,16132,0,false,false,false,false,false,false,false,false,false,false,2014,1966,2056,2070,53,68,69,53,1204,1205,1205,1208,1200,1200,1210,1211,0.0,0.0,0.0,0.0,1647.8,1642.9,1642.9,1647.8,0.67,0.27,0.72,0.24,0,0,0,0,-23.008870082822853,10.405687851845585,63.41958447604937,0,50.32483,50.38115,0.06531642,-0.0045992993,-1.0016317,1.0037696,2.350409,-0.32778248,-3.3757417,4.1264386,-253,-383,1434,1505.0,2.714388E-4,0.014617774,-0.002060695,0.014764804,0.014620293462378725,0.04852683028916763,0.32836375694210757,4.044377397467402,111.71291416663065,111.71291416663064,0.25721171016032546,34.67276079175776,-5.33055745593067,111.15499492874736,1.7495998393883578,7104263.711954172,-85.95934004772916,-82.80122350388906,64.62,NONE,0.0,0.0,0.0,NONE,7.122902953484472E-10,-1.7133868949022814E-11,-3.8146973E-6,2,10.34,10.0,10.07,10.17,16.583,16.583,5.921,2.127666,0,2895,4.128,12.0,1.946,83,26.0,OK,108,0,0,0,0,0,65,100,0.0,0,0.0,-3.7524338E-31,2.66E-43,0.0,-3.3654391E38,62,3.026841E-10,-3.0268596E-10,3.8925218E-35,False,False,0,None,1.1094419E32,1.0842106E-19,geoIntensity|5185125 nanoTesla
442059867,6.088,10.405686817926382,63.41958468920618,14,50.32483,50.40138,0.06852607,-0.0068662614,-0.99882346,1.001195,3.7101724,0.6912652,-3.8823247,5.414395,-255,-383,1434,1506.0,-0.10664273,0.009082584,2.905645E-5,0.10702881,0.10702880992335546,-0.04332528479838889,0.6262984018199846,3.845586575964984,115.50304842469883,115.50304842469882,0.6054237000625293,36.8858920218133,-5.837964154151431,111.68689268891555,1.7138239808000506,7.8439172251248195,-43.85791149507002,-40.699794951229926,64.68,-0.23152589843750349,,10.4056877,63.4195846,20190906,72426,2019-09-06T07:24:26Z,33.616,0.83,1.6,9.19,8,6,14,0.0,0.0,0.01,0,0,0,0,4,4,10.405678658207616,63.41959966330362,60,11623554,20,84,456,2942,3518,4181,4203,-613,16755,25,2,16132,0,false,false,false,false,false,false,false,false,false,false,2018,1973,2068,2095,53,69,68,54,1205,1206,1212,1211,1200,1202,1205,1205,0.0,0.0,0.0,0.0,1648.4,1643.5,1642.9,1647.8,0.67,0.29,0.8,0.36,0,0,0,0,-22.714412353167234,10.40568673773869,63.41958431088009,0,50.32483,50.37309,0.06852607,-0.0068662614,-0.99882346,1.001195,3.7101724,0.6912652,-3.8823247,5.414395,-255,-383,1434,1506.0,-0.00285712,0.019479565,0.0070310347,0.020905789,0.019687981132511134,0.037314815676898636,0.30282718468781605,4.0153859262680065,111.6984278294745,111.6984278294745,0.2256048398182679,35.6909831175561,-5.418824946799443,111.53188992005066,1.7538040615357111,7104263.783276576,-102.7195528684207,-99.56143632458061,64.68,NONE,0.0,0.0,0.0,NONE,9.100323678915367E-10,-6.880319256467146E-11,1.5258789E-5,2,10.56,10.0,10.91,11.28,16.582,16.582,5.92,2.224559,0,2894,4.128,12.0,1.944,83,26.0,OK,109,0,0,0,0,0,65,100,0.0,0,0.0,4.1369635E30,2.66E-43,0.0,-3.3654391E38,62,3.026841E-10,-3.0268596E-10,3.8885545E-35,False,False,0,None,1.1069907E32,1.0842106E-19,mcID(SN)|298DG13001W644
445913846,7.089,10.405685758286767,63.41958450267036,14,50.32483,50.39485,0.069710456,-0.0024842909,-0.99452513,0.9969684,3.9980495,3.3096018,-4.30527,6.743383,-253,-383,1437,1508.0,-0.110342816,0.014870048,-0.0024588592,0.11136741,0.1113402669542773,-0.05477728196581183,0.6201219962926606,3.842561791248059,115.45013675540625,115.45013675540622,0.7994953546167669,37.6199641009102,-5.667784682441028,111.42887386441615,1.72240129130695,7.910864305880552,-107.00404088070265,-103.84592433686255,64.75,-0.23152589843750349,,10.4056866,63.4195845,20190906,72427,2019-09-06T07:24:27Z,33.46,0.83,1.6,9.18,8,6,14,-0.02,-0.01,0.01,0,0,0,0,4,4,10.405678658207616,63.41959966330362,60,11623554,20,84,456,2942,3518,4181,4203,-613,16755,25,2,16132,0,false,false,false,false,false,false,false,false,false,false,2016,1975,2057,2073,53,68,68,53,1205,1206,1211,1207,1200,1202,1208,1208,0.0,0.0,0.0,0.0,1647.8,1642.3,1643.5,1648.4,0.62,0.32,0.8,0.3,0,0,0,0,-22.297157876787196,10.405685668369797,63.41958419739605,0,50.32483,50.36608,0.069710456,-0.0024842909,-0.99452513,0.9969684,3.9980495,3.3096018,-4.30527,6.743383,-253,-383,1437,1508.0,-0.003897831,0.020480238,0.007890446,0.022291083,0.020847859074651483,0.03374495541131392,0.3023950776812394,4.013612586212622,111.68929461616278,111.68929461616278,0.4196713172097241,36.42502747063248,-5.248626567974672,111.25687652326852,1.7547437103714103,7104263.852869742,-106.61014778800119,-103.45203124416109,64.75,NONE,0.0,0.0,0.0,NONE,1.0114462289052356E-9,-1.0655124777558834E-10,2.2888184E-5,2,10.0,10.43,10.53,10.32,16.58,16.58,5.919,2.2642634,0,2894,4.127,12.0,1.947,83,26.0,OK,110,0,0,0,0,0,65,100,0.0,0,0.0,9.7992363E11,2.66E-43,0.0,-3.3654391E38,62,3.026841E-10,-3.0268596E-10,4.011614E-35,False,False,0,None,1.1825546E32,1.0842106E-19,mcVer|v3.4.1.6
449813141,8.103,10.405684435264742,63.41958439060492,14,50.32483,50.38774,0.071227424,-0.010393018,-0.9956842,0.99828273,-0.6844634,-0.8299274,3.9509397,4.0947766,-253,-379,1443,1513.0,-0.114156194,0.023300214,-0.0013504894,0.11651763,0.11650981056747502,-0.050400839959214086,0.6273420290174528,3.8173001110450455,115.3853763157689,115.3853763157689,0.7153364383951376,38.6188679968077,-5.690542174418965,111.64385113209093,1.7223995834153196,7.99804171244325,-118.12830388615025,-114.97018734231015,64.77,-0.23152589843750349,,10.4056853,63.4195844,20190906,72428,2019-09-06T07:24:28Z,33.319,0.83,1.6,9.19,8,6,14,0.01,0.0,0.01,0,0,0,0,4,4,10.405678658207616,63.41959966330362,60,11623554,20,84,456,2942,3518,4181,4203,-613,16755,25,2,16132,0,false,false,false,false,false,false,false,false,false,false,2014,1986,2069,2076,54,69,69,54,1204,1206,1211,1214,1200,1202,1207,1205,0.0,0.0,0.0,0.0,1647.8,1643.5,1643.5,1648.4,0.68,0.3,0.74,0.3,0,0,0,0,-13.57043438516149,10.405684428921887,63.41958394672292,0,50.32483,50.36425,0.06722856,-0.0069619124,-0.99987966,1.0021614,1.6868907,-0.36623356,-3.4954517,3.8984497,-255,-383,1437,1508.0,-0.0039742985,0.021797908,0.0049381773,0.022700869,0.022157252605708243,0.04462224119943201,0.29909702476290856,4.009964643468755,111.66494716488715,111.66494716488717,0.3127837197935645,37.37390130490427,-5.211738968220119,111.52628889050503,1.7710328416135954,7104263.944283113,-117.21853320810314,-114.06041666426304,64.81,NONE,0.0,0.0,0.0,NONE,1.0252073988728746E-9,-1.065512478082164E-10,1.5258789E-5,2,10.0,10.43,11.22,11.07,16.579,16.579,5.918,2.2641404,0,2893,4.127,12.0,1.945,83,26.0,OK,111,0,0,0,0,0,65,100,0.0,0,0.0,5.1036107E-16,2.66E-43,0.0,-3.3654391E38,62,3.026841E-10,-3.0268596E-10,3.9790676E-35,False,False,0,None,1.162599E32,1.0842106E-19,
453746942,9.125,10.405683453207248,63.41958440353721,14,50.32483,50.38465,0.068669155,-0.011266652,-1.0010003,1.0034162,1.0533409,-1.0200031,0.22676906,1.4836973,-253,-383,1437,1508.0,-0.11568199,0.027961532,-0.007959248,0.11927917,0.11901331963396615,-0.07120025954054474,0.6274042345260207,3.8448491628343344,115.30830498548612,115.30830498548613,0.5497796698910422,39.54312735332101,-5.442572077945749,111.41320485265285,1.7134983286812036,8.064833423822552,-109.98850970217406,-106.83039315833396,64.88,-0.23152589843750349,,10.4056842,63.4195843,20190906,72429,2019-09-06T07:24:29Z,33.204,0.83,1.6,9.21,8,6,14,-0.01,0.0,0.01,0,0,0,0,5,5,10.405678658207616,63.41959966330362,60,11623554,20,84,456,2942,3518,4181,4203,-613,16755,25,2,16132,0,false,false,false,false,false,false,false,false,false,false,2009,1981,2060,2069,54,68,69,55,1206,1207,1208,1209,1204,1200,1209,1211,0.0,0.0,0.0,0.0,1647.8,1642.9,1642.9,1647.2,0.62,0.26,0.82,0.31,0,0,0,0,-14.905758523554994,10.40568314764318,63.419583884531086,0,50.32483,50.36582,0.068669155,-0.011266652,-1.0010003,1.0034162,1.0533409,-1.0200031,0.22676906,1.4836973,-253,-383,1437,1508.0,-0.006782931,0.019478066,-0.002915474,0.020830343,0.020625305091116816,0.04209463082998609,0.3201352037796643,4.026160214464444,111.64311440687533,111.64311440687533,0.16994326163619072,38.34817112533461,-5.0234155639463935,111.19554616608346,1.768681028921933,7104264.021397512,-145.55210839875957,-142.39399185491948,64.88,NONE,0.0,0.0,0.0,NONE,1.0021723887836828E-9,-1.236851167797184E-10,0.0,2,10.0,10.42,10.36,10.09,16.578,16.578,5.917,2.238544,0,2893,4.127,12.0,1.949,83,26.0,OK,112,0,0,0,0,0,65,100,0.0,0,0.0,2.680274E-35,2.66E-43,0.0,-3.3654391E38,62,3.026841E-10,-3.0268596E-10,4.0019897E-35,False,False,0,None,1.176662E32,1.0842106E-19,
457802428,10.179,10.405681981565335,63.41958416026721,14,50.32483,50.384068,0.07062466,-0.010675507,-0.9959771,0.99853504,2.8885987,0.9765162,0.5700758,3.1020272,-253,-383,1434,1505.0,-0.11487561,0.029188275,-0.011901942,0.11912186,0.11852577900247337,-0.04446732458435565,0.6288518314501598,3.847246569433767,115.25027106677035,115.25027106677032,0.35066407571597713,40.35107966755373,-5.3113121968755195,111.43065759679583,1.7317711065918633,8.153153691229694,-63.60081810435608,-60.442701560515985,64.86,-0.23152589843750349,,10.4056828,63.4195842,20190906,72430,2019-09-06T07:24:30Z,33.083,0.83,1.6,9.23,8,6,14,0.0,-0.01,0.02,0,0,0,0,5,5,10.405678658207616,63.41959966330362,60,11623554,20,84,456,2942,3518,4181,4203,-613,16755,25,2,16132,0,false,false,false,false,false,false,false,false,false,false,2025,1977,2058,2087,53,69,67,53,1205,1206,1212,1210,1204,1200,1206,1208,0.0,0.0,0.0,0.0,1648.4,1642.3,1642.3,1648.4,0.66,0.26,0.8,0.34,0,0,0,0,-28.300755766006375,10.405681783520475,63.41958379253727,0,50.32483,50.37261,0.07062466,-0.010675507,-0.9959771,0.99853504,2.8885987,0.9765162,0.5700758,3.1020272,-253,-383,1434,1505.0,-0.008776841,0.015443822,-0.011808546,0.021330409,0.01776357517299996,0.04735754937892298,0.3288534974760325,4.024105844362321,111.63920805371563,111.6392080537156,-0.029167198767343226,39.156080321782824,-4.89217146251618,111.21956182928403,1.7715862281823758,7104264.127112471,-149.78446386483733,-146.62634732099724,64.86,NONE,0.0,0.0,0.0,NONE,8.09815112800345E-10,-1.6357490539545684E-10,-1.9073486E-5,2,10.0,10.17,10.84,10.73,16.577,16.577,5.919,2.1987069,0,2892,4.126,12.0,1.945,83,26.0,OK,113,0,0,0,0,0,65,100,0.0,0,0.0,-0.0018476546,2.65E-43,0.0,-3.3654391E38,62,3.026841E-10,-3.0268596E-10,4.0207977E-35,False,False,0,None,1.1881996E32,1.0842106E-19,
461657832,11.181,10.405680919144757,63.41958423424091,14,50.32483,50.380043,0.06760224,-0.007992817,-1.0000505,1.0023648,2.9951625,1.3955355,-2.438458,4.1066527,-253,-383,1440,1511.0,-0.1161657,0.031492345,-0.01003911,0.120776735,0.12035878238732652,-0.06696927093027397,0.6124100320450986,3.865229713617876,115.17648350771701,115.17648350771702,0.29671945235699665,40.9472397337297,-5.225585510561748,111.33970782822601,1.7193175152307516,8.227526378944216,-2.281888705367984,0.8762278384721078,64.93,-0.23152589843750349,,10.4056817,63.4195841,20190906,72431,2019-09-06T07:24:31Z,32.991,0.83,1.6,9.23,8,6,14,0.0,0.0,0.01,0,0,0,0,5,5,10.405678658207616,63.41959966330362,60,11623554,20,84,456,2942,3518,4181,4203,-613,16755,25,2,16132,0,false,false,false,false,false,false,false,false,false,false,2015,1983,2067,2077,54,69,69,53,1204,1206,1207,1206,1202,1200,1211,1213,0.0,0.0,0.0,0.0,1647.2,1643.5,1643.5,1647.8,0.65,0.26,0.79,0.26,0,0,0,0,-16.049004792533196,10.405680635160424,63.419583690663835,0,50.32483,50.38102,0.06760224,-0.007992817,-1.0000505,1.0023648,2.9951625,1.3955355,-2.438458,4.1066527,-253,-383,1440,1511.0,-0.0083276145,0.01721208,-0.019159878,0.027068539,0.019120796276063886,0.039011052465189225,0.32022705201065615,4.04050670134324,111.6219462597908,111.62194625979078,-0.08312786619363839,39.752251752200245,-4.806419651122652,111.12143572009914,1.778798168457865,7104264.196969526,-148.8175529554565,-145.6594364116164,64.93,NONE,0.0,0.0,0.0,NONE,8.60970778805944E-10,-1.6491348866334245E-10,-4.5776367E-5,2,10.09,10.0,11.05,11.34,16.576,16.576,5.916,2.152756,0,2891,4.126,12.0,1.94,83,26.0,OK,114,0,0,0,0,0,65,100,0.0,0,0.0,4.638346E27,2.65E-43,0.0,-3.3654391E38,62,3.026841E-10,-3.0268596E-10,4.0701684E-35,False,False,0,None,1.2185291E32,1.0842106E-19,
465535598,12.189,10.405679358939876,63.419584031546044,14,50.32483,50.37803,0.06542651,-0.0038444696,-0.9961967,0.99835026,-1.7499095,1.6810687,-4.7310295,5.317031,-253,-386,1446,1517.0,-0.10975411,0.028966429,-0.010464646,0.11399354,0.11351219428694126,-0.03330584601914088,0.5485793735751107,3.854787502315402,115.13342461937255,115.13342461937253,1.0507977566845066,41.88342687310451,-6.0885024583517255,111.24809583701324,1.7385217629412995,8.319496967422168,-131.8926184055654,-128.7345018617253,64.96,-0.23152589843750349,,10.4056802,63.419584,20190906,72432,2019-09-06T07:24:32Z,32.905,0.83,1.6,9.24,8,6,14,0.01,-0.01,0.02,0,0,0,0,5,5,10.405678658207616,63.41959966330362,60,11623554,20,84,456,2942,3518,4181,4203,-613,16755,25,2,16132,0,false,false,false,false,false,false,false,false,false,false,3645,3649,3689,3706,52,67,67,52,1331,1338,1333,1355,1324,1327,1330,1325,0.0,0.0,0.0,0.0,1641.1,1634.9,1634.3,1641.1,1.22,0.99,1.64,1.06,0,0,0,0,-7.334378801416733,10.40567915208221,63.41958360325278,0,50.32483,50.386173,0.06542651,-0.0038444696,-0.9961967,0.99835026,-1.7499095,1.6810687,-4.7310295,5.317031,-253,-386,1446,1517.0,-0.0027010888,0.013375275,-0.02053808,0.02465779,0.013645286762202792,0.06020492765338842,0.25916513337380787,4.017794954377865,111.63678184768824,111.63678184768821,0.6709404532572978,40.68840460097813,-5.669263326257522,111.06421695524813,1.7859652259574421,7104264.282656031,-70.12170031777278,-66.96358377393268,64.96,NONE,0.0,0.0,0.0,NONE,7.577619744207169E-10,-7.603154340112754E-11,-5.340576E-5,2,29.17,29.88,30.1,29.54,16.554,16.554,5.851,2.106294,0,2891,4.126,12.0,1.94,83,26.0,OK,115,0,0,0,0,0,65,100,0.0,0,0.0,1.7597019E35,2.63E-43,0.0,1.05007105E-23,63,3.026841E-10,-3.0268596E-10,4.1215228E-35,False,False,0,None,1.2500471E32,1.0842106E-19,
469397213,13.193,10.40567693896501,63.419583953205674,13,50.839027,50.778534,-0.036054637,9.471532E-4,-0.8023379,0.8031481,-3.0370853,-2.3211403,-0.4191288,3.8454192,-102,-402,1446,1504.0,-0.08622463,-0.09795055,-0.6248228,0.6383044,0.13049519807605978,-0.010210732737895231,-0.8272235297403585,-1.8585402445632582,116.5540246380652,116.55402463806519,2.4200494925777827,41.13206319780877,-9.77387569046741,111.35853802946467,0.08362338126491567,8.449210920173806,-72.19205190085329,-69.03393535701319,64.89,0.28267240478515276,,10.4056785,63.4195837,20190906,72433,2019-09-06T07:24:33Z,33.05,0.86,1.64,9.23,8,5,13,-0.24,-0.17,-0.3,0,0,0,0,4,4,10.405678609772792,63.419584034754045,60,11623554,20,84,456,2942,3518,4181,4203,-613,16755,25,2,16132,0,false,false,false,false,false,false,true,false,false,false,4946,4952,4535,4668,52,68,67,52,1457,1461,1451,1440,1452,1466,1442,1426,0.0,0.0,0.0,0.0,1620.2,1614.7,1614.1,1619.6,2.87,2.24,3.0,2.48,0,0,0,0,-169.64437870510397,10.405676992447818,63.419583458230825,0,50.759766,50.817318,-0.038277213,0.0029973881,-0.8501575,0.85102403,-0.030434363,-6.0455527,5.1705117,7.955113,-134,-402,1443,1503.0,0.005199402,-0.1302845,-0.91738796,0.92660767,0.13038821590156832,-0.022124813774195312,-1.01164667065974,-0.6662289864706843,113.16727495329299,113.16727495329297,1.8031081491426653,40.090002257922,-8.93670004515036,111.83622563123023,0.10288315154806084,7104264.396092027,-120.90840693101973,-117.75029038717963,64.94,NONE,0.0,0.0,0.0,NONE,-5.166123517128917E-9,-2.479056537354009E-10,-0.0026283264,2,41.22,42.55,37.51,37.06,16.443,16.443,5.766,2.1026607,0,2890,4.126,12.0,3.908,83,26.0,OK,116,0,0,0,0,0,65,100,0.0,0,0.0,-8.314009E-14,8.8E-44,0.0,1.05007105E-23,63,4.7334936E-10,-3.8609657E-10,1.4187496E-36,False,False,0,None,2.7705678E29,1.4380454E-19,
473350067,14.220,10.405674173111068,63.4195845065542,13,50.797844,50.781765,-0.033756647,0.0010156562,-1.0291066,1.0296607,-5.5127487,4.8279037,-8.688017,11.365768,-60,-386,1450,1501.0,-0.08835022,0.02784849,0.13942246,0.16739152,0.09263530285352599,0.05409761689084554,0.08497124497644207,-2.625354028937368,116.56430544825004,116.56430544825002,1.0453500894347183,42.20259726299888,-10.943399792082438,108.02809654486938,0.22689249145221627,8.64582495411122,-80.37416211600477,-77.21604557216467,64.91,0.24148893310546526,,10.4056751,63.4195843,20190906,72434,2019-09-06T07:24:34Z,33.201,0.86,1.64,9.19,8,5,13,0.09,0.03,-0.16,0,0,0,0,4,4,10.405678609772792,63.419584034754045,60,11623554,20,84,456,2942,3518,4181,4203,-613,16755,25,2,16132,0,false,false,false,false,false,false,true,false,false,false,5368,5348,4887,4986,53,68,67,52,1529,1524,1476,1495,1521,1521,1468,1477,0.0,0.0,0.0,0.0,1606.1,1601.8,1601.2,1605.5,4.26,3.5,3.8,3.38,0,0,0,0,-171.96507327177997,10.405673915451697,63.41958388977596,0,50.797844,50.975708,-0.033756647,0.0010156562,-1.0291066,1.0296607,-5.5127487,4.8279037,-8.688017,11.365768,-60,-386,1450,1501.0,0.014069645,-0.0228564,0.057403814,0.06336851,0.026839706823893302,0.1293309650807543,-0.1967888158367115,-2.3277347737138467,113.04473573851003,113.04473573851004,0.665761003978246,41.007536115068525,-10.52373803274775,107.33051645170724,0.2341195203419462,7104264.612863552,-77.93937411672592,-74.78125757288582,64.91,NONE,0.0,0.0,0.0,NONE,-3.6686330232394653E-9,1.0092918735431903E-9,4.8065186E-4,2,50.23,48.92,43.74,46.15,16.318,16.318,5.772,2.2754242,0,2889,4.08,12.0,7.373,83,26.0,OK,117,0,0,0,0,0,65,100,0.0,0,0.0,-5.0295785E14,8.8E-44,0.0,1.05007105E-23,63,6.1513106E-10,-4.2153844E-10,2.1058459E-36,False,False,0,None,5.338036E29,1.5883606E-19,
477286045,15.243,10.405673203041085,63.4195842962773,13,51.442463,50.954243,-0.058562852,0.0012629582,-1.4450719,1.4462588,-7.3822083,3.830245,0.3682095,8.324864,-69,-379,1437,1487.0,-0.06689616,0.020847585,-1.0265461,1.0289347,0.07006938282288949,-0.017641523475017074,-0.10879149407455775,-2.5565254057156386,116.82091206153575,116.82091206153575,1.5155660015048051,42.715509890421906,-9.41903499091394,109.47512606059976,0.2705767309112705,8.711305624431393,-127.34245537629263,-124.18433883245254,64.99,0.8861079211425746,,10.4056739,63.4195842,20190906,72435,2019-09-06T07:24:35Z,33.177,0.86,1.64,9.25,8,5,13,-0.06,-0.04,-0.15,0,0,796,9998,4,4,10.405678609772792,63.419584034754045,60,11623554,20,84,456,2942,3518,4181,4203,-613,16755,25,2,16132,0,false,false,false,false,false,false,true,false,false,false,6433,6575,5950,6090,52,67,68,52,1654,1678,1608,1614,1649,1679,1607,1602,0.0,0.0,0.0,0.0,1566.2,1562.0,1562.0,1566.8,6.27,5.78,5.88,5.12,0,0,0,0,179.88162045870956,10.405672876767417,63.41958391494165,0,51.442463,51.09701,-0.058562852,0.0012629582,-1.4450719,1.4462588,-7.3822083,3.830245,0.3682095,8.324864,-69,-379,1437,1487.0,0.0061847325,-0.013739856,-1.0713971,1.071503,0.015067665964267665,0.035526524420249846,-0.41428180001791676,-2.3126677719390316,113.25340066936431,113.25340066936428,1.1360468924811578,41.52033999614239,-8.999430071594878,109.0167580500623,0.2855540644018256,7104264.706604403,-89.80817779242872,-86.65006124858863,64.99,NONE,0.0,0.0,0.0,NONE,-2.083705036216641E-9,8.248350839050268E-10,-0.0015602112,2,66.34,68.78,60.16,61.13,16.204,16.204,5.702,2.7182305,0,2887,4.051,12.0,6.979,83,26.0,OK,118,0,0,0,0,0,65,100,0.0,0,0.0,-2.47793843E14,8.8E-44,0.0,1.05007105E-23,63,6.175327E-10,-4.221424E-10,2.3510466E-36,False,False,0,None,6.2788706E29,1.5909414E-19,
481145396,16.246,10.4056698152208,63.41958108948432,13,54.87731,53.980984,-0.036242947,-0.02238093,-1.0490893,1.0499538,33.466118,5.238042,17.17195,37.977547,-105,24,1514,1517.0,-1.2788478,-0.52291125,-4.0245085,4.2550626,1.3816250805334924,-0.9884035978150633,15.799135413465661,-1.3897792381806806,117.01120985986165,117.01120985986165,3.675886579028517,63.54238903721089,-9.0105904835719,109.84821075854948,0.546554911892226,9.11878166502301,-153.4580275405628,-150.2999109967227,64.95,4.320956706542965,,10.40567,63.4195817,20190906,72436,2019-09-06T07:24:36Z,35.763,0.86,1.64,9.3,8,5,13,-1.11,-0.82,-1.92,9632,0,0,10000,4,4,10.405678609772792,63.419584034754045,60,11623554,20,84,456,2942,3518,4181,4203,-613,16755,25,2,16132,0,false,false,false,false,false,false,true,false,false,false,6133,6378,5656,5582,53,67,68,53,1610,1642,1552,1547,1602,1623,1551,1548,0.0,0.0,0.0,0.0,1580.9,1577.9,1576.7,1581.6,5.17,5.08,4.56,3.77,0,0,0,0,165.93199025579793,10.40566994078696,63.41958055083562,0,54.87731,54.135757,-0.036242947,-0.02238093,-1.0490893,1.0499538,33.466118,5.238042,17.17195,37.977547,-105,24,1514,1517.0,-1.1646087,-0.45655796,-4.0759954,4.2636247,1.2509031371009982,-0.8505330997487704,15.152863621340954,-1.1695850402623356,114.28839441584888,114.28839441584887,3.296129475165144,62.34724904907519,-8.590985722530379,109.90822654721624,0.5797520300892658,7104265.13563516,-158.83042502356366,-155.67230847972357,64.95,NONE,0.0,0.0,0.0,NONE,-6.532155094901052E-8,-7.560603090939584E-8,-0.030532837,2,61.18,63.33,53.26,53.65,15.924,15.924,5.649,3.444683,0,2885,4.02,12.0,11.573,83,26.1,OK,119,0,0,0,0,0,65,100,0.0,0,0.0,-2.9372665E-34,8.8E-44,0.0,1.05007105E-23,63,9.527639E-9,-1.6665144E-9,5.85619E-36,False,False,0,None,3.807362E30,5.49741E-19,
485014081,17.251,10.405635803747415,63.41956476376166,13,57.529404,57.258446,-0.03858419,-0.06708582,-0.55033845,0.55575323,7.190591,-6.4773192,-0.15507038,9.679066,-99,197,1508,1524.0,-2.4933867,-2.2739632,-1.3894811,3.649458,3.374594204843492,-0.9063066119186152,19.971903292498393,-2.3110745428195765,132.15452644987923,132.1545264498792,5.0319462154468235,70.4157589653215,-10.850476908921845,115.70090835920982,3.0212210690154837,11.721989055766784,-138.58197630965455,-135.42385976581446,64.96,6.973048686523434,,10.4056385,63.4195662,20190906,72437,2019-09-06T07:24:37Z,38.897,0.84,1.6,9.35,8,6,14,-2.13,-1.96,-2.58,6518,0,0,0,4,4,10.405678609772792,63.419584034754045,60,11623554,20,84,456,2942,3518,4181,4203,-613,16755,25,2,16132,0,false,false,false,false,false,false,false,false,false,false,4312,4644,4125,3988,54,68,69,54,1421,1454,1386,1380,1415,1434,1378,1378,0.0,0.0,0.0,0.0,1617.7,1612.9,1612.9,1617.7,2.55,2.56,2.28,1.36,0,0,0,0,150.91078307014772,10.405637712607284,63.41956435090791,0,57.529404,57.429565,-0.03858419,-0.06708582,-0.55033845,0.55575323,7.190591,-6.4773192,-0.15507038,9.679066,-99,197,1508,1524.0,-2.8272562,-1.6836772,-1.4633019,3.6013052,3.290614978162787,-0.8920434068608847,19.564034464421074,-1.9704937338194535,120.65535674976837,120.65535674976837,4.652329138213276,69.22062270379418,-10.430856291965714,115.17023250616454,2.9884938330443718,7104267.584353961,-145.70037524188135,-142.54225869804125,64.96,NONE,0.0,0.0,0.0,NONE,-3.680042984845481E-7,-2.892301160710793E-7,-0.030174255,2,37.06,40.13,32.5,31.64,15.94,15.94,5.789,4.453835,0,2879,3.91,12.0,10.703,82,26.0,OK,120,0,0,0,0,0,65,100,0.0,0,0.0,26841.0,8.8E-44,0.0,1.05007105E-23,63,3.9840234E-7,-1.1068155E-8,8.567299E-34,False,False,0,None,3.2335232E34,2.989828E-18,
488892659,18.259,10.405600083971624,63.419548880264145,13,57.773457,57.552258,-0.0466641,-0.063690774,-1.1571277,1.1598183,31.516184,3.9414554,3.5992765,31.964975,-63,-793,1333,1552.0,-0.20897564,-0.31179667,-0.19233567,0.4217594,0.3753504704842516,2.110267815444644,-13.800042336465312,-2.430189980294024,131.53991546882298,131.53991546882298,8.00836708359896,43.33107295688764,-10.883095921872238,105.5545880891432,5.5267604724492685,14.231485494690203,-132.6419857793789,-129.4838692355388,64.94,7.217101573486325,,10.4056002,63.4195482,20190906,72438,2019-09-06T07:24:38Z,39.079,0.86,1.64,9.33,8,5,13,-0.96,-0.98,-1.01,0,0,0,2894,4,4,10.405678609772792,63.419584034754045,60,11623554,20,84,456,2942,3518,4181,4203,-613,16755,25,2,16132,0,false,false,false,false,false,false,false,false,false,false,5531,6087,5421,5234,52,68,67,53,1534,1591,1522,1501,1531,1581,1507,1494,0.0,0.0,0.0,0.0,1594.4,1587.7,1588.3,1593.2,3.92,3.95,3.94,3.03,0,0,0,0,142.34811675680433,10.405596226879705,63.41954879053036,0,57.773457,57.639877,-0.0466641,-0.063690774,-1.1571277,1.1598183,31.516184,3.9414554,3.5992765,31.964975,-63,-793,1333,1552.0,-0.9001352,-0.62895113,-0.21398312,1.1187545,1.0980996970408075,1.573828662867921,-13.112150461659338,-2.1482029808020173,121.02250703738035,121.02250703738036,7.6282848339300395,42.13637757664712,-10.463323512104164,104.13744501643038,5.670942897984776,7104270.305597737,-114.0186953228742,-110.8605787790341,64.94,NONE,0.0,0.0,0.0,NONE,-3.3026737275859355E-8,-2.1323075650186172E-8,-4.8065186E-4,2,51.65,57.43,49.41,47.16,16.059,16.059,5.7,5.5197678,0,2877,3.952,12.0,5.685,82,26.0,OK,121,0,0,0,0,0,65,100,0.0,0,0.0,2.17817088E8,8.8E-44,0.0,1.05007105E-23,63,6.1569153E-7,-1.3378272E-8,3.98454E-31,False,False,0,None,-1.0388173E-38,3.4901203E-18,
492747724,19.261,10.405593092749642,63.41954676536159,14,57.975418,58.084618,-0.0318759,-0.015920887,-1.0605009,1.0610993,7.0398097,14.061469,4.803389,16.442518,-84,-370,1465,1513.0,0.1085082,0.0635179,-1.2850351,1.2911716,0.12573206632989778,0.2933464395926131,1.3603738565068724,-1.6153701937472074,131.72518406076864,131.72518406076864,3.140247721697812,52.46683277675511,-10.468074383963346,107.16604842830422,5.93952777067637,14.700290763515168,-44.9676959405557,-41.809579396715606,65.07,7.419063090820309,,10.4055944,63.4195468,20190906,72439,2019-09-06T07:24:39Z,39.625,0.84,1.6,9.3,8,6,14,-0.01,-0.04,-0.73,0,0,0,5839,4,4,10.405678609772792,63.419584034754045,60,11623554,20,84,456,2942,3518,4181,4203,-613,16755,25,2,16132,0,false,false,false,false,false,false,false,false,false,false,5641,5854,5101,5085,54,67,68,54,1551,1583,1504,1500,1543,1568,1503,1492,0.0,0.0,0.0,0.0,1590.2,1585.2,1585.2,1590.2,4.44,4.1,3.9,3.24,0,0,0,0,170.07693977471448,10.405591020938507,63.41954735418169,0,57.975418,58.184467,-0.0318759,-0.015920887,-1.0605009,1.0610993,7.0398097,14.061469,4.803389,16.442518,-84,-370,1465,1513.0,0.055871684,0.06145785,-1.2628107,1.2655393,0.08305848762660792,0.22066251978959864,0.7139917597459905,-1.4839653781674922,121.74914544320886,121.74914544320887,2.7600661564093736,51.272205959638356,-10.048326276810212,107.41692011742845,5.968872111795724,7104270.9736300325,-45.73539684175177,-42.57728029791168,65.07,NONE,0.0,0.0,0.0,NONE,4.6189562204155214E-9,1.9575421932701492E-9,-0.012817383,2,53.92,55.89,47.16,47.3,16.087,16.087,5.696,6.3726854,0,2875,3.965,12.0,8.435,82,26.1,OK,122,0,0,0,0,0,65,100,0.0,0,0.0,6.322389E9,8.8E-44,0.0,1.05007105E-23,63,1.1802476E-6,-1.8906695E-8,1.0353381E-30,False,False,0,None,-2.5155034E-38,4.985663E-18,
496601623,20.263,10.405591346033075,63.41954745267569,14,59.25351,59.25273,-0.0407005,-0.022499561,-0.9864455,0.9875411,-13.016546,-11.932139,0.7661848,17.674656,-81,-293,1480,1510.0,-0.10982011,-0.24167788,-1.1615224,1.1914709,0.2654593315721467,-0.14991401789564185,2.863250212176863,-1.9917131536120296,131.73397976836628,131.73397976836628,2.3289140754925355,53.859197167744064,-12.294223739431686,109.77847428310706,5.949579543751915,14.860051336156577,-90.60617268240162,-87.44805613856153,65.0,8.697154521484372,,10.4055941,63.4195481,20190906,72440,2019-09-06T07:24:40Z,40.827,0.84,1.6,9.34,8,6,14,0.01,-0.12,-1.0,5389,0,0,5308,4,4,10.405678609772792,63.419584034754045,60,11623554,20,84,456,2942,3518,4181,4203,-613,16755,25,2,16132,0,false,false,false,false,false,false,false,false,false,false,5350,5594,4961,4872,53,69,70,54,1520,1559,1496,1483,1508,1556,1502,1470,0.0,0.0,0.0,0.0,1592.6,1588.9,1587.0,1592.0,3.95,4.08,3.99,2.94,0,0,0,0,163.31495077261488,10.405592917803279,63.41954747658637,0,59.25351,59.366646,-0.0407005,-0.022499561,-0.9864455,0.9875411,-13.016546,-11.932139,0.7661848,17.674656,-81,-293,1480,1510.0,-0.080145344,-0.10528444,-1.1600858,1.1676074,0.13231813761683964,-0.03711734282290896,2.1640749747282237,-1.9174162260877947,121.79724806135603,121.79724806135602,1.9488774628923429,52.66439720500227,-11.874582054203522,110.45719624594926,5.890917775420931,7104271.276722898,-96.1083931160005,-92.9502765721604,65.0,NONE,0.0,0.0,0.0,NONE,-5.193333130408577E-9,-1.7562190979278456E-9,-0.002910614,2,50.34,54.79,47.4,43.05,16.044,16.044,5.715,7.0424404,0,2872,3.989,12.0,9.047,82,26.1,OK,123,0,0,0,0,0,65,100,0.0,0,0.0,1.64537303E10,8.8E-44,0.0,1.05007105E-23,63,3.985013E-6,-3.4938477E-8,1.0547178E-30,False,False,0,None,-2.5680936E-38,8.743128E-18,
500501088,21.276,10.405590116230695,63.41954858019729,14,59.79879,59.88646,-0.03269088,-0.029000092,-0.97878283,0.9797579,6.8679733,5.7496614,4.2476416,9.913129,-78,-399,1465,1520.0,0.15446721,0.037215143,0.013400763,0.15945114,0.15888702073681063,-0.021229765927304856,-0.10123389664724383,-2.013066623362335,131.70345295683563,131.70345295683563,3.2578604496957277,48.703849429611516,-12.045950641899179,108.08317159222236,5.91001746490139,15.095323801223882,47.20649187305756,50.36460841689765,64.94,9.24243497802734,,10.4055913,63.4195481,20190906,72441,2019-09-06T07:24:41Z,41.43,0.84,1.6,9.28,8,6,14,0.16,-0.01,-0.68,0,0,0,0,4,4,10.405678609772792,63.419584034754045,60,11623554,20,84,456,2942,3518,4181,4203,-613,16755,25,2,16132,0,false,false,false,false,false,false,false,false,false,false,5220,5490,4845,4771,53,70,70,53,1518,1556,1483,1468,1512,1542,1472,1460,0.0,0.0,0.0,0.0,1593.2,1588.9,1588.9,1593.2,4.06,3.94,3.96,3.04,0,0,0,0,162.54464086143642,10.405590848193436,63.41954767588801,0,59.811424,60.036674,-0.033157267,-0.029639024,-0.9712565,0.9722741,2.560521,9.600878,0.816674,9.969958,-72,-411,1462,1520.0,-0.025213255,-0.054340173,-0.0071148216,0.060325645,0.05990461249730251,0.0440275199150316,-0.6970695462962542,-2.0943919963117383,121.79539611506453,121.79539611506453,2.625435348667756,47.03828663991014,-12.391443932284584,107.71058635008099,5.950789232821919,7104271.446799347,20.511106300379893,23.669222844219984,65.01,NONE,0.0,0.0,0.0,NONE,-5.715059107448713E-9,-2.1117461555011786E-9,-5.0735474E-4,2,49.94,52.26,44.56,44.25,16.094,16.094,5.727,7.5818887,0,2870,3.982,12.0,7.113,82,26.1,OK,124,0,0,0,0,0,65,100,0.0,0,0.0,6.3530619E12,8.8E-44,0.0,3.041665E-35,64,7.305178E-6,-4.790787E-8,1.2712645E-30,False,False,0,None,-3.1559125E-38,1.1493867E-17,
504473143,22.309,10.405591421798714,63.41954911329448,14,59.815407,59.781628,-0.03764932,-0.019493163,-1.0185237,1.0194057,32.709534,-0.79005736,1.7320689,32.76489,-78,-302,1483,1515.0,0.08350311,-0.03307765,-0.027304575,0.0938746,0.08981592846374488,-0.004629391612647388,3.501790298685636,-1.8653047202328956,131.66115966926162,131.66115966926162,2.418301719825375,54.859429138234404,-13.323600896473092,107.75715333531242,5.822081739578765,15.25242946172157,-117.80114595669166,-114.64302941285156,64.95,9.259051799316403,,10.4055919,63.4195489,20190906,72442,2019-09-06T07:24:42Z,41.306,0.84,1.6,9.23,8,6,14,0.19,0.04,-0.18,5496,0,0,0,4,4,10.405678609772792,63.419584034754045,60,11623554,20,84,456,2942,3518,4181,4203,-613,16755,25,2,16132,0,false,false,false,false,false,false,false,false,false,false,5304,5809,5104,4735,55,68,69,55,1538,1560,1495,1478,1528,1550,1499,1472,0.0,0.0,0.0,0.0,1590.2,1584.6,1585.2,1590.2,4.62,3.9,3.57,3.32,0,0,0,0,145.5487765927156,10.405591464284136,63.41954853549202,0,59.815407,59.924828,-0.03764932,-0.019493163,-1.0185237,1.0194057,32.709534,-0.79005736,1.7320689,32.76489,-78,-302,1483,1515.0,-0.07935421,-0.064999,-7.2211365E-4,0.102579154,0.10257661222750036,-0.005340658941461032,3.3076013544610112,-1.8620172771985708,121.76571149197382,121.76571149197383,2.038450786632598,53.66368128674207,-12.90415996389959,107.96454485167936,5.863565100199465,7104271.620377295,-56.89840565604703,-53.74028911220694,64.95,NONE,0.0,0.0,0.0,NONE,-2.5129029853962967E-9,-1.3621405413349811E-9,3.4332275E-5,2,51.94,53.66,46.12,45.05,16.066,16.066,5.69,7.936328,0,2868,4.022,12.0,7.476,82,26.1,OK,125,0,0,0,0,0,65,100,0.0,0,0.0,8.0543522E13,8.8E-44,0.0,3.041665E-35,64,6.6935318E-6,-4.551863E-8,1.1009642E-30,False,False,0,None,-2.69365E-38,1.098713E-17,
508490398,23.353,10.405590307418198,63.41954954631402,14,59.708652,59.744347,-0.03742263,-0.03572031,-1.0021877,1.003522,-3.8286633,-6.6252775,-14.119095,16.05932,-55,-357,1474,1517.0,0.16572195,0.039415456,-0.060305975,0.18070461,0.1703447801289039,-0.10000992067172934,1.5692753071969312,-2.823619690503992,131.63380163322796,131.63380163322796,3.216090498888321,52.430130218670875,-14.533026870460496,107.73439489689665,5.831735204923406,15.400357251548195,40.84202104026886,44.000137584108955,64.97,9.152297496337887,,10.4055911,63.4195492,20190906,72443,2019-09-06T07:24:43Z,41.212,0.84,1.6,9.27,8,6,14,0.13,-0.03,-0.06,0,0,0,0,4,4,10.405678609772792,63.419584034754045,60,11623554,20,84,456,2942,3518,4181,4203,-613,16755,25,2,16132,0,false,false,false,false,false,false,false,false,false,false,5344,5670,4979,4877,54,69,69,55,1532,1563,1491,1483,1524,1558,1489,1477,0.0,0.0,0.0,0.0,1589.5,1585.2,1585.2,1588.9,4.17,4.02,3.84,3.07,0,0,0,0,159.7155482122365,10.405590531407904,63.41954911725682,0,59.708652,59.88685,-0.03742263,-0.03572031,-1.0021877,1.003522,-3.8286633,-6.6252775,-14.119095,16.05932,-55,-357,1474,1517.0,0.09722535,0.012703149,-0.041920606,0.10663713,0.09805172000175899,-0.021794002780420527,1.3940835400072158,-2.7937918602253546,121.83849441583934,121.83849441583936,2.8363417459443725,51.23393227103634,-14.113581809356504,107.83109448705689,5.854872554004298,7104271.7846114915,-11.933477868079397,-8.775361324239306,64.97,NONE,0.0,0.0,0.0,NONE,-2.5272624474643454E-9,6.125349015901447E-10,-1.0681152E-4,2,50.9,55.41,45.67,43.88,16.047,16.047,5.707,8.129781,0,2866,4.022,12.0,7.994,82,26.1,OK,126,0,0,0,0,0,65,100,0.0,0,0.0,8.458543E15,8.8E-44,0.0,3.041665E-35,64,6.470713E-6,-4.4648242E-8,1.0870252E-30,False,False,0,None,-2.6557678E-38,1.0802477E-17,
512346181,24.355,10.405591557730768,63.41954976558401,14,59.52781,59.711098,-0.03095424,-0.023775436,-1.0084076,1.0091627,4.341272,2.471016,5.583426,7.4918094,-66,-318,1480,1515.0,-0.0020036655,0.025993748,-0.049763616,0.05617924,0.0260708579476334,0.0406052730955256,2.415154644927703,-2.245728597300339,131.5661505174408,131.5661505174408,1.9515331755760812,53.14443899235689,-13.997561966963747,107.98227201550583,5.768879707381634,15.555446173767553,166.3303502604903,169.4884668043304,65.01,8.971454143066403,,10.4055921,63.4195498,20190906,72444,2019-09-06T07:24:44Z,41.069,0.84,1.6,9.25,8,6,14,0.07,0.06,-0.01,0,0,0,0,5,5,10.405678609772792,63.419584034754045,60,11623554,20,84,456,2942,3518,4181,4203,-613,16755,25,2,16132,0,false,false,false,false,false,false,false,false,false,false,5437,5724,5030,4937,54,69,70,55,1538,1570,1493,1487,1528,1575,1497,1469,0.0,0.0,0.0,0.0,1585.8,1582.2,1582.8,1585.8,4.38,4.08,3.79,3.2,0,0,0,0,162.3459145121342,10.405591284895332,63.41954928877156,0,59.52781,59.880413,-0.03095424,-0.023775436,-1.0084076,1.0091627,4.341272,2.471016,5.583426,7.4918094,-66,-318,1480,1515.0,-0.021054959,0.02866648,-0.05885775,0.06877,0.03556793945920948,0.006405571906972787,2.208352112642846,-2.2032113327010237,121.8423380911691,121.8423380911691,1.5715756359398738,51.94806814356321,-13.578420983677036,108.07698245962553,5.814174496215052,7104271.913402179,-88.4358901954748,-85.2777736516347,65.01,NONE,0.0,0.0,0.0,NONE,1.4503040615284345E-9,-5.568499115153084E-11,-1.335144E-4,2,52.08,55.16,46.26,45.66,16.034,16.034,5.697,8.228383,0,2864,3.981,12.0,7.787,82,26.1,OK,127,0,0,0,0,0,65,100,0.0,0,0.0,5.6539637E15,8.8E-44,0.0,3.041665E-35,64,6.432063E-6,-4.4497266E-8,9.871176E-31,False,False,0,None,-2.384566E-38,1.0770501E-17,
516223587,25.363,10.405591841747814,63.41954970044951,14,59.521095,59.68833,-0.028087597,-0.024314296,-1.0136961,1.0143766,1.0959328,13.220355,-3.2872405,13.6669235,-93,-334,1471,1511.0,-0.075611025,0.01133701,-0.039527446,0.086069584,0.07645622694492578,-0.06069879916665415,2.204922519539166,-1.2336872810664075,131.43779864080236,131.43779864080238,1.839380934702257,52.38331721834077,-12.098747401225717,107.66982788254766,5.7630730881109695,15.637651234974605,-10.965874959939363,-7.807758416099271,65.03,8.964740275878903,,10.4055923,63.4195497,20190906,72445,2019-09-06T07:24:45Z,40.961,0.84,1.6,9.23,8,6,14,-0.06,0.03,0.01,0,0,0,0,5,5,10.405678609772792,63.419584034754045,60,11623554,20,84,456,2942,3518,4181,4203,-613,16755,25,2,16132,0,false,false,false,false,false,false,false,false,false,false,5600,5778,4969,4977,54,71,72,55,1552,1577,1497,1489,1547,1575,1497,1479,0.0,0.0,0.0,0.0,1584.0,1579.7,1579.7,1584.0,4.63,4.13,3.85,3.25,0,0,0,0,173.22981277430358,10.405591504208376,63.419549312754754,0,59.521095,59.86915,-0.028087597,-0.024314296,-1.0136961,1.0143766,1.0959328,13.220355,-3.2872405,13.6669235,-93,-334,1471,1511.0,-0.07484665,0.03711903,-0.053743567,0.09933888,0.08354545550730541,-0.0723985266688439,2.085094612214303,-1.2105013176823585,121.82589369323493,121.82589369323495,1.4591315289612685,51.18671296711441,-11.679630552283848,107.72346766794425,5.804250570589788,7104272.022759749,-133.45025160711893,-130.29213506327883,65.03,NONE,0.0,0.0,0.0,NONE,1.4311581353462174E-9,-1.7947701034692226E-9,-1.335144E-4,2,54.18,56.24,46.24,46.52,16.018,16.018,5.687,8.265521,0,2862,3.978,12.0,8.046,82,26.2,OK,128,0,0,0,0,0,65,100,0.0,0,0.0,3.83880741E15,8.8E-44,0.0,3.041665E-35,64,6.3691987E-6,-4.4251703E-8,9.623694E-31,False,False,0,None,-2.3342E-38,1.0718409E-17,
520085207,26.366,10.405591032387541,63.4195499558742,14,59.78326,59.699924,-0.025349073,-0.03557359,-1.0065917,1.007539,5.7856164,2.4767792,-3.9108672,7.409634,-84,-350,1471,1514.0,-0.058374025,-0.014838759,-0.08176544,0.10155443,0.06023052077078074,-0.01113042225873137,1.5738389643543529,-1.8947379335460495,131.29854582592458,131.29854582592458,2.047711327029509,51.981067173552184,-11.51840313333417,108.7204492992389,5.774622773544535,15.715409627887071,-4.658687636448345,-1.5005710926082536,65.04,9.226905345458981,,10.4055918,63.4195496,20190906,72446,2019-09-06T07:24:46Z,40.988,0.84,1.6,9.29,8,6,14,-0.08,-0.02,0.0,0,0,0,0,5,5,10.405678609772792,63.419584034754045,60,11623554,20,84,456,2942,3518,4181,4203,-613,16755,25,2,16132,0,false,false,false,false,false,false,false,false,false,false,5382,5641,5008,4821,54,71,70,54,1527,1561,1492,1471,1520,1567,1496,1456,0.0,0.0,0.0,0.0,1587.7,1582.8,1582.8,1587.0,4.09,3.98,3.75,2.9,0,0,0,0,159.51761322589658,10.405590745786062,63.419549392294655,0,59.67468,59.865448,-0.02750099,-0.027358562,-1.0116885,1.0124319,7.3286734,5.9765587,9.327286,13.282581,-87,-347,1474,1516.0,-0.055035777,0.006002175,-0.07979135,0.097116545,0.055362106195978755,-0.016744173954522087,1.2110051541189801,-1.5937363156166198,121.7530362893227,121.75303628932272,1.3972763576509781,50.13033830945135,-11.520567914910519,108.66973088671891,5.826629475053874,7104272.12978844,-71.6368175838017,-68.4787010399616,65.02,NONE,0.0,0.0,0.0,NONE,3.829185661431747E-11,-1.3964082431529575E-9,-1.7547607E-4,2,51.34,54.25,45.0,43.65,16.002,16.002,5.69,8.268613,0,2859,3.976,12.0,8.151,82,26.2,OK,129,0,0,0,0,0,65,100,0.0,0,0.0,2.33151441E16,8.8E-44,0.0,3.041665E-35,64,6.3451007E-6,-4.4158025E-8,1.0122992E-30,False,False,0,None,-2.4529405E-38,1.0698715E-17,
524038080,27.394,10.405590467057825,63.4195497596923,14,59.578514,59.731255,-0.026632484,-0.035010815,-0.9990805,1.0000484,-1.7556605,-8.27481,-3.6183286,9.200387,-87,-331,1474,1513.0,-0.05923904,-0.01564087,-0.08582567,0.10545115,0.06126908486981624,-0.026620654366999626,1.9605710544978456,-1.5228916769207528,131.17043803303727,131.17043803303727,4.979940246784974,55.803861320093624,-9.312046697265064,108.26445990843438,5.81016254692535,15.765849248515888,-85.38710553323232,-82.22898898939222,65.0,9.02215909912109,,10.4055914,63.4195495,20190906,72447,2019-09-06T07:24:47Z,41.188,0.84,1.6,9.11,8,6,14,-0.05,-0.01,-0.01,0,0,0,0,5,5,10.405678609772792,63.419584034754045,60,11623554,20,84,456,2942,3518,4181,4203,-613,16755,25,2,16132,0,false,false,false,false,false,false,false,false,false,false,5304,5511,4952,4732,54,70,71,54,1530,1551,1496,1470,1518,1545,1492,1463,0.0,0.0,0.0,0.0,1588.3,1584.0,1582.8,1588.3,4.01,3.83,3.97,2.76,0,0,0,0,159.31637217312107,10.405590234385885,63.419549342456385,0,59.578514,59.862206,-0.026632484,-0.035010815,-0.9990805,1.0000484,-1.7556605,-8.27481,-3.6183286,9.200387,-87,-331,1474,1513.0,-0.057059042,0.007641838,-0.07050027,0.09101879,0.057568497208680215,-0.03222034593482265,1.821344788634272,-1.4460633827765816,121.73552760153994,121.73552760153996,4.599529976091726,54.606960265556104,-8.892659217984162,108.16035580749293,5.849397564398948,7104272.190941449,-72.84754055278893,-69.68942400894883,65.0,NONE,0.0,0.0,0.0,NONE,3.9249153009613545E-10,-1.2721878785876609E-9,-1.7929077E-4,2,49.83,53.89,46.33,41.96,15.996,15.996,5.699,8.250965,0,2857,3.968,12.0,7.749,82,26.2,OK,130,0,0,0,0,0,65,100,0.0,0,0.0,3.52437457E16,8.8E-44,0.0,3.041665E-35,64,6.324495E-6,-4.407708E-8,1.0566196E-30,False,False,0,None,-2.5732593E-38,1.0681351E-17,
527974043,28.417,10.405590822824632,63.41954933247979,14,59.571815,59.742916,-0.022540407,-0.027156185,-1.0123999,1.0130149,-4.784993,-1.4486508,-2.5407002,5.6080217,-96,-344,1468,1510.0,-0.0672592,-0.017328009,-0.07102085,0.099337906,0.06945545010810235,-0.01989765039650942,1.5398145351734935,-1.3399670946137427,131.13174153229573,131.13174153229573,6.1471334388513315,57.51351366193715,-8.546757401977745,108.74372910210789,5.828155615155373,15.84247595149426,166.96574151431926,170.12385805815936,65.01,9.015460490722653,,10.4055914,63.4195491,20190906,72448,2019-09-06T07:24:48Z,41.258,0.84,1.6,9.09,8,6,14,-0.06,-0.01,-0.02,0,0,0,0,5,5,10.405678609772792,63.419584034754045,60,11623554,20,84,456,2942,3518,4181,4203,-613,16755,25,2,16132,0,false,false,false,false,false,false,false,false,false,false,5431,5555,4898,4817,55,71,71,55,1536,1557,1488,1477,1531,1551,1481,1466,0.0,0.0,0.0,0.0,1587.0,1582.2,1582.2,1587.0,4.25,3.82,3.72,2.86,0,0,0,0,170.8376529542783,10.405590602305674,63.41954888435987,0,59.571815,59.85729,-0.022540407,-0.027156185,-1.0123999,1.0130149,-4.784993,-1.4486508,-2.5407002,5.6080217,-96,-344,1468,1510.0,-0.070228726,0.0015718325,-0.06256195,0.094066694,0.07024631431649753,-0.017332670660888165,1.4057231163125314,-1.2289445998250779,121.76669036660167,121.76669036660167,5.766478438038887,56.31645372504416,-8.127632744646132,108.52121180104145,5.869446005028408,7104272.272285445,-167.09311771345887,-163.93500116961877,65.01,NONE,0.0,0.0,0.0,NONE,2.010322439661767E-10,-1.4221090093603446E-9,-1.5258789E-4,2,51.33,54.34,45.39,42.92,16.0,16.0,5.696,8.201329,0,2855,3.967,12.0,7.447,82,26.2,OK,131,0,0,0,0,0,65,100,0.0,0,0.0,2.70809714E15,8.8E-44,0.0,3.041665E-35,64,6.309827E-6,-4.401978E-8,1.1015901E-30,False,False,0,None,-2.6953718E-38,1.0669281E-17,
531915665,29.441,10.405590817296217,63.41954902931888,14,59.93697,59.756954,-0.019309204,-0.030701187,-1.007969,1.0086213,-6.8879085,10.384246,-6.4201336,14.017631,-93,-344,1471,1513.0,-0.02651271,0.016438901,-0.066707104,0.07364102,0.03119553349371516,0.0017122669641519532,1.4960653214080162,-1.3034490234592522,130.94359663046828,130.94359663046828,7.081612511721639,59.10551503213386,-8.89672435380498,108.27191358448664,5.850734287508332,15.885382820900093,150.79756273618707,153.95567928002717,65.01,9.380614757080075,,10.4055914,63.4195487,20190906,72449,2019-09-06T07:24:49Z,41.307,0.84,1.6,9.12,8,6,14,-0.04,0.02,-0.02,0,0,0,0,5,5,10.405678609772792,63.419584034754045,60,11623554,20,84,456,2942,3518,4181,4203,-613,16755,25,2,16132,0,false,false,false,false,false,false,false,false,false,false,5360,5520,4946,4656,54,73,72,55,1529,1556,1492,1460,1531,1543,1474,1455,0.0,0.0,0.0,0.0,1588.3,1584.0,1582.8,1587.7,4.12,3.86,3.82,2.68,0,0,0,0,160.60218755144177,10.405590591033443,63.41954849590413,0,59.93697,59.870525,-0.019309204,-0.030701187,-1.007969,1.0086213,-6.8879085,10.384246,-6.4201336,14.017631,-93,-344,1471,1513.0,-0.026506199,0.012641004,-0.070797406,0.07664624,0.02936619762576259,0.012802419705805174,1.3665449442967228,-1.2290666780794348,121.66680463147979,121.6668046314798,6.701151771112391,57.90857154542714,-8.477429604769407,108.16488811598177,5.898714113966271,7104272.351105958,144.21387329525655,147.37198983909664,65.01,NONE,0.0,0.0,0.0,NONE,5.648048674251856E-10,-6.125349037028695E-10,-1.7547607E-4,2,50.34,53.2,45.79,41.61,16.003,16.003,5.707,8.116969,0,2853,3.969,12.0,7.547,82,26.3,OK,132,0,0,0,0,0,65,100,0.0,0,0.0,2.68667384E14,8.8E-44,0.0,3.041665E-35,64,6.379443E-6,-4.429172E-8,1.2018347E-30,False,False,0,None,-2.9675062E-38,1.0726879E-17,
535769655,30.443,10.405590557695147,63.41954843821651,14,61.443203,61.356873,-0.0320131,-0.019960053,-1.1763021,1.1769068,8.545137,-17.477077,6.1696687,20.409126,-114,-366,1468,1517.0,-0.21407077,-0.21679296,-3.7267609,3.7391942,0.30467274214387724,-0.23779738476198775,1.2336486904631792,-1.5117058236996546,131.12644519709468,131.12644519709465,6.799777914438915,55.8627993444215,-6.973215790236476,110.98457116861152,5.9042440546084,15.960463976035738,-146.81792015036436,-143.65980360652426,65.02,10.886847972412106,,10.4055914,63.4195482,20190906,72450,2019-09-06T07:24:50Z,42.7,0.84,1.6,9.17,8,6,14,-0.57,-0.36,-1.24,0,0,0,10000,5,5,10.405678609772792,63.419584034754045,60,11623554,20,84,456,2942,3518,4181,4203,-613,16755,25,2,16132,0,false,false,false,false,false,false,false,false,false,false,6333,6529,5775,5789,55,72,71,56,1643,1669,1562,1556,1625,1676,1567,1542,0.0,0.0,0.0,0.0,1562.0,1557.6,1557.6,1562.0,5.76,4.97,4.3,3.74,0,0,0,0,172.0182679128504,10.405590204628185,63.419547731628896,0,61.443203,61.466312,-0.0320131,-0.019960053,-1.1763021,1.1769068,8.545137,-17.477077,6.1696687,20.409126,-114,-366,1468,1517.0,-0.034084704,-0.07550942,-3.7248192,3.7257404,0.0828458805330095,0.004142952947528214,0.5209304587199934,-1.364245033719181,121.98830548677527,121.98830548677529,6.419234887347166,54.66575077958705,-6.554189485002478,111.42345576546293,5.9701319378579285,7104272.466952071,-137.67277822847973,-134.51466168463963,65.02,NONE,0.0,0.0,0.0,NONE,-1.32585529087239E-9,-1.2122192590981897E-9,-0.0074806213,2,64.89,66.85,55.85,54.74,15.811,15.811,5.58,8.096667,0,2851,3.972,12.0,11.61,82,26.3,OK,133,0,0,0,0,0,65,100,0.0,0,0.0,3.11991793E13,8.8E-44,0.0,3.041665E-35,64,4.593935E-5,-1.1340901E-7,1.526691E-30,False,False,0,None,-3.8493422E-38,2.548267E-17,
