Tick#,offsetTime,IMU_ATTI(0):Longitude,IMU_ATTI(0):Latitude,IMU_ATTI(0):numSats,IMU_ATTI(0):barometer:Raw,IMU_ATTI(0):barometer:Smooth,IMU_ATTI(0):accel:X,IMU_ATTI(0):accel:Y,IMU_ATTI(0):accel:Z,IMU_ATTI(0):accel:Composite,IMU_ATTI(0):gyro:X,IMU_ATTI(0):gyro:Y,IMU_ATTI(0):gyro:Z,IMU_ATTI(0):gyro:Composite,IMU_ATTI(0):mag:X,IMU_ATTI(0):mag:Y,IMU_ATTI(0):mag:Z,IMU_ATTI(0):mag:Mod,IMU_ATTI(0):velN,IMU_ATTI(0):velE,IMU_ATTI(0):velD,IMU_ATTI(0):velComposite,IMU_ATTI(0):velH,IMU_ATTI(0):GPS-H,IMU_ATTI(0):roll,IMU_ATTI(0):pitch,IMU_ATTI(0):yaw,IMU_ATTI(0):yaw360,IMU_ATTI(0):totalGyro:Z,IMU_ATTI(0):totalGyro:X,IMU_ATTI(0):totalGyro:Y,IMU_ATTI(0):magYaw,IMU_ATTI(0):distanceHP,IMU_ATTI(0):distanceTravelled,IMU_ATTI(0):directionOfTravel[mag],IMU_ATTI(0):directionOfTravel[true],IMU_ATTI(0):temperature,General:relativeHeight,General:absoluteHeight,GPS(0):Long,GPS(0):Lat,GPS(0):Date,GPS(0):Time,GPS:dateTimeStamp,GPS(0):heightMSL,GPS(0):hDOP,GPS(0):pDOP,GPS(0):sAcc,GPS(0):numGPS,GPS(0):numGLNAS,GPS(0):numSV,GPS(0):velN,GPS(0):velE,GPS(0):velD,RC:Aileron,RC:Elevator,RC:Rudder,RC:Throttle,Controller:navHealth,Controller:ctrl_level,HP:Longitude,HP:Latitude,HP:rthHeight,BatBlackBox:tick,BatBlackBox:id,BatBlackBox:rsoc,BatBlackBox:index,BatBlackBox:rm,BatBlackBox:fcc,BatBlackBox:cell_min,BatBlackBox:cell_max,BatBlackBox:current,BatBlackBox:voltage,BatBlackBox:temp,BatBlackBox:flag,BatBlackBox:reserve,BatBlackBox:user_data,OA:avoidObst,OA:emergBrake,OA:radiusLimit,OA:airportLimit,OA:groundForceLanding,OA:horizNearBoundary,OA:vertLowLimit,OA:vertAirportLimit,OA:roofLimit,OA:hitGroundLimit,Motor:Speed:RFront,Motor:Speed:LFront,Motor:Speed:LBack,Motor:Speed:RBack,Motor:EscTemp:RFront,Motor:EscTemp:LFront,Motor:EscTemp:LBack,Motor:EscTemp:RBack,Motor:PPMrecv:RFront,Motor:PPMrecv:LFront,Motor:PPMrecv:LBack,Motor:PPMrecv:RBack,Motor:PPMsend:RFront,Motor:PPMsend:LFront,Motor:PPMsend:LBack,Motor:PPMsend:RBack,Motor:V_out:RFront,Motor:V_out:LFront,Motor:V_out:LBack,Motor:V_out:RBack,Motor:Volts:RFront,Motor:Volts:LFront,Motor:Volts:LBack,Motor:Volts:RBack,Motor:Current:RFront,Motor:Current:LFront,Motor:Current:LBack,Motor:Current:RBack,Motor:Status:RFront,Motor:Status:LFront,Motor:Status:LBack,Motor:Status:RBack,Motor:thrustAngle,IMU_ATTI(1):Longitude,IMU_ATTI(1):Latitude,IMU_ATTI(1):numSats,IMU_ATTI(1):barometer:Raw,IMU_ATTI(1):barometer:Smooth,IMU_ATTI(1):accel:X,IMU_ATTI(1):accel:Y,IMU_ATTI(1):accel:Z,IMU_ATTI(1):accel:Composite,IMU_ATTI(1):gyro:X,IMU_ATTI(1):gyro:Y,IMU_ATTI(1):gyro:Z,IMU_ATTI(1):gyro:Composite,IMU_ATTI(1):mag:X,IMU_ATTI(1):mag:Y,IMU_ATTI(1):mag:Z,IMU_ATTI(1):mag:Mod,IMU_ATTI(1):velN,IMU_ATTI(1):velE,IMU_ATTI(1):velD,IMU_ATTI(1):velComposite,IMU_ATTI(1):velH,IMU_ATTI(1):GPS-H,IMU_ATTI(1):roll,IMU_ATTI(1):pitch,IMU_ATTI(1):yaw,IMU_ATTI(1):yaw360,IMU_ATTI(1):totalGyro:Z,IMU_ATTI(1):totalGyro:X,IMU_ATTI(1):totalGyro:Y,IMU_ATTI(1):magYaw,IMU_ATTI(1):distanceHP,IMU_ATTI(1):distanceTravelled,IMU_ATTI(1):directionOfTravel[mag],IMU_ATTI(1):directionOfTravel[true],IMU_ATTI(1):temperature,IMUEX(0):err,IMUEX(0):rtk_Longitude,IMUEX(0):rtk_Latitude,IMUEX(0):rtk_Alti,IMUEX(1):err,IMUEX(1):rtk_Longitude,IMUEX(1):rtk_Latitude,IMUEX(1):rtk_Alti,MotorCtrl:Status,MotorCtrl:PWM:RFront,MotorCtrl:PWM:LFront,MotorCtrl:PWM:LBack,MotorCtrl:PWM:RBack,BattInfo:Voltage,BattInfo:BatVoltage,BattInfo:AdVoltage,BattInfo:AvgCurrent,BattInfo:R_time,BattInfo:R_CAP_MAH,BattInfo:LowCellVoltage,BattInfo:LowCellVolThreshold,BattInfo:BatCurrent,BattInfo:Remaining%,BattInfo:Temp,BattInfo:status,battery_info:BatDynCnt,battery_info:Vol1Protect,battery_info:Vol2Protect,battery_info:Cap1Protect,battery_info:Cap2Protect,battery_info:Batpresent,battery_info:sopPercentage,battery_info:sopValue,battery_info:sopScale,battery_info:sopFlg,BattInfo:WindHeading:WindDir,battery_info:home_dir,BattInfo:Wind:rangeMin,BattInfo:Wind:rangeMax,battery_info:cap_speed,battery_info:against_wind,battery_info:emergency_land_cap,battery_info:intel_bat_land_cap,battery_info:intel_bat_gh_cap,BattInfo:Smart:SmartGh,BattInfo:Smart:SmartLand,BattInfo:GoHome:CntDown,BattInfo:GoHome:GhCmd,BattInfo:GoHome:CapLevel,BattInfo:GoHome:LandCapLv,Attribute|Value,ConvertDatV3,3.6.6-Tablet
315603336,.000,13.993113880217914,66.3857444977542,20,25.860384,25.97743,0.07161678,-0.016224038,-0.9766976,0.97945416,0.23667945,0.04965502,0.19768454,0.31234908,-385,-131,1505,1558.0,-0.012130905,-0.15775396,0.009083108,0.1584802,0.15821968980887163,-0.15821968980887163,1.5779929205668026,4.057060895396934,-179.25372810684644,180.74627189315356,189.9679973024401,43.613587248221656,59.58469096210618,148.18229697465108,3.9692397349582915,8.749799518486183,30.56787478958845,35.84326542209947,54.67,-0.6509840125732431,,13.9931156,66.3857442,20190520,153949,2019-05-20T15:39:49Z,68.656,0.55,1.21,9.75,11,9,20,-0.02,0.0,0.02,-9978,-9968,9892,-9968,5,5,13.993109152740923,66.38578014371764,50,2081111,19,100,177,3572,3572,4388,4392,170,17581,24,1,17583,0,false,false,false,false,false,false,false,false,false,false,0,0,0,0,50,65,65,51,944,945,945,945,940,940,940,940,0.0,0.0,0.0,0.0,1665.6,1660.7,1660.0,1665.6,0.0,0.0,0.0,0.0,0,0,0,0,-45.0,13.993113734028075,66.38574406609727,0,25.831318,26.080574,0.07161253,-0.0161837,-0.9768817,0.9796367,0.25481075,-0.2061632,0.17525917,0.37168208,-385,-131,1505,1558.0,-1.2930317E-4,-0.0013322926,6.9110474E-4,0.0015064358,0.0013385525264529375,-0.0013385525264529375,0.7924337306994513,4.47162086873345,-167.08419471516623,192.91580528483377,190.29842942255235,45.32029517052542,60.88048538787932,150.34680132134562,4.0168349510487324,9.963967259368996,-117.72631213224349,-112.45092149973247,54.66,NONE,0.0,0.0,0.0,NONE,-1.3901268212992945E-10,0.0,1.9073486E-6,,,,,,16.755,16.755,5.979,1.3371415,0,3042,4.189,12.0,1.351,86,27.1,OK,78,0,0,0,0,0,65,100,0.0,0,0.0,2.6238534E19,2.65E-43,0.0,-1.05007105E-23,62,1.6391368E-8,-1.6391487E-8,2.6485495E-32,False,False,0,None,5.686934E34,1.0842106E-19,Firmware Date| Oct 17 2018
319457270,1.002,13.993114209141513,66.38574381598659,20,25.919834,25.958466,0.07303923,-0.018044706,-0.97538567,0.978283,0.25047642,-0.19335271,-0.78758407,0.8487711,-380,-131,1497,1550.0,-0.021182306,-0.25877002,0.007532011,0.25974476,0.25963553419400653,-0.18254857615635864,1.540443457468956,4.095191494583042,-179.27016875669761,180.72983124330239,189.6504454432003,43.9957419362011,59.50595482351444,147.8530578622301,4.045733236782585,8.937552924205523,-171.28571343827323,-166.0103228057622,54.92,0.04246713696289106,,13.9931157,66.3857437,20190520,153949,2019-05-20T15:39:49Z,68.801,0.55,1.21,9.69,11,9,20,0.01,0.0,0.0,0,0,0,0,5,5,13.993109152740923,66.38578014371764,50,2081112,114,100,178,3572,3572,4384,4388,3,17522,24,3563,676,0,false,false,false,false,false,false,false,false,false,false,538,566,547,554,55,69,69,55,1320,1331,1327,1324,1312,1312,1312,1312,0.1,0.1,0.1,0.1,1643.5,1637.3,1638.0,1643.5,7.68,7.16,7.72,7.33,0,0,0,0,98.13010235415595,13.993114829454306,66.38574333511082,0,25.919834,26.077572,0.073029846,-0.017193593,-0.9757773,0.9786574,0.5841282,0.0017134653,-0.30187756,0.6575247,-383,-131,1497,1550.0,0.0042956215,0.002226358,0.00461788,0.0066883373,0.004838288420355976,0.08981068908739667,0.9053770017352486,4.63626003276728,-167.08116850447317,192.91883149552683,190.52016914589248,45.421480634042766,60.86785890332714,149.3469765055469,4.100733256262188,10.140353739522352,-163.07105177058068,-157.79566113806965,54.95,NONE,0.0,0.0,0.0,NONE,0.0,4.283483558740849E-11,1.9073486E-5,1,22.5,22.5,22.5,22.5,16.732,16.732,5.903,1.3766822,0,3042,4.188,12.0,3.296,86,27.1,OK,79,0,0,0,0,0,65,100,0.0,0,0.0,1.6226447E38,2.65E-43,0.0,-1.05007105E-23,62,1.6391368E-8,-1.6391487E-8,3.5623882E-32,False,False,0,None,8.585544E34,1.0842106E-19,ACType|MavicEnterprise
323335220,2.009,13.99311388246884,66.38574314945468,20,25.919834,25.9633,0.06859688,-0.020512216,-0.9794559,0.9820693,-0.66861737,0.2645619,0.6902675,0.9967504,-377,-128,1502,1553.0,-0.010322873,-0.06691665,0.0036205396,0.067804925,0.06770819731234068,0.007232433088907031,1.379690259427303,4.098343632893814,-179.28563671260375,180.71436328739625,188.53320106279108,44.36117386086132,58.77574835891412,148.60540513723177,4.118965485635261,9.066718273813368,-148.9864924379557,-143.71110180544466,55.21,0.04246713696289106,,13.9931151,66.3857431,20190520,153951,2019-05-20T15:39:51Z,68.901,0.55,1.21,9.61,11,9,20,0.02,0.0,0.01,0,0,0,0,5,5,13.993109152740923,66.38578014371764,50,2103191,48,100,179,3568,3572,4373,4377,0,17474,25,212,3,0,false,false,false,false,false,false,false,false,false,false,2021,2000,2099,2095,55,68,68,56,1206,1206,1210,1213,1201,1200,1208,1208,0.0,0.0,0.0,0.0,1660.7,1655.8,1655.8,1660.7,0.53,0.19,0.81,0.34,0,0,0,0,-5.612203229324905,13.993114204924082,66.38574274915784,0,25.919834,26.078915,0.07160083,-0.016408138,-0.97683126,0.9795893,0.91418463,1.0807865,-1.0783302,1.7795024,-380,-128,1505,1557.0,-0.0035549165,-0.001958057,0.0011730462,0.004224625,0.004058499519326551,0.06623384420649205,0.9087386126976613,4.61617366359159,-167.1359557938038,192.8640442061962,189.97103678483492,46.159149444241145,60.316018677958276,149.50272282622058,4.164170305041241,10.281949971547254,-168.01661911951945,-162.7412284870084,55.22,NONE,0.0,0.0,0.0,NONE,-5.613973407477404E-11,-7.710270403925854E-11,0.0,2,10.16,10.0,10.98,11.14,16.597,16.597,5.961,1.5182695,0,3040,4.188,12.0,3.351,86,27.1,OK,80,0,0,0,0,0,65,100,0.0,0,0.0,3.64439726E18,2.65E-43,0.0,-1.05007105E-23,62,1.6391368E-8,-1.6391487E-8,3.9768393E-32,False,False,0,None,1.10889E35,1.0842106E-19,dateTime|2019-5-20 15:38:59 GMT
327242322,3.025,13.9931133685187,66.38574303244121,20,25.919834,25.964602,0.07270722,-0.016995843,-0.97558856,0.9784417,-2.138998,-0.10292097,-0.4304527,2.1843066,-377,-128,1508,1559.0,-0.013680764,-0.075269036,0.002467497,0.07654201,0.0765022303358961,-0.05057088078419371,1.2928565685034037,4.095692640086571,-179.28872753924753,180.71127246075247,188.08958539386808,44.11805025150386,58.23025975133532,148.90270778184478,4.130855889620182,9.16366765994149,-139.19078384960926,-133.91539321709823,55.52,0.04246713696289106,,13.9931142,66.3857425,20190520,153952,2019-05-20T15:39:52Z,68.989,0.55,1.21,9.53,11,9,20,-0.02,0.0,0.0,0,0,0,0,5,5,13.993109152740923,66.38578014371764,50,2103191,48,100,180,3568,3572,4373,4377,0,17474,25,212,3,0,false,false,false,false,false,false,false,false,false,false,2340,2331,2373,2387,56,71,70,56,1228,1233,1234,1238,1224,1223,1223,1224,0.0,0.0,0.0,0.0,1660.0,1655.8,1655.2,1658.8,0.61,0.16,0.75,0.31,0,0,0,0,-14.48976259388445,13.993113529647157,66.38574241657118,0,25.919834,26.06081,0.07227317,-0.017677497,-0.97795695,0.9807832,-0.8786495,-2.7110267,-0.62803996,2.91824,-380,-128,1511,1563.0,0.020390796,0.004450535,0.020050025,0.028941238,0.02087083591417582,0.026073771972248614,0.9473266275681722,4.638384157884411,-167.13955651604564,192.86044348395436,190.45347771868958,46.93346387284328,59.7401344283545,149.2151109838373,4.199594931151965,10.392420852994801,-153.17855664171216,-147.90316600920113,55.5,NONE,0.0,0.0,0.0,NONE,7.217965741721282E-11,9.209489655030055E-11,1.335144E-5,2,12.72,12.33,12.78,13.23,16.685,16.685,5.946,1.5182695,0,3040,4.135,12.0,3.351,86,27.1,OK,80,0,0,0,0,0,65,100,0.0,0,0.0,0.932312,2.65E-43,0.0,-1.05007105E-23,62,1.6391368E-8,-1.6391487E-8,4.2242762E-32,False,False,0,None,1.2582953E35,1.0842106E-19,geoDeclination|528 degrees
331178738,4.048,13.993113678817037,66.38574205842652,19,25.919834,25.965656,0.0744487,-0.01534726,-0.9741276,0.97708887,-1.6130083,1.1169915,1.7826161,2.6508842,-377,-125,1508,1559.0,-0.014822844,-0.13156912,-0.003594976,0.13245027,0.13240147548851716,-0.025678345870834104,1.217212311833159,4.080865457817118,-179.31470143284514,180.68529856715486,188.11538570112734,44.04353208307369,58.19848453760138,149.7239633556076,4.239687017578368,9.302231244922709,159.71891659676535,164.9943072292764,55.85,0.04246713696289106,,13.9931146,66.385742,20190520,153953,2019-05-20T15:39:53Z,69.105,0.57,1.25,9.47,10,9,19,0.0,0.0,0.0,0,0,0,0,5,5,13.993109152740923,66.38578014371764,50,2103191,48,100,181,3568,3572,4373,4377,0,17474,25,212,3,0,false,false,false,false,false,false,false,false,false,false,2031,2004,2116,2118,54,69,69,55,1209,1208,1219,1219,1202,1200,1203,1203,0.0,0.0,0.0,0.0,1660.7,1655.8,1656.4,1661.3,0.65,0.23,0.78,0.37,0,0,0,0,-8.291271491691077,13.993114014631352,66.38574179966811,0,25.919834,26.023575,0.07193214,-0.013413498,-0.9782172,0.98095006,-0.64691377,-2.127893,-0.9235472,2.4081872,-377,-128,1505,1556.0,0.041894108,0.0039007012,0.019838022,0.04651751,0.042075310541256135,0.028221422991364244,0.9629005528072485,4.689920597064109,-167.18416353744905,192.81583646255095,190.22153590556428,47.008079583625104,59.243807024876624,148.77920837978135,4.2691599298064995,10.50225360599324,160.48586612269207,165.7612567552031,55.85,NONE,0.0,0.0,0.0,NONE,3.0475854852372083E-10,8.845393659010366E-10,1.1634827E-4,2,10.49,10.0,10.37,10.89,16.674,16.674,5.959,1.7309612,0,3039,4.168,12.0,2.144,86,27.1,OK,81,0,0,0,0,0,65,100,0.0,0,0.0,7.940096E7,2.65E-43,0.0,-1.05007105E-23,62,1.6391368E-8,-1.6391487E-8,4.7004925E-32,False,False,0,None,1.5459506E35,1.0842106E-19,geoInclination|7646 degrees
335030629,5.049,13.99311385283858,66.38574211246481,19,25.919834,25.993309,-0.021463728,-0.029163364,-1.222293,1.2228292,5.126239,-24.630116,-1.3155886,25.192293,-211,-131,1529,1549.0,0.017558713,-0.005343418,-0.28849962,0.28908285,0.01835375932020402,-0.008556882641808103,-0.012367227324016314,-2.5963797236631154,-177.99780448510361,182.00219551489639,190.048815255833,44.553004836744385,51.126043816795494,154.9863293448369,4.234061223234938,9.386832966571573,-109.58976437666767,-104.31437374415665,56.12,0.04246713696289106,,13.993114,66.3857417,20190520,153954,2019-05-20T15:39:54Z,69.217,0.57,1.25,9.43,10,9,19,0.01,0.01,-0.02,0,0,0,10000,5,5,13.993109152740923,66.38578014371764,50,2103191,48,100,182,3568,3572,4373,4377,0,17474,25,212,3,0,false,true,false,false,false,false,true,false,false,false,5463,5709,5004,5115,52,68,68,52,1631,1501,1548,1464,1641,1644,1424,1387,0.0,0.0,0.0,0.0,1614.1,1607.3,1610.4,1615.3,4.87,2.66,7.67,6.12,0,0,0,0,172.69424046668917,13.993113587367146,66.38574148359844,0,25.919834,26.05701,-0.033888225,-0.025828194,-1.2365874,1.2373213,-5.6772165,-10.8933935,-4.249389,12.998236,-228,-128,1529,1551.0,0.034769658,0.036526527,-0.2889876,0.29335463,0.05042932137194634,-0.010505519682334041,-0.20797869376131803,-1.8791998864535027,-165.86249461754747,194.13750538245253,189.05377639965116,45.071508947700224,54.16094062238595,156.2306452734533,4.303344859486341,10.574438541299319,122.179792275357,127.45518290786802,56.14,NONE,0.0,0.0,0.0,NONE,2.892532798915955E-9,-2.35591595257731E-11,-0.0012569427,2,64.07,62.72,41.33,37.5,16.675,16.675,5.881,1.9218806,0,3039,4.159,12.0,1.999,86,27.1,OK,82,0,0,0,0,0,65,100,0.0,0,0.0,3.7211925E-5,2.65E-43,0.0,-1.05007105E-23,62,1.6391368E-8,-1.6391487E-8,4.939899E-32,False,False,0,None,1.713813E35,1.0842106E-19,geoIntensity|5257920 nanoTesla
338889731,6.052,13.993115495577909,66.38574201421753,18,28.365887,27.623873,-0.028923538,-0.004380607,-1.3108772,1.3112036,4.8437953,1.2080368,37.20124,37.534702,-211,-125,1532,1551.0,-0.016366526,-0.0494283,-3.4969158,3.4973035,0.052067455712753966,0.021696115373234764,0.05791242257151632,-2.0948442392353046,-176.5553482089101,183.4446517910899,192.62341624507496,45.54098492948329,51.82420577580682,154.62865642448534,0.09162083480626419,9.508340763385833,60.288820368677335,65.56421100118835,56.38,2.4885196882324223,,13.9931157,66.3857416,20190520,153955,2019-05-20T15:39:55Z,70.984,0.59,1.27,9.4,10,8,18,-0.02,-0.22,-1.37,0,0,8324,10000,5,5,13.993113440103683,66.38574204539731,50,2175598,48,100,183,3563,3571,4371,4375,0,17466,25,212,4,0,false,false,false,false,false,false,true,false,false,false,6938,6805,6391,5611,54,69,69,54,1680,1679,1624,1529,1671,1675,1608,1515,0.0,0.0,0.0,0.0,1601.8,1595.0,1596.9,1601.8,6.66,5.42,5.91,3.0,0,0,0,0,159.61365002039062,13.993115617007293,66.38574183881245,0,28.276049,27.875467,-0.03016983,-0.011836562,-1.3194246,1.3198225,-14.490163,-1.9159191,13.683449,20.021795,-208,-122,1535,1553.0,0.024439167,0.0040761046,-3.65489,3.654974,0.024776753283622742,0.07358806705800247,0.041235754980339545,-1.5197776696587906,-164.57273938141904,195.42726061858096,190.0333060327094,45.33896577527623,52.56581755140558,153.659038634883,0.09964778297554275,10.741847235458835,50.102914200615,55.378304833126016,56.4,NONE,0.0,0.0,0.0,NONE,-1.6734983222353671E-9,3.1783441364370773E-9,-0.023324966,2,68.0,65.38,60.14,53.7,16.563,16.563,5.735,2.4016356,0,3037,4.168,12.0,12.031,86,27.2,OK,84,0,0,0,0,0,65,100,0.0,0,0.0,-7.213866E19,2.68E-43,0.0,-1.05007105E-23,62,1.5078331E-7,-5.014068E-8,4.6489524E-35,False,False,0,None,6.2823523E29,3.0748787E-19,mcID(SN)|298DG13001W644
342746599,7.054,13.993118596680638,66.38574067385179,20,32.73593,31.592747,-0.059874054,-0.05843875,-0.98244804,0.9860041,-6.01466,-4.63427,3.2804368,8.271267,-185,72,1535,1547.0,-0.017838266,0.18005611,-3.8194046,3.823688,0.18093757545390557,0.021786930824047424,1.7575112786667177,-2.3524255886450294,-151.33341051564173,208.66658948435827,217.5358786791506,46.07452790661406,52.61655552128072,-174.26714360807154,0.2757066309559776,9.814439580398874,113.6170389150869,118.89242954759791,56.64,6.858564396484375,,13.9931188,66.3857405,20190520,153956,2019-05-20T15:39:56Z,75.251,0.55,1.21,9.26,11,9,20,0.01,0.24,-3.09,0,3747,4271,10000,5,5,13.993113440103683,66.38574204539731,50,2175598,48,100,184,3563,3571,4371,4375,0,17466,25,212,4,0,false,false,false,false,false,false,true,false,false,false,5981,6414,5747,5772,53,69,68,54,1575,1638,1585,1555,1590,1616,1543,1556,0.0,0.0,0.0,0.0,1610.4,1603.6,1604.3,1609.1,4.42,4.87,5.31,3.74,0,0,0,0,155.0260890941166,13.99311794379336,66.3857400022129,0,32.630238,32.044754,-0.06018398,-0.053054858,-0.9853192,0.9885802,14.787028,2.1845284,22.501503,27.013811,-188,68,1535,1547.0,-0.011037465,0.17090696,-4.0173564,4.021005,0.17126300074137513,0.05720635111677996,1.9746460897834581,-1.691518698644992,-139.26653132758122,220.73346867241878,216.17273090885675,46.67133317166324,51.74324781587565,-176.30421121288404,0.3030809101880693,11.055909116939612,111.56758436448449,116.84297499699551,56.64,NONE,0.0,0.0,0.0,NONE,3.241932429292288E-8,-2.7414267774317816E-10,-0.029903412,2,60.62,61.05,51.18,54.41,16.209,16.209,5.784,3.1642554,0,3031,4.14,12.0,10.064,85,27.2,OK,85,0,0,0,0,0,65,100,0.0,0,0.0,1.21238896E33,2.68E-43,0.0,-1.05007105E-23,62,1.1570752E-5,-4.311315E-7,1.774916E-34,False,False,0,None,7.1455446E30,2.114843E-18,mcVer|v3.4.1.6
346607807,8.058,13.993117757603327,66.38573448090531,20,37.218624,35.161568,-0.075685576,-0.037317015,-1.0869406,1.0902114,-5.9406977,23.560041,-5.3465858,24.878775,430,164,1511,1579.0,-2.1130285,-1.2188174,-3.7521365,4.47537,2.439345223794617,-1.7521201372493378,1.674304093199979,-21.926244485310082,-140.8168593853083,219.1831406146917,228.7621154328003,49.71172252159582,34.47927923795241,-144.33014099422226,0.8628373802451832,10.594267550666592,-160.09722390123696,-154.82183326872592,56.95,11.341257114990235,,13.9931175,66.385736,20190520,153957,2019-05-20T15:39:57Z,79.205,0.55,1.21,9.06,11,9,20,-1.39,-0.8,-3.62,0,6292,2490,10000,5,5,13.993113440103683,66.38574204539731,50,2175598,48,100,184,3563,3571,4371,4375,0,17466,25,212,4,0,false,false,false,false,false,false,true,false,false,false,6683,6968,6286,6403,53,69,69,53,1652,1682,1613,1627,1644,1681,1614,1611,0.0,0.0,0.0,0.0,1595.7,1588.9,1589.5,1595.0,5.8,5.46,5.15,4.85,0,0,0,0,170.0939819716582,13.993112616570539,66.3857341413418,0,37.42253,35.711735,-0.091704495,-0.03610731,-1.0786868,1.08318,-6.7838707,28.969913,-4.00415,30.021824,381,170,1517,1573.0,-1.6981622,-1.749679,-3.7238033,4.4510493,2.438263993475662,-1.7471368732602213,2.1097515204860824,-18.26808192369204,-128.49024209170724,231.50975790829276,226.1339503168021,50.501794358875536,35.335187073425516,-135.3315824983506,0.8796560277921516,11.984156899906523,-148.17633083012498,-142.90094019761395,56.94,NONE,0.0,0.0,0.0,NONE,-6.6659142197185E-8,-2.8450858023317668E-8,-0.009140015,2,66.01,70.16,60.94,61.39,16.251,16.251,5.712,3.1642554,0,3031,4.016,12.0,10.064,85,27.2,OK,85,0,0,0,0,0,65,100,0.0,0,0.0,1.40392242E17,8.4E-44,0.0,-1.05007105E-23,63,3.6033243E-4,-2.4566114E-6,9.249321E-34,False,False,0,None,1.3258833E32,1.00003365E-17,
350467004,9.061,13.993065783476991,66.38570954905319,20,42.19047,39.2417,-0.13869517,0.04707717,-1.016976,1.0274692,0.0035785923,-11.646719,24.239292,26.89218,567,291,1455,1588.0,-3.1567476,-3.3060284,-3.9901729,6.0676484,4.571091596922027,-0.9700605013239643,1.6010641020027176,-25.53156532979754,-112.5844525255307,247.4155474744693,256.40223599225465,59.7497163893097,29.281254974300783,-115.3861209461497,4.190804945942655,14.233062055477616,-138.84356349256478,-133.56817286005375,57.22,16.313104649169922,,13.9930737,66.3857137,20190520,153958,2019-05-20T15:39:58Z,83.256,0.55,1.21,8.92,11,9,20,-3.0,-2.65,-3.97,0,7369,6465,10000,5,5,13.993113440103683,66.38574204539731,50,2175598,48,100,185,3563,3571,4371,4375,0,17466,25,212,4,0,false,false,false,false,false,false,false,false,false,false,6828,6808,6367,6669,55,69,69,55,1706,1694,1621,1640,1691,1660,1634,1637,0.0,0.0,0.0,0.0,1587.0,1582.2,1582.8,1585.8,7.22,5.88,5.24,4.02,0,0,0,0,-151.77902744413217,13.993064709190975,66.38571060291471,0,42.240673,39.46416,-0.14006847,0.04873945,-1.0060915,1.0169635,-8.01951,-3.4941921,11.547927,14.487117,556,288,1461,1589.0,-2.5484176,-3.7093604,-3.9168842,5.966219,4.5004206566760105,-1.1334907388961093,2.2986241086012242,-24.91197473270261,-102.22254271860633,257.77745728139365,249.53954050190399,58.896080748190705,28.686049413843794,-116.75031282646788,4.115233266407937,15.376029500099984,-145.1803817881489,-139.90499115563787,57.23,NONE,0.0,0.0,0.0,NONE,-6.136640486444344E-7,-1.7198578900198914E-7,-0.029472351,2,71.19,68.28,65.93,64.75,16.113,16.113,5.698,4.275384,0,3028,4.054,12.0,11.47,85,27.2,OK,86,0,0,0,0,0,65,100,0.0,0,0.0,4.9176695E-30,8.8E-44,0.0,-1.05007105E-23,63,0.017451763,-1.6913871E-5,2.6313777E-31,False,False,0,None,3.2207655E36,5.4641463E-17,
354392147,10.081,13.992982041242382,66.38568345429988,20,42.636047,42.733578,-0.12241936,0.01685799,-0.5757647,0.5888766,39.50372,-18.366598,1.3396562,43.58521,-397,445,1393,1515.0,-2.2870152,-3.1289399,-2.2145774,4.463749,3.875655334186617,0.7568533432133311,11.275414528966332,10.847915358301782,-109.13743634414675,250.86256365585325,257.9602432316878,68.75831942984739,61.17414057996417,-125.36380833947267,8.757901351519711,18.96103074627568,-131.14979818562423,-125.87440755311322,57.71,16.75868036328125,,13.9929919,66.3856871,20190520,153959,2019-05-20T15:39:59Z,87.358,0.55,1.21,8.8,11,9,20,-2.69,-3.66,-3.94,5629,0,0,0,5,5,13.993113440103683,66.38574204539731,50,2175598,48,100,186,3563,3571,4371,4375,0,17466,25,212,4,0,false,false,false,false,false,false,false,false,false,false,3487,3366,4181,3944,55,70,70,55,1337,1307,1371,1365,1305,1365,1405,1333,0.0,0.0,0.0,0.0,1634.3,1629.4,1630.6,1634.9,2.73,0.48,1.45,2.12,0,0,0,0,5.210673812179891,13.992983229424402,66.38568389822545,0,42.646614,42.93243,-0.12424146,0.0146583775,-0.5769831,0.59038997,30.365282,-32.116104,5.1527863,44.497704,-414,433,1393,1516.0,-2.2436357,-2.995218,-2.13191,4.3070025,3.7423564578083424,0.8543920999367707,11.516526038935767,11.067500521905915,-108.14330822273556,251.85669177726444,256.62701415217464,70.4771138881378,60.706769678102894,-131.13772595560846,8.685814318601764,20.071905519953212,-130.77205867787148,-125.49666804536045,57.7,NONE,0.0,0.0,0.0,NONE,-6.053331840820171E-7,-1.7820102777391504E-7,-0.021606445,2,28.47,27.79,34.6,27.88,16.088,16.088,5.829,5.563606,0,3024,4.01,12.0,12.758,85,27.3,OK,87,0,0,0,0,0,65,100,0.0,0,0.0,0.009541273,8.8E-44,0.0,-1.05007105E-23,63,0.6938324,-1.0643576E-4,6.264574E-28,False,False,0,None,-4.352773E-37,2.9537227E-16,
358241321,11.081,13.99292335470675,66.38567681719206,20,44.24934,43.40657,-0.13860472,-0.030433498,-1.0691442,1.0785207,1.3810036,-1.3227628,5.029655,5.38092,-125,852,1197,1474.0,1.2725073,-2.4059806,-0.16258803,2.7266192,2.72176728588399,-0.006593836923364016,24.563701412180773,-0.16327438724124463,-107.72076868256208,252.2792313174379,258.2975208024313,80.89392020930154,52.86986268626776,-114.96711135951713,11.148709406923336,21.786690335037783,-82.39544944468588,-77.12005881217486,57.94,18.371973057373047,,13.9929315,66.3856754,20190520,154000,2019-05-20T15:40:00Z,88.725,0.55,1.21,8.65,11,9,20,0.2,-2.37,-1.91,9851,0,0,0,5,5,13.993113440103683,66.38574204539731,50,2175600,114,100,187,3563,3571,4371,4375,0,17466,25,3572,1,0,false,false,false,false,false,false,false,false,false,false,5111,5309,5517,5430,55,70,70,55,1514,1533,1543,1533,1502,1518,1528,1526,0.0,0.0,0.0,0.0,1610.4,1606.7,1606.7,1611.6,3.94,4.02,4.54,3.7,0,0,0,0,28.404388082591993,13.992924739453374,66.38567593798297,0,44.19649,43.42212,-0.1372067,-0.046584256,-1.0671967,1.0769887,-8.176143,-11.991309,-10.458472,17.889114,-128,849,1200,1475.0,1.2367382,-2.407301,0.0708346,2.7073302,2.706403387008834,0.044074641813513615,24.637617209483672,-0.3133384061316967,-109.0626453219631,250.9373546780369,259.42179296342096,83.12783524973554,47.39921977916029,-116.59386473571635,11.16605536569651,22.980119326245497,-72.1290266653257,-66.85363603281468,57.94,NONE,0.0,0.0,0.0,NONE,-4.0450331394651776E-7,7.747943990958548E-8,5.1498413E-4,2,47.41,51.34,52.91,49.51,16.282,16.282,5.796,6.8811197,0,3021,4.003,12.0,9.732,85,27.3,OK,88,0,0,0,0,0,65,100,0.0,0,0.0,1.31614291E16,8.8E-44,0.0,-1.05007105E-23,63,1.1876221,-1.3962486E-4,2.5519754E-26,False,False,0,None,-1.2243876E-35,3.749527E-16,
362263131,12.127,13.992873580631912,66.38570456983814,20,45.43199,43.76675,-0.12512748,-0.1169638,-1.0043988,1.0188986,13.308066,0.43972695,10.435395,16.917313,20,843,1251,1508.0,4.8904414,-2.451154,-0.30195352,5.478663,5.470335812207092,-1.8350433356702012,23.901866037243245,-4.930925918696522,-106.74724614492489,253.25275385507513,261.0043186327866,83.92023981296278,50.6083702590572,-112.21322428699581,11.467761242336978,25.659523342810026,-32.183447532813325,-26.908056900302306,58.19,19.554624577148438,,13.9928826,66.385699,20190520,154001,2019-05-20T15:40:01Z,89.163,0.55,1.21,8.56,11,9,20,4.13,-2.26,-0.9,8015,0,0,0,5,5,13.993113440103683,66.38574204539731,50,2186696,16,100,188,3559,3569,4335,4345,-1251,17250,23,0,16714,0,false,false,false,false,false,false,false,false,false,false,5459,5834,5676,5354,56,72,71,55,1534,1580,1560,1512,1528,1578,1549,1498,0.0,0.0,0.0,0.0,1607.3,1603.6,1604.3,1606.7,4.05,4.02,4.56,3.32,0,0,0,0,110.67306707315316,13.992875676821422,66.3857038308434,0,45.437275,43.585396,-0.12628716,-0.11537434,-1.0057304,1.0201732,-18.10688,-11.067171,-11.131586,23.963589,17,843,1251,1508.0,4.8956766,-2.5404906,0.014912172,5.515611,5.515590764876932,-1.8857204487437773,24.169353307822032,-4.979416515901334,-108.28817146842482,251.71182853157518,256.95691790947103,79.4988046959377,39.890566813973635,-113.57228459479511,11.411169199923862,26.849397310097736,-25.15084808457254,-19.87545745206152,58.19,NONE,0.0,0.0,0.0,NONE,-4.1697192370521723E-7,2.830175516185048E-7,1.7929077E-4,2,52.38,56.03,51.87,47.71,16.285,16.285,5.776,7.9601107,0,3020,4.087,12.0,6.954,85,27.3,OK,89,0,0,0,0,0,65,100,0.0,0,0.0,-1.1659995E-24,8.8E-44,0.0,-1.05007105E-23,63,1.431427,-1.5450739E-4,4.020529E-26,False,False,0,None,-1.8509628E-35,3.9921174E-16,
366136354,13.133,13.992818921378655,66.38575948903866,19,46.17259,44.679108,-0.14696112,-0.2135125,-1.4333335,1.4565817,-21.346432,-8.159001,-0.5022441,22.858078,103,217,1544,1562.0,6.2324085,-2.6449156,-2.7678046,7.314317,6.770413085415687,-0.23956460145713532,-2.061029292304535,-5.36341501015187,-108.58466956497149,251.41533043502852,261.5080544662837,57.53855497681317,48.54286427534673,-98.54960810485014,13.261107202664618,32.23798643875958,-27.605189723850547,-22.329799091339527,58.46,20.295221348388672,,13.9928271,66.3857516,20190520,154002,2019-05-20T15:40:02Z,89.667,0.57,1.22,8.48,11,8,19,6.6,-2.79,-0.85,430,0,0,8634,5,5,13.993113440103683,66.38574204539731,50,2186696,20,100,189,3559,3569,4335,4345,-1251,17250,23,2,16714,0,false,false,false,false,false,false,false,false,false,false,6188,6891,6540,5851,56,70,69,55,1630,1681,1647,1580,1757,1528,1417,1690,0.0,0.0,0.0,0.0,1589.5,1584.6,1585.8,1589.5,5.0,5.62,6.11,3.77,0,0,0,0,116.30101719581887,13.992820284099725,66.38575885522214,0,46.064255,44.26862,-0.14838158,-0.21171899,-1.4415818,1.464582,-29.68086,3.869816,2.6797302,30.051786,103,232,1538,1558.0,6.3128843,-2.7430027,-2.4011114,7.2898498,6.883064118201532,-0.3293533101312107,-1.3629805543075781,-5.468440297189366,-109.3454854020661,250.65451459793388,258.7536467968657,55.71782452677785,40.0636461366158,-99.19553552758599,13.190893591362666,33.45002482612059,-26.430532289896433,-21.155141657385414,58.48,NONE,0.0,0.0,0.0,NONE,-4.645793109650779E-7,4.283827429560811E-7,-0.017333984,2,86.06,38.83,14.67,74.62,16.215,16.215,5.694,8.661172,0,3017,4.059,12.0,8.651,85,27.4,OK,90,0,0,0,0,0,65,100,0.0,0,0.0,-2.53706811E16,8.8E-44,0.0,-1.05007105E-23,63,2.7800903,-2.130168E-4,4.9709927E-25,False,False,0,None,-1.7385561E-34,5.450861E-16,
370031864,14.146,13.992784520803578,66.38579646228314,20,47.967957,47.133106,-0.058208585,-0.054087788,-0.59898686,0.6042342,9.731936,-1.3313128,-1.56587,9.946604,37,-523,1547,1633.0,2.2062507,-0.86980456,-1.1258531,2.6251945,2.3715188463923167,1.9621301385528924,-25.00433621271761,-2.309961377733639,-108.73722893138907,251.26277106861093,259.26802777859814,43.433034403830156,51.12167296606118,-98.98547875518399,15.851110806676662,36.62879861410986,-31.142189189835875,-25.866798557324856,58.83,22.09058954296875,,13.9927846,66.3857932,20190520,154003,2019-05-20T15:40:03Z,92.45,0.55,1.21,8.43,11,9,20,2.89,-1.18,-2.27,0,0,0,1246,5,5,13.993113440103683,66.38574204539731,50,2186707,48,100,190,3554,3569,4342,4348,-1074,17353,23,212,17355,0,false,false,false,false,false,false,false,false,false,false,3653,3690,3824,3729,56,71,71,56,1393,1391,1372,1388,1378,1389,1375,1375,0.0,0.0,0.0,0.0,1625.7,1623.2,1624.5,1626.4,2.63,2.26,2.2,1.74,0,0,0,0,32.152295141282366,13.992783245421897,66.38579822202966,0,47.99158,46.956932,-0.06276035,-0.05669259,-0.73096067,0.7358372,-8.551852,-9.3538685,-0.8633895,12.703325,43,-520,1535,1621.0,1.9384369,-0.69587135,-0.61093,2.1482575,2.0595567683809635,2.5609900659855582,-23.997861979574488,-2.6378568133280007,-109.49167742685081,250.5083225731492,261.33039354145785,38.88421072757347,42.85144816774848,-101.8516211093564,15.979104801161755,38.142379683025936,-16.396793328591446,-11.121402696080425,58.87,NONE,0.0,0.0,0.0,NONE,-6.21065079961295E-8,6.488385989103475E-8,-0.0048217773,2,33.67,35.73,35.53,34.19,16.06,16.06,5.857,9.140489,0,3014,4.045,12.0,11.867,85,27.5,OK,91,0,0,0,0,0,65,100,0.0,0,0.0,-8.515164E35,8.8E-44,0.0,-1.05007105E-23,63,41.814453,-8.317122E-4,1.773481E-23,False,False,0,None,-4.3438748E-33,1.7606157E-15,
373890887,15.149,13.992778889644404,66.38580177981068,19,49.82257,47.770878,-0.09275955,-0.027419847,-1.0042255,1.0088731,1.8747593,-8.952049,-5.914144,10.891787,72,213,1559,1575.0,-0.10733003,0.084357634,-0.55241585,0.56903356,0.13651354239517904,0.5038844088098458,0.8359297545332562,-4.678335453116693,-108.84365373663198,251.15634626336802,258.233095754583,69.74527146934305,48.64575480425118,-106.30179656396335,16.314878423735585,37.436361018469604,152.76522023809318,158.0406108706042,59.19,23.94520380078125,,13.9927769,66.3858016,20190520,154004,2019-05-20T15:40:04Z,93.04,0.57,1.22,8.37,11,8,19,-0.07,0.03,-1.07,0,0,0,2891,5,5,13.993113440103683,66.38574204539731,50,2186707,17,100,191,3554,3569,4342,4348,-998,17359,23,0,17355,0,false,false,false,false,false,false,false,false,false,false,5112,5266,5279,5244,57,72,71,57,1501,1512,1508,1507,1497,1514,1498,1492,0.0,0.0,0.0,0.0,1611.6,1607.9,1608.5,1612.2,3.78,3.14,3.6,3.46,0,0,0,0,52.50473245061198,13.992778258251832,66.38580139438783,0,49.645535,47.50408,-0.092452526,-0.023608848,-1.0056597,1.0101764,11.708773,9.298726,5.3779206,15.889735,69,210,1559,1574.0,-0.11917183,0.08009087,-0.357716,0.38545713,0.14358437159881132,0.2720596646236168,1.500059792552679,-4.664154743209171,-108.98481427020268,251.01518572979734,258.27939007491824,64.86836869660065,41.01231193782379,-109.05166424025902,16.323196127743735,38.85008394590688,121.24188046859446,126.51727110110548,59.22,NONE,0.0,0.0,0.0,NONE,4.04205679161912E-9,-2.0903329764323963E-9,-8.125305E-4,2,45.24,48.99,48.61,46.39,16.375,16.375,5.788,9.492946,0,3012,3.99,12.0,6.42,85,27.5,OK,92,0,0,0,0,0,65,100,0.0,0,0.0,-1.3599145E38,8.8E-44,0.0,-1.05007105E-23,63,78.125,-0.0011331815,3.221421E-23,False,False,0,None,-7.368375E-33,2.4723742E-15,
377815885,16.169,13.992783506893378,66.38579874518412,20,50.019688,48.059513,-0.076878965,-0.03231284,-0.964363,0.967962,-0.3518873,-11.908182,0.31932628,11.91766,55,284,1550,1576.0,-0.16448706,0.19567665,-0.1749397,0.30975676,0.25562735950528226,0.13176002976611878,3.2270403171975675,-4.148637406060588,-109.06297560594253,250.93702439405746,258.4975695265692,72.98088775480018,47.95547452843479,-106.52971811905509,15.991231143668468,37.85356088502321,117.82620313749132,123.10159377000234,59.49,24.14232065258789,,13.9927819,66.3857988,20190520,154005,2019-05-20T15:40:05Z,93.274,0.55,1.21,8.29,11,9,20,-0.24,0.25,-0.51,0,0,0,0,5,5,13.993113440103683,66.38574204539731,50,2187252,16,100,192,3553,3569,4329,4340,-1390,17230,22,0,16698,0,false,false,false,false,false,false,false,false,false,false,4974,5177,5166,5103,55,71,71,55,1492,1505,1495,1490,1487,1507,1487,1486,0.0,0.0,0.0,0.0,1614.1,1609.1,1611.0,1612.9,3.69,3.16,3.78,3.16,0,0,0,0,66.07749411698671,13.992782328242832,66.38579820180304,0,49.88493,47.817707,-0.077249445,-0.028720982,-0.96681607,0.9703225,6.8568773,8.648138,1.8561208,11.191614,55,284,1547,1573.0,-0.07244492,0.10876858,0.0062986263,0.13083786,0.13068615422999438,0.26007250568893836,4.0586874327650735,-4.370668674225526,-108.96042357586222,251.03957642413778,257.5602234226615,67.30731027790361,41.04662156112874,-110.30074201480872,16.0158379154573,39.26190357212352,138.1484833303771,143.42387396288814,59.5,NONE,0.0,0.0,0.0,NONE,6.6298275736674986E-9,-2.942743189118358E-9,-1.335144E-4,2,45.7,47.01,44.55,46.41,16.267,16.267,5.791,9.603217,0,3010,4.097,12.0,7.5,85,27.5,OK,93,0,0,0,0,0,65,100,0.0,0,0.0,-9.350353E36,8.8E-44,0.0,-1.05007105E-23,63,114.2207,-0.001408555,2.021514E-23,False,False,0,None,-4.8613744E-33,2.9212339E-15,
381665311,17.169,13.992790973266588,66.38579781253516,20,49.583828,48.03186,-0.081086345,-0.020287775,-0.98350865,0.98705417,2.1367333,8.64933,10.789832,13.992749,80,250,1553,1575.0,0.0072184727,0.18714364,-0.093547374,0.20934652,0.18728280402025252,0.16092290680001162,1.7613086775956635,-5.302881285361222,-109.29668276430203,250.70331723569797,258.4728726720618,72.48361621351455,44.69825440133027,-107.69999671382429,15.644755892088577,38.215978057585104,82.90831605461256,88.18370668712357,59.78,23.70646097241211,,13.9927889,66.3857976,20190520,154006,2019-05-20T15:40:06Z,93.247,0.55,1.21,8.26,11,9,20,-0.03,0.24,-0.19,0,0,0,0,5,5,13.993113440103683,66.38574204539731,50,2187252,20,100,193,3553,3569,4329,4340,-1390,17230,22,2,16698,0,false,false,false,false,false,false,false,false,false,false,5085,5257,5191,5155,56,72,72,56,1493,1523,1509,1487,1490,1515,1496,1484,0.0,0.0,0.0,0.0,1612.9,1608.5,1607.9,1611.6,3.7,3.38,3.76,3.1,0,0,0,0,88.89829388479359,13.99278998260271,66.38579735272819,0,49.69216,47.879772,-0.08057137,-0.023932703,-0.9818354,0.9854265,-5.7227144,-10.394233,-9.353714,15.108987,80,254,1553,1575.0,0.09180724,0.083046176,0.055213194,0.13554974,0.1237951377649021,0.22981791185214084,2.802542956396653,-5.739870781726786,-109.04723654247866,250.95276345752134,257.38300147246474,66.26017007318259,38.82023249733903,-113.35955785354636,15.665135123307444,39.62908894183342,97.34653028456773,102.62192091707875,59.79,NONE,0.0,0.0,0.0,NONE,6.244869356856575E-9,1.7433718515471567E-9,1.335144E-4,2,47.13,48.45,46.29,46.83,16.275,16.275,5.788,9.471502,0,3008,4.057,12.0,6.913,85,27.5,OK,94,0,0,0,0,0,65,100,0.0,0,0.0,-1.3032665E37,8.8E-44,0.0,-1.05007105E-23,63,120.25,-0.00145454,1.2055766E-23,False,False,0,None,-2.9972755E-33,2.9962065E-15,
385543215,18.177,13.992796438937416,66.38579754183402,20,49.562534,48.014202,-0.07706385,-0.024429038,-0.9627183,0.9661067,5.663367,6.612046,4.118397,9.630892,80,272,1556,1581.0,0.044244573,0.086509734,-8.678958E-4,0.097171344,0.097167465553706,0.14622779555038032,2.512665783294182,-5.09338671469194,-109.42118149869243,250.57881850130758,257.5317408862651,72.33501680771025,43.92962250140969,-106.26577524092558,15.409467015620914,38.46567529515831,79.2700144846924,84.54540511720342,60.09,23.68516733227539,,13.992796,66.3857975,20190520,154007,2019-05-20T15:40:07Z,93.237,0.55,1.21,8.22,11,9,20,0.02,0.12,-0.02,0,0,0,0,5,5,13.993113440103683,66.38574204539731,50,2188118,48,87,194,3206,3719,4196,4203,-1179,16795,29,212,16796,0,false,false,false,false,false,false,false,false,false,false,5029,5217,5171,5088,56,72,72,56,1488,1519,1500,1489,1484,1510,1496,1484,0.0,0.0,0.0,0.0,1612.9,1608.5,1607.9,1611.0,3.74,3.34,3.76,3.15,0,0,0,0,87.25359932265576,13.992796271929688,66.38579718727334,0,49.472694,48.020195,-0.077931136,-0.02322632,-0.965173,0.9685926,-4.329706,-2.5449107,-2.6604657,5.6833973,80,272,1556,1581.0,0.08782193,0.01907942,0.09993476,0.13440116,0.08987055254319076,0.18868572672424794,3.4291155719863107,-5.609338553047878,-109.0270134450029,250.9729865549971,258.0725890529827,67.2190366771796,38.135775701877066,-112.4668030925392,15.400544693962415,39.91981158531013,88.6435661780276,93.91895681053862,60.08,NONE,0.0,0.0,0.0,NONE,2.908569219787852E-9,1.5763165397504304E-9,1.6784668E-4,2,46.33,48.7,46.64,45.82,16.266,16.266,5.79,9.201656,0,3006,4.059,12.0,7.33,85,27.6,OK,95,0,0,0,0,0,65,100,0.0,0,0.0,-3.6947735E37,8.8E-44,0.0,7.379444E-20,64,138.03906,-0.0015519637,8.414031E-24,False,False,0,None,-2.237436E-33,3.1549879E-15,
389392891,19.178,13.992800294828777,66.38579810209856,20,49.62295,47.904854,-0.08146844,-0.03533719,-0.9794226,0.98344016,-5.1029,-17.665253,-2.2511163,18.524801,83,269,1547,1572.0,0.10725163,-0.019793592,0.10843922,0.1537978,0.10906281792968711,0.07354238968381072,2.3151482019467418,-5.261149635101649,-109.4440208646288,250.55597913537122,256.8606713458114,71.44387205237747,42.84516435574622,-106.23864386798702,15.277557389747628,38.650173610167556,81.95670998202435,87.23210061453537,60.4,23.74558450756836,,13.9927988,66.3857979,20190520,154008,2019-05-20T15:40:08Z,93.106,0.55,1.22,8.13,11,9,20,0.1,0.03,0.12,0,0,0,0,5,5,13.993113440103683,66.38574204539731,50,2188118,17,87,195,3206,3719,4196,4203,-1179,16795,29,0,16796,0,false,false,false,false,false,false,false,false,false,false,5013,5207,5183,5123,56,72,72,56,1485,1511,1507,1494,1479,1507,1502,1494,0.0,0.0,0.0,0.0,1612.9,1607.9,1607.9,1612.2,3.51,3.35,3.7,3.24,0,0,0,0,71.29479007058387,13.992799863805208,66.3857975268506,0,49.543682,48.10962,-0.081731915,-0.03175137,-0.9793908,0.983308,1.4318898,11.266201,3.935286,12.019321,80,269,1547,1572.0,0.12863758,-0.039781876,0.16554756,0.21339217,0.13464852788184542,0.02965197364039443,3.1054223856305883,-5.547447826865356,-108.98573317344453,251.01426682655546,258.8961591054275,67.24286636087918,37.634270697115475,-111.04719475060662,15.26913176556031,40.104998837455184,61.4223042973464,66.69769492985742,60.37,NONE,0.0,0.0,0.0,NONE,-1.4970576710678988E-9,2.630049819571208E-9,4.005432E-4,2,44.24,46.47,47.98,48.29,16.265,16.265,5.795,8.868112,0,3004,4.056,12.0,7.243,85,27.6,OK,96,0,0,0,0,0,65,100,0.0,0,0.0,-1.134413E38,8.8E-44,0.0,7.379444E-20,64,158.85547,-0.0016313869,6.5302296E-24,False,False,0,None,-1.826201E-33,3.2844416E-15,
393290592,20.191,13.992799742994212,66.38579885312716,20,49.24697,47.663795,-0.07987164,-0.025214862,-0.9989118,1.0024171,-0.73566395,-6.6645575,2.346149,7.103657,72,257,1553,1575.0,0.15070084,-0.09523226,0.13945615,0.2263359,0.178269252172792,-0.09233323044114092,1.9163662731240292,-4.8007270257869905,-109.35978139307647,250.64021860692353,257.2192672863937,71.15811018139422,43.29146452478089,-106.02835927820377,15.33421333822358,38.76379113760663,2.539754246941812,7.815144879452832,60.66,23.369604130371094,,13.9927992,66.3857987,20190520,154009,2019-05-20T15:40:09Z,92.852,0.55,1.22,8.06,11,9,20,0.11,-0.04,0.21,0,0,0,0,5,5,13.993113440103683,66.38574204539731,50,2188528,16,87,196,3055,3568,4216,4221,-615,16865,26,0,16177,0,false,false,false,false,false,false,false,false,false,false,4884,5142,5130,5195,57,73,73,57,1482,1509,1486,1506,1471,1502,1485,1501,0.0,0.0,0.0,0.0,1613.5,1608.5,1609.1,1611.6,3.62,3.33,3.67,3.44,0,0,0,0,32.8416339793589,13.992799999651922,66.3857986542686,0,49.283962,48.051918,-0.07964483,-0.025354754,-1.0010713,1.0045546,-1.366638,3.7665777,0.43282443,4.0301547,72,257,1550,1572.0,0.1393116,-0.08750511,0.17093861,0.23724434,0.1645140281405552,-0.04061499501706471,2.5234103220903745,-5.056866357894194,-108.92303340618794,251.07696659381207,258.6949016440936,66.6565939161104,37.069360995408594,-109.23348241524369,15.314695350033265,40.25232180526462,8.151253959265404,13.426644591776425,60.68,NONE,0.0,0.0,0.0,NONE,-4.726425083656988E-9,2.642900237653947E-9,4.4250488E-4,2,43.27,46.83,46.27,48.04,16.261,16.261,5.787,8.52346,0,3002,4.056,12.0,7.147,85,27.6,OK,97,0,0,0,0,0,65,100,0.0,0,-1.14403523E10,NaN,-7.6095891E8,-1.99674864E8,7.379567E-20,64,149.88281,-0.0015971739,6.9513184E-24,False,False,0,None,-1.9322776E-33,3.2286594E-15,
397241522,21.217,13.992798780561195,66.38579969185561,20,48.793583,47.409904,-0.078053996,-0.032082345,-0.9993058,1.0028628,1.8892359,3.7415662,-0.8684205,4.2805004,66,241,1556,1575.0,0.097068936,-0.120036386,0.10811476,0.18846728,0.15437328884975643,-0.05441211082191946,1.5778391177922226,-4.340939023073774,-109.42822965436189,250.57177034563813,257.42111124865824,72.03608572132916,44.581179907461305,-104.82478982234419,15.41184094073482,38.88229077471441,-51.00821969342793,-45.73282906091691,60.98,22.916215916259766,,13.9927981,66.3857996,20190520,154010,2019-05-20T15:40:10Z,92.605,0.55,1.22,8.01,11,9,20,0.09,-0.1,0.19,0,0,0,0,5,5,13.993113440103683,66.38574204539731,50,2188529,20,87,197,3055,3568,4198,4212,-1372,16745,26,2,16177,0,false,false,false,false,false,false,false,false,false,false,4824,5105,5102,5239,56,73,74,56,1468,1501,1499,1506,1457,1502,1497,1498,0.0,0.0,0.0,0.0,1612.9,1609.1,1607.3,1611.6,3.6,3.13,3.4,3.62,0,0,0,0,19.265264309179997,13.992798478904286,66.3857993932801,0,48.679962,47.94924,-0.07808739,-0.034061037,-0.9959871,0.999624,0.14726998,-3.359441,0.94585764,3.4931617,66,241,1559,1578.0,0.08856817,-0.09600481,0.124403104,0.18038121,0.13061869964281037,-0.026907287986390485,2.007572776239344,-4.5595441258010325,-108.97527474224788,251.02472525775212,258.54847044130605,66.2257207715247,38.21973987126202,-107.50454232279094,15.410293334487948,40.38130948681548,-34.399453613783784,-29.124062981272765,61.0,NONE,0.0,0.0,0.0,NONE,-5.560500461887689E-9,2.210269932922166E-9,3.3187866E-4,2,42.66,48.52,45.63,46.95,16.258,16.258,5.788,8.192082,0,3000,4.055,12.0,7.063,85,27.6,OK,98,0,0,0,0,0,65,100,0.0,0,-8.6620218E8,2.29472E-39,-7.6095898E8,-1.5118271E7,7.379567E-20,64,127.03516,-0.0015063364,8.515005E-24,False,False,0,None,-2.2585008E-33,3.0806116E-15,
401114444,22.224,13.99279767216566,66.38580013345869,20,49.03245,47.25586,-0.08030549,-0.034838255,-0.9923069,0.99616045,9.1940975,0.09572382,6.455703,11.23462,55,247,1532,1552.0,0.08789128,-0.10076087,0.041468784,0.13999031,0.13370725817776588,-0.06452869204196267,1.608862294002712,-4.191828885348541,-109.54530593439173,250.45469406560827,257.27043650358746,71.69338160568782,44.02564613023483,-105.77343567513611,15.477180162262455,38.99315711573966,-146.68499379172886,-141.40960315921782,61.35,23.155084629638672,,13.9927971,66.3858001,20190520,154011,2019-05-20T15:40:11Z,92.433,0.55,1.22,7.97,11,9,20,0.08,-0.1,0.15,0,0,0,0,5,5,13.993113440103683,66.38574204539731,50,2188529,20,87,197,3055,3568,4198,4212,-1372,16745,26,2,16177,0,false,false,false,false,false,false,false,false,false,false,5012,5250,5146,5139,58,73,74,58,1495,1524,1503,1498,1483,1515,1505,1485,0.0,0.0,0.0,0.0,1610.4,1606.1,1606.7,1610.4,3.93,3.58,3.68,3.33,0,0,0,0,84.63693057995329,13.992797404748496,66.38579976557439,0,48.97168,47.85887,-0.08024157,-0.037437815,-0.99081916,0.9947677,-6.115356,-5.7653766,-8.499224,11.952989,52,247,1529,1549.0,0.0667541,-0.06086238,0.0871949,0.12555194,0.09033459840168181,-0.027478284635561637,1.877880577989403,-4.396328664367138,-109.1547913202261,250.84520867977392,258.446578080753,66.37978391912851,37.55584333407139,-108.52100514731147,15.470990449689852,40.46971272324707,-24.327073848782696,-19.051683216271677,61.35,NONE,0.0,0.0,0.0,NONE,-2.8016368901309305E-9,1.396410873076215E-9,2.2506714E-4,2,45.85,50.43,48.04,44.66,16.258,16.258,5.784,7.89154,0,2998,4.055,12.0,7.113,84,27.6,OK,99,0,0,0,0,0,65,100,0.0,0,-9.1557736E7,5.442238E-39,-7.6095898E8,-1598007.9,7.379567E-20,64,118.421875,-0.0014405925,9.2638295E-24,False,False,0,None,-2.4147475E-33,2.9734924E-15,
404975955,23.228,13.992797927027981,66.38580067369824,20,48.767246,47.17193,-0.08334971,-0.016614702,-0.984647,0.98830813,6.877544,10.511623,9.136591,15.532937,69,254,1541,1563.0,0.07940854,-0.029771231,-0.0059894295,0.08501715,0.0848059116821631,-0.023889447761752683,1.7152902445075269,-4.5201169030372865,-109.43696738505062,250.56303261494938,261.0758790253246,74.80389177241616,42.62810909986214,-104.36394397868551,15.492047180425821,39.06031331212113,-0.1471968511292756,5.128193781381745,61.6,22.88987924633789,,13.9927969,66.3858005,20190520,154012,2019-05-20T15:40:12Z,92.283,0.55,1.22,7.97,11,9,20,0.06,-0.02,0.09,0,0,0,0,5,5,13.993113440103683,66.38574204539731,50,2188529,20,87,197,3055,3568,4198,4212,-1372,16745,26,2,16177,0,false,false,false,false,false,false,false,false,false,false,4907,5185,5187,5261,57,73,72,57,1492,1522,1509,1504,1482,1503,1491,1502,0.0,0.0,0.0,0.0,1610.4,1605.5,1604.9,1610.4,3.66,3.29,4.14,3.43,0,0,0,0,29.81416273779871,13.992797404064145,66.38580038615052,0,48.34839,47.81049,-0.086020075,-0.027194146,-1.0045135,1.0085566,-6.3315263,-21.586266,-0.25615525,22.497126,66,247,1547,1567.0,0.08177717,0.0037920324,0.027534705,0.086371556,0.08186504294823453,-0.013106919394428429,1.7682558858985338,-4.777025919161642,-109.06704379224794,250.93295620775206,254.45715222951299,64.63246977728768,37.764695118017315,-107.7204487992186,15.499772060614095,40.57167140959085,-30.463226198195972,-25.187835565684953,61.58,NONE,0.0,0.0,0.0,NONE,-6.629827871996747E-10,1.6020173908352373E-9,8.392334E-5,2,44.89,46.39,46.99,50.15,16.243,16.243,5.784,7.638513,0,2996,4.054,12.0,7.276,84,27.7,OK,100,0,0,0,0,0,65,100,0.0,0,-1.4681471E7,9.005527E-39,-7.6095898E8,-256242.98,7.379567E-20,64,114.478516,-0.0014105219,9.726897E-24,False,False,0,None,-2.5113732E-33,2.9244865E-15,
408834956,24.230,13.992798249642577,66.38580145065492,20,48.851116,47.03527,-0.06316167,-0.028568853,-0.85463,0.85743684,-0.5047198,-110.418205,-6.8033423,110.628746,100,247,1544,1566.0,0.05513142,-0.064864226,0.004334841,0.08523867,0.08512837802525458,0.0021957106845897495,1.8855515682409512,-10.139691703903267,-109.45246256182777,250.54753743817224,260.1340655142931,73.95931332298663,36.992210983228304,-131.6964400997679,15.515596057114506,39.1523575225358,42.702131475765164,47.97752210827618,61.86,22.973749180419922,,13.9927974,66.3858011,20190520,154013,2019-05-20T15:40:13Z,92.133,0.55,1.22,7.97,11,9,20,0.06,-0.02,0.05,0,9765,0,0,5,5,13.993113440103683,66.38574204539731,50,2188529,20,87,197,3055,3568,4198,4212,-1372,16745,26,2,16177,0,false,false,false,false,false,false,false,false,false,false,4999,5253,5151,5151,57,73,73,57,1479,1518,1502,1506,1452,1487,1523,1518,0.0,0.0,0.0,0.0,1611.6,1607.3,1607.3,1609.8,3.59,3.63,3.52,3.1,0,0,0,0,78.8636905688183,13.992797882179598,66.3858010656777,0,48.814125,47.803352,-0.05244041,-0.03165391,-0.84115416,0.84338146,2.746029,-101.823364,5.5907087,102.013695,89,244,1544,1565.0,0.032163594,-0.031472597,0.021569017,0.049902342,0.04500023600066077,0.033273620800514735,2.0374491914116812,-9.6723237712797,-108.99579408950798,251.00420591049203,255.59201473109871,63.957023491734404,31.787170677317828,-132.47165645465884,15.512248880310938,40.66324431035577,-40.01040003304407,-34.73500940053305,61.85,NONE,0.0,0.0,0.0,NONE,-1.0907136547077115E-9,7.924417591262497E-10,4.196167E-5,2,34.59,38.91,55.97,56.02,16.254,16.254,5.78,7.440344,0,2994,4.054,12.0,7.102,84,27.7,OK,101,0,0,0,0,0,65,100,0.0,0,-2.136995E7,1.6597381E-38,-7.6095898E8,-235606.98,7.379567E-20,64,113.74414,-0.0014049191,9.891687E-24,False,False,0,None,-2.5457446E-33,2.915325E-15,
412760267,25.251,13.99276606404073,66.38579698827543,20,47.847485,47.06466,-0.15130666,-0.023121923,-0.9608974,0.9730119,-14.486703,158.90028,-14.55257,160.22154,97,263,1541,1566.0,-0.77571064,-2.5591025,-0.1828263,2.6803281,2.674085450033261,-1.1870266992114824,1.9151572237092316,5.744847812919227,-109.36128805054489,250.63871194945511,254.38380947694915,67.94670944102418,53.07950782335635,-40.03619866412163,16.63531286939368,40.674179016653646,-113.67175460645973,-108.39636397394871,62.14,21.970117588623047,,13.9927738,66.3857982,20190520,154014,2019-05-20T15:40:14Z,92.027,0.55,1.22,7.93,11,9,20,-0.69,-2.2,0.04,0,0,0,0,5,5,13.993113440103683,66.38574204539731,50,2188529,20,87,197,3055,3568,4198,4212,-1372,16745,26,2,16177,0,false,false,false,false,false,false,false,false,false,false,4326,4713,5396,5432,58,73,73,58,1369,1384,1534,1519,1394,1414,1472,1487,0.0,0.0,0.0,0.0,1620.8,1613.5,1614.7,1619.0,0.37,0.21,4.81,4.0,0,0,0,0,11.10037483449861,13.992766374528516,66.38579691342348,0,47.871265,47.804527,-0.15965688,-0.028671738,-0.97591645,0.9893055,3.714391,148.46086,5.491606,148.60883,215,269,1526,1564.0,-0.8098646,-2.5339656,-0.15409343,2.6646962,2.6602371808483394,-1.2120355094279853,2.0506550995467228,5.194528090655582,-109.07880661219379,250.92119338780623,260.8358211431205,68.17790333691323,50.87888778286415,-31.24770184432764,16.619393034422334,42.14375468959494,-110.15478886903018,-104.87939823651917,62.15,NONE,0.0,0.0,0.0,NONE,-1.2695050165329669E-7,-1.7425151790729526E-8,5.340576E-5,2,49.1,47.32,36.86,42.3,16.207,16.207,5.732,7.299442,1475,2992,4.049,12.0,7.594,84,27.7,OK,102,0,0,0,0,0,65,100,0.0,0,-2.5437952E7,-1.4456984E35,-7.6095891E8,-235606.98,7.379567E-20,64,113.634766,-0.0014040846,4.1894E-23,False,False,0,None,-9.387968E-33,2.9139697E-15,
416609372,26.251,13.992741449627076,66.38579528525196,20,48.635464,46.89014,-0.0927557,-0.028246537,-1.003292,1.0079664,6.6319833,-1.3589475,2.0919344,7.0856285,-91,204,1535,1551.0,-0.048605673,-0.2655184,0.04930649,0.2743969,0.26993059897781607,0.8422732028560289,0.8746910885507228,-0.538560342728785,-109.12110887725343,250.87889112274655,257.0732633749433,66.37637164392963,50.37780054384726,-120.28834567090712,17.595053265659175,41.80979427333802,-107.2410212005484,-101.96563056803738,62.42,22.75809671459961,,13.9927406,66.3857944,20190520,154015,2019-05-20T15:40:15Z,91.928,0.55,1.22,7.84,11,9,20,-0.11,-0.47,0.02,0,0,0,0,5,5,13.993113440103683,66.38574204539731,50,2188529,20,87,197,3055,3568,4198,4212,-1372,16745,26,2,16177,0,false,false,false,false,false,false,false,false,false,false,4939,5069,5253,5118,58,73,73,58,1475,1509,1513,1490,1477,1513,1499,1477,0.0,0.0,0.0,0.0,1609.8,1606.1,1604.9,1607.9,3.44,3.48,3.94,3.19,0,0,0,0,36.13047380950928,13.992740166825648,66.38579431305307,0,48.638107,47.792553,-0.09300041,-0.03184204,-1.0069661,1.0117528,-7.066389,-20.467356,-3.888492,21.999247,-96,204,1535,1551.0,-0.04925359,-0.21474257,0.030600078,0.22243348,0.22031860275473572,0.9818645199918521,0.9252871737725497,-0.894833514080629,-109.3370209956226,250.6629790043774,258.3492814028807,65.71194592288764,46.80961954870134,-123.81211004119477,17.61290441478178,43.35772649705315,-130.4988518309605,-125.22346119844946,62.41,NONE,0.0,0.0,0.0,NONE,-1.2831921917102016E-8,-1.1543948888620694E-9,7.6293945E-5,2,44.48,46.64,47.94,46.92,16.264,16.264,5.781,7.2335606,1488,2990,4.054,12.0,8.127,84,27.7,OK,103,0,0,0,0,0,65,100,0.0,0,-4.1613236E7,-8.5687105E31,-7.6095891E8,-235606.98,7.379567E-20,64,112.71484,-0.0013970811,1.6972797E-22,False,False,0,None,-3.2878483E-32,2.9025314E-15,
420458542,27.251,13.99274206050963,66.38579392534163,20,48.68512,46.91192,-0.080282494,-0.028376974,-0.99544436,0.9990796,7.4106407,7.644352,8.120713,13.390284,69,257,1541,1563.0,0.02953611,0.09294559,-0.021161612,0.099795185,0.09752571441619254,0.056059342771732745,2.274666316112555,-4.714757733946818,-108.8444390129679,251.15556098703212,257.3148406861383,67.89688386895644,46.63026567636587,-106.68428923255102,17.519059217524344,42.04568297480865,107.22197244956294,112.49736308207396,62.83,22.80775262890625,,13.9927415,66.3857938,20190520,154016,2019-05-20T15:40:16Z,91.788,0.55,1.22,7.77,11,9,20,0.01,0.13,0.04,0,0,0,0,5,5,13.993113440103683,66.38574204539731,50,2188529,20,87,197,3055,3568,4198,4212,-1372,16745,26,2,16177,0,false,false,false,false,false,false,false,false,false,false,4981,5179,5124,5159,57,72,73,57,1486,1519,1496,1501,1472,1505,1499,1494,0.0,0.0,0.0,0.0,1609.1,1604.3,1604.9,1607.9,3.68,3.35,3.68,3.28,0,0,0,0,52.96175089100808,13.992741752160425,66.38579349977182,0,48.603207,47.78363,-0.08058495,-0.026583806,-0.9970458,1.0006503,-7.6437554,-3.9549382,-3.6832855,9.361363,69,254,1538,1560.0,0.022972038,0.07992429,0.010624623,0.083836086,0.08316012881173401,0.03153238658424316,2.2604528676608906,-4.919412096529587,-109.12912088249986,250.87087911750012,258.1874269430262,66.96037037758083,42.74498044915095,-108.30694759889164,17.516514780284528,43.52695890789853,100.81968991021492,106.09508054272594,62.84,NONE,0.0,0.0,0.0,NONE,4.491172543891709E-9,2.3130732473815319E-10,5.722046E-5,2,44.38,49.02,46.86,47.18,16.244,16.244,5.777,7.2327533,1485,2985,4.022,12.0,7.15,84,27.8,OK,104,0,0,0,0,0,65,100,0.0,0,-5.1526784E7,-4.5797277E31,-7.6095891E8,-235606.98,7.379567E-20,64,111.84961,-0.001390465,1.5118426E-22,False,False,0,None,-2.900932E-32,2.8917978E-15,
424480792,28.297,13.99274422165316,66.38579405104123,20,48.871925,46.96859,-0.10350179,-0.006427074,-1.0677812,1.072805,-4.7466426,-1.0955049,-1.7216995,5.16672,544,244,1479,1594.0,-0.14186007,-0.5881936,-0.036751695,0.6061738,0.6050586665295776,-0.5120086626375032,0.7506133136952262,-23.829633564500824,-108.8935703330545,251.1064296669455,258.1329958819694,66.7391764999329,27.20529191407627,-114.24627037346893,17.432826137593977,42.242043290344384,-108.60486730143877,-103.32947666892775,63.18,22.994558354003907,,13.9927443,66.385794,20190520,154017,2019-05-20T15:40:17Z,91.751,0.55,1.22,7.76,11,9,20,0.04,0.03,0.05,0,10000,0,0,5,5,13.993113440103683,66.38574204539731,50,2188529,20,87,197,3055,3568,4198,4212,-1372,16745,26,2,16177,0,false,false,false,false,false,false,false,false,false,false,5446,5549,5459,5463,57,74,73,57,1544,1563,1530,1515,1535,1549,1519,1508,0.0,0.0,0.0,0.0,1602.4,1598.7,1598.7,1601.8,4.44,3.76,4.12,3.53,0,0,0,0,126.40408856307909,13.992743767533705,66.38579369044871,0,48.903633,47.758297,-0.10090039,-0.021436173,-1.068851,1.0738169,-2.0020428,-25.846361,-4.487926,26.309391,536,244,1482,1594.0,-0.15090422,-0.5797218,0.017969381,0.59930986,0.5990404293907824,-0.5108045006598041,0.8573987581055319,-24.074415208269897,-109.06636996488687,250.93363003511314,257.19539849578234,65.46372943654872,19.999236314550977,-117.72852341592814,17.438664707885376,43.71375719670315,-103.94763500356407,-98.67224437105305,63.18,NONE,0.0,0.0,0.0,NONE,-8.66154713579939E-8,-8.856072154363048E-9,1.7929077E-4,2,49.66,52.19,52.35,51.02,16.225,16.225,5.75,7.2459316,1482,2983,4.046,12.0,7.186,84,27.8,OK,105,0,0,0,0,0,65,100,0.0,0,-5.9763624E7,-7.918452E31,-7.6095891E8,-235606.98,1.464021E-27,64,109.4707,-0.0013723153,1.33765E-22,False,False,0,None,-2.5375632E-32,2.8621449E-15,
428344378,29.301,13.992699728341902,66.3857878243078,20,48.401867,47.00992,-0.16092703,-0.026321761,-1.014512,1.0275334,-1.3507196,-6.5784874,1.1504644,6.8135533,587,250,1452,1585.0,-1.1553841,-3.3418844,-0.019633511,3.5360272,3.535972745401976,-1.445315245688949,0.9387879197919616,-24.672134668513767,-108.71021642883532,251.28978357116466,257.31578790399664,65.26953370268282,26.307538294347104,-108.18929879527148,19.117741117377932,44.342055179656825,-114.3423135923586,-109.06692295984757,63.46,22.524499912841797,,13.992709,66.3857893,20190520,154018,2019-05-20T15:40:18Z,91.742,0.55,1.22,7.79,11,9,20,-0.89,-2.69,0.04,0,10000,0,0,5,5,13.993113440103683,66.38574204539731,50,2188529,20,87,197,3055,3568,4198,4212,-1372,16745,26,2,16177,0,false,false,false,false,false,false,false,false,false,false,5425,5541,5726,5602,58,73,73,58,1533,1553,1557,1559,1523,1542,1563,1546,0.0,0.0,0.0,0.0,1599.3,1595.0,1596.3,1598.1,4.42,4.02,4.3,3.82,0,0,0,0,33.543718471298064,13.992700273825777,66.38578764647973,0,48.46,47.773964,-0.15854934,-0.025094494,-1.0130427,1.0256819,0.06358212,4.983271,-0.7294683,5.0367804,590,247,1452,1586.0,-1.2065456,-3.316072,0.012331134,3.5287728,3.528751265673895,-1.4866241525676869,0.9327042257089195,-24.622469825819515,-109.09904445122372,250.90095554877627,257.5453573546592,64.17885451163623,15.49707375039784,-107.4494209579779,19.089060451692472,45.76573863066123,-114.96569211946213,-109.69030148695111,63.45,NONE,0.0,0.0,0.0,NONE,-1.5376917066074956E-7,-2.209199130462979E-8,4.5776367E-5,2,52.48,52.07,53.42,54.64,16.19,16.19,5.742,7.2658553,1476,2981,4.048,12.0,8.033,84,27.7,OK,106,0,0,0,0,0,65,100,0.0,0,-4.77375616E8,-7.920872E26,-7.6095891E8,-235606.98,1.464021E-27,64,111.0254,-0.0013841767,1.1851498E-21,False,False,0,None,-1.8137445E-31,2.8814979E-15,
432201652,30.303,13.992596744373513,66.38577412340564,20,48.254726,46.860863,-0.23789875,-0.0118016945,-1.0486772,1.0753878,-10.867334,43.290005,-4.5498424,44.864513,530,260,1458,1572.0,-1.8282988,-5.6860294,-0.02556847,5.9727936,5.9727389602472885,-1.151246313708847,1.563366920363171,-19.871351311548672,-108.57113479330981,251.4288652066902,253.75808809865117,61.72513250130994,33.72287804085423,-89.83644644937334,23.289483755611464,49.176299282287815,-111.81452817096218,-106.53913753845116,63.66,22.37735940991211,,13.9926129,66.3857761,20190520,154019,2019-05-20T15:40:19Z,91.665,0.55,1.22,7.79,11,9,20,-1.73,-5.23,0.04,0,5091,0,0,5,5,13.993113440103683,66.38574204539731,50,2188529,20,87,197,3055,3568,4198,4212,-1372,16745,26,2,16177,0,false,false,false,false,false,false,false,false,false,false,5299,5469,5799,5874,58,75,75,58,1496,1519,1568,1576,1494,1514,1550,1558,0.0,0.0,0.0,0.0,1603.0,1598.1,1598.7,1601.8,3.28,3.27,4.32,4.01,0,0,0,0,5.992527447878956,13.992597223091503,66.38577380442672,0,48.204525,47.751125,-0.23702747,-0.014830444,-1.0502279,1.0767454,1.3175001,45.87578,3.1550517,46.003014,547,263,1455,1576.0,-1.8674481,-5.6628046,-0.03762116,5.9628963,5.962777709891434,-1.1335149280527457,1.5250627210075474,-20.13368079569458,-108.83296735331056,251.16703264668945,260.5596583788275,68.01110590600194,18.56869528457915,-87.31482869249866,23.263001827190205,50.60839929959413,-113.96840592326085,-108.69301529074983,63.66,NONE,0.0,0.0,0.0,NONE,-3.160499837775009E-7,-4.180879921177657E-8,-6.866455E-5,2,46.84,46.98,52.18,54.16,16.151,16.151,5.734,7.336886,1461,2979,4.046,12.0,8.712,84,27.7,OK,107,0,0,0,0,0,65,100,0.0,0,-1.73574861E9,-8.0283254E17,-7.6095891E8,-235606.98,1.464021E-27,64,108.82423,-0.001367398,5.709331E-21,False,False,0,None,-7.4460063E-31,2.854176E-15,
