Tick#,offsetTime,IMU_ATTI(0):Longitude,IMU_ATTI(0):Latitude,IMU_ATTI(0):numSats,IMU_ATTI(0):barometer:Raw,IMU_ATTI(0):barometer:Smooth,IMU_ATTI(0):accel:X,IMU_ATTI(0):accel:Y,IMU_ATTI(0):accel:Z,IMU_ATTI(0):accel:Composite,IMU_ATTI(0):gyro:X,IMU_ATTI(0):gyro:Y,IMU_ATTI(0):gyro:Z,IMU_ATTI(0):gyro:Composite,IMU_ATTI(0):mag:X,IMU_ATTI(0):mag:Y,IMU_ATTI(0):mag:Z,IMU_ATTI(0):mag:Mod,IMU_ATTI(0):velN,IMU_ATTI(0):velE,IMU_ATTI(0):velD,IMU_ATTI(0):velComposite,IMU_ATTI(0):velH,IMU_ATTI(0):GPS-H,IMU_ATTI(0):roll,IMU_ATTI(0):pitch,IMU_ATTI(0):yaw,IMU_ATTI(0):yaw360,IMU_ATTI(0):totalGyro:Z,IMU_ATTI(0):totalGyro:X,IMU_ATTI(0):totalGyro:Y,IMU_ATTI(0):magYaw,IMU_ATTI(0):distanceHP,IMU_ATTI(0):distanceTravelled,IMU_ATTI(0):directionOfTravel[mag],IMU_ATTI(0):directionOfTravel[true],IMU_ATTI(0):temperature,General:relativeHeight,General:absoluteHeight,GPS(0):Long,GPS(0):Lat,GPS(0):Date,GPS(0):Time,GPS:dateTimeStamp,GPS(0):heightMSL,GPS(0):hDOP,GPS(0):pDOP,GPS(0):sAcc,GPS(0):numGPS,GPS(0):numGLNAS,GPS(0):numSV,GPS(0):velN,GPS(0):velE,GPS(0):velD,RC:Aileron,RC:Elevator,RC:Rudder,RC:Throttle,Controller:navHealth,Controller:ctrl_level,HP:Longitude,HP:Latitude,HP:rthHeight,BatBlackBox:tick,BatBlackBox:id,BatBlackBox:rsoc,BatBlackBox:index,BatBlackBox:rm,BatBlackBox:fcc,BatBlackBox:cell_min,BatBlackBox:cell_max,BatBlackBox:current,BatBlackBox:voltage,BatBlackBox:temp,BatBlackBox:flag,BatBlackBox:reserve,BatBlackBox:user_data,OA:avoidObst,OA:emergBrake,OA:radiusLimit,OA:airportLimit,OA:groundForceLanding,OA:horizNearBoundary,OA:vertLowLimit,OA:vertAirportLimit,OA:roofLimit,OA:hitGroundLimit,Motor:Speed:RFront,Motor:Speed:LFront,Motor:Speed:LBack,Motor:Speed:RBack,Motor:EscTemp:RFront,Motor:EscTemp:LFront,Motor:EscTemp:LBack,Motor:EscTemp:RBack,Motor:PPMrecv:RFront,Motor:PPMrecv:LFront,Motor:PPMrecv:LBack,Motor:PPMrecv:RBack,Motor:PPMsend:RFront,Motor:PPMsend:LFront,Motor:PPMsend:LBack,Motor:PPMsend:RBack,Motor:V_out:RFront,Motor:V_out:LFront,Motor:V_out:LBack,Motor:V_out:RBack,Motor:Volts:RFront,Motor:Volts:LFront,Motor:Volts:LBack,Motor:Volts:RBack,Motor:Current:RFront,Motor:Current:LFront,Motor:Current:LBack,Motor:Current:RBack,Motor:Status:RFront,Motor:Status:LFront,Motor:Status:LBack,Motor:Status:RBack,Motor:thrustAngle,IMU_ATTI(1):Longitude,IMU_ATTI(1):Latitude,IMU_ATTI(1):numSats,IMU_ATTI(1):barometer:Raw,IMU_ATTI(1):barometer:Smooth,IMU_ATTI(1):accel:X,IMU_ATTI(1):accel:Y,IMU_ATTI(1):accel:Z,IMU_ATTI(1):accel:Composite,IMU_ATTI(1):gyro:X,IMU_ATTI(1):gyro:Y,IMU_ATTI(1):gyro:Z,IMU_ATTI(1):gyro:Composite,IMU_ATTI(1):mag:X,IMU_ATTI(1):mag:Y,IMU_ATTI(1):mag:Z,IMU_ATTI(1):mag:Mod,IMU_ATTI(1):velN,IMU_ATTI(1):velE,IMU_ATTI(1):velD,IMU_ATTI(1):velComposite,IMU_ATTI(1):velH,IMU_ATTI(1):GPS-H,IMU_ATTI(1):roll,IMU_ATTI(1):pitch,IMU_ATTI(1):yaw,IMU_ATTI(1):yaw360,IMU_ATTI(1):totalGyro:Z,IMU_ATTI(1):totalGyro:X,IMU_ATTI(1):totalGyro:Y,IMU_ATTI(1):magYaw,IMU_ATTI(1):distanceHP,IMU_ATTI(1):distanceTravelled,IMU_ATTI(1):directionOfTravel[mag],IMU_ATTI(1):directionOfTravel[true],IMU_ATTI(1):temperature,IMUEX(0):err,IMUEX(0):rtk_Longitude,IMUEX(0):rtk_Latitude,IMUEX(0):rtk_Alti,IMUEX(1):err,IMUEX(1):rtk_Longitude,IMUEX(1):rtk_Latitude,IMUEX(1):rtk_Alti,MotorCtrl:Status,MotorCtrl:PWM:RFront,MotorCtrl:PWM:LFront,MotorCtrl:PWM:LBack,MotorCtrl:PWM:RBack,BattInfo:Voltage,BattInfo:BatVoltage,BattInfo:AdVoltage,BattInfo:AvgCurrent,BattInfo:R_time,BattInfo:R_CAP_MAH,BattInfo:LowCellVoltage,BattInfo:LowCellVolThreshold,BattInfo:BatCurrent,BattInfo:Remaining%,BattInfo:Temp,BattInfo:status,battery_info:BatDynCnt,battery_info:Vol1Protect,battery_info:Vol2Protect,battery_info:Cap1Protect,battery_info:Cap2Protect,battery_info:Batpresent,battery_info:sopPercentage,battery_info:sopValue,battery_info:sopScale,battery_info:sopFlg,BattInfo:WindHeading:WindDir,battery_info:home_dir,BattInfo:Wind:rangeMin,BattInfo:Wind:rangeMax,battery_info:cap_speed,battery_info:against_wind,battery_info:emergency_land_cap,battery_info:intel_bat_land_cap,battery_info:intel_bat_gh_cap,BattInfo:Smart:SmartGh,BattInfo:Smart:SmartLand,BattInfo:GoHome:CntDown,BattInfo:GoHome:GhCmd,BattInfo:GoHome:CapLevel,BattInfo:GoHome:LandCapLv,Attribute|Value,ConvertDatV3,3.6.6-Tablet
328267162,.000,13.991864826595792,66.38568055149443,16,-109.7144,-109.85056,0.07746683,-0.027578227,-0.9782614,0.98171127,0.3843592,-0.11783534,0.07019944,0.4080994,-90,426,1472,1535.0,-0.011170916,0.0138221765,0.018415725,0.025592595,0.01777194214650629,-0.01777194214650629,1.5237905154338187,4.518517143068258,-84.88415314018808,275.11584685981194,10.788030090557827,29.58358062876732,-1.4369187046291465,-85.99172813547332,0.7904732034577672,20.09146430844255,-169.7733596299093,-164.49863888237712,49.4,,,13.991864,66.3856807,20190516,102124,2019-05-16T10:21:24Z,74.615,0.87,1.78,11.34,9,7,16,-0.01,0.0,0.01,-9998,-9988,9997,-9998,5,5,13.991876827045798,66.38567531431669,50,1746152,17,12,154,412,3643,3697,3700,-1170,14816,31,0,14811,0,false,false,false,false,false,false,false,false,false,false,0,0,0,0,46,59,60,47,944,945,944,945,940,940,940,940,0.0,0.0,0.0,0.0,1721.4,1716.5,1715.9,1722.6,0.0,0.0,0.0,0.0,0,0,0,0,-45.0,13.991864609937391,66.38568002273358,0,-109.730255,-109.45568,0.077536136,-0.027534932,-0.9782848,0.9817388,0.36205566,-0.092245854,0.14433524,0.40053245,-90,424,1472,1534.0,-0.0034821138,-0.001844536,3.2447706E-4,0.003953823,0.0039404860297356055,-0.0039404860297356055,1.5844282269340446,4.9722695302364,-83.25408458157109,276.7459154184289,11.091675233609468,30.376698508985562,-1.4095705433178027,-84.20415866091477,0.7551396755234047,7464163.755453207,-156.93763914889544,-151.66291840136327,49.41,NONE,0.0,0.0,0.0,NONE,-4.3901760848012994E-11,-9.153944502781513E-11,0.0,,,,,,17.318,17.318,6.187,1.2336699,0,3574,4.324,12.0,1.244,99,24.4,OK,81,0,0,0,0,0,65,100,0.0,0,0.0,1.0887227E-25,9.0E-44,0.0,-1.05007105E-23,62,4.053145E-7,-4.053164E-7,9.605496E-34,False,False,0,None,1.8875878E30,1.0842106E-19,Firmware Date| Oct 17 2018
332120686,1.002,13.991864281608404,66.38568026926839,16,-109.688515,-109.85153,0.08166446,-0.013918335,-0.9738823,0.9773994,0.44476494,-1.5592427,1.5313889,2.2302928,-90,421,1472,1533.0,-0.009072078,0.0118427845,0.0035769187,0.015341072,0.014918249021891714,0.024696845999492123,1.52030174452248,4.51312500794243,-84.89790200597383,275.10209799402617,11.188963211099857,30.119611577958484,-1.1092191003893355,-85.96308120605562,0.784743693637549,20.15030755593788,-166.02800040279038,-160.7532796552582,49.7,0.01796729052733781,,13.9918633,66.3856803,20190516,102125,2019-05-16T10:21:25Z,74.53,0.87,1.78,11.31,9,7,16,-0.01,0.01,0.01,0,0,0,0,5,5,13.991876827045798,66.38567531431669,50,1746176,48,12,155,412,3643,3714,3716,0,14863,31,212,4,0,false,false,false,false,false,false,false,false,false,false,560,563,552,561,50,63,64,51,1320,1329,1325,1324,1312,1312,1312,1312,0.1,0.1,0.1,0.1,1690.1,1684.6,1684.6,1689.5,7.96,7.41,7.84,7.56,0,0,0,0,-149.0362434679265,13.99186391672604,66.38567967184255,0,-109.688515,-109.45557,0.080312155,-0.017978828,-0.9735904,0.9770627,1.6452918,0.57831424,-0.059919327,1.7449994,-90,421,1475,1536.0,-0.0030557488,0.002226788,3.0450174E-4,0.0037932713,0.0037810296649341095,0.04590068795312843,1.5882573614827786,5.000679840083938,-83.25046123260054,276.7495387673995,11.399765316655166,30.680863470791774,-1.0092764959166916,-84.00783327810714,0.7519719774964232,7464163.8274086835,-152.04691273146065,-146.77219198392848,49.7,NONE,0.0,0.0,0.0,NONE,3.7677819147300376E-11,2.8920403203254386E-11,0.0,1,22.5,22.5,22.5,22.5,17.242,17.242,6.073,1.282143,0,3573,4.323,12.0,3.612,99,24.4,OK,82,0,0,0,0,0,65,100,0.0,0,0.0,7.0186434E-28,9.0E-44,0.0,-1.05007105E-23,62,4.053145E-7,-4.053164E-7,9.6504E-34,False,False,0,None,1.9007022E30,1.0842106E-19,ACType|MavicEnterprise
336075545,2.029,13.991863508846881,66.38567963092486,16,-109.688515,-109.85464,0.07419261,-0.028487112,-0.9765095,0.9797382,-1.4131122,0.8320845,0.34992152,1.6768111,-87,421,1472,1533.0,-0.015269184,0.014806609,0.0035799674,0.02156849,0.02126931181510722,0.05547930681926029,1.504207891822876,4.425363463395769,-84.92238836261407,275.0776116373859,12.09834582137749,30.044973387970597,-0.7559549877452387,-85.86188297753596,0.7630848825188284,20.23051210507066,-166.83131862260035,-161.55659787506818,50.03,0.01796729052733781,,13.9918626,66.3856798,20190516,102126,2019-05-16T10:21:26Z,74.434,0.87,1.78,11.27,9,7,16,-0.01,-0.01,0.01,0,0,0,0,5,5,13.991876827045798,66.38567531431669,50,1746176,48,12,156,412,3643,3714,3716,0,14863,31,212,4,0,false,false,false,false,false,false,false,false,false,false,2116,2067,2143,2189,51,65,65,51,1208,1205,1211,1215,1200,1200,1207,1206,0.0,0.0,0.0,0.0,1716.5,1709.7,1710.9,1714.6,0.69,0.25,0.9,0.36,0,0,0,0,-32.52092819807234,13.991863357215038,66.38567912920686,0,-109.688515,-109.49659,0.07608012,-0.024510022,-0.97690576,0.98017025,-1.018478,1.0487112,0.46809825,1.5349946,-85,421,1472,1533.0,-0.008415871,0.014592295,0.03788225,0.041458737,0.01684523491968952,0.046668474300251686,1.576279745946055,4.8900421478047305,-83.2590285691643,276.7409714308357,11.802333765969482,31.242506278963305,-0.9590254895333514,-83.7391490390473,0.7347887610896493,7464163.894862515,-161.53738794934335,-156.26266720181118,50.03,NONE,0.0,0.0,0.0,NONE,5.7276967274057E-10,-1.9166068124806305E-10,7.6293945E-5,2,10.24,10.0,10.59,10.82,17.099,17.099,6.166,1.4580208,0,3572,4.324,12.0,3.87,99,24.4,OK,83,0,0,0,0,0,65,100,0.0,0,0.0,1.9608374E-31,9.0E-44,0.0,-1.05007105E-23,62,4.053145E-7,-4.053164E-7,9.38897E-34,False,False,0,None,1.8245302E30,1.0842106E-19,dateTime|2015-10-22 10:20:12 GMT
339934652,3.032,13.991862728604142,66.38567953098602,16,-109.688515,-109.760475,-0.0034036082,2.8759427E-4,-0.96769303,0.96769905,-1.807549,11.39911,-2.4177732,11.792055,117,399,1487,1544.0,0.0022291634,-0.11122286,-0.5470587,0.5582551,0.11124519974017709,-0.07486584650256575,-0.3968039068655498,-1.3984801467422183,-84.26384833413236,275.7361516658676,12.131614875623349,30.387870842729967,-7.319173291118624,-78.84029455358986,0.7837062244368145,20.302781628393323,-119.39312174193907,-114.11840099440688,50.28,0.01796729052733781,,13.9918619,66.3856795,20190516,102127,2019-05-16T10:21:27Z,74.519,0.87,1.78,11.24,9,7,16,-0.17,-0.02,-0.15,0,0,0,5768,5,5,13.991876827045798,66.38567531431669,50,1746176,48,12,157,412,3643,3714,3716,0,14863,31,212,4,0,false,false,false,false,false,false,true,false,false,false,5276,5372,4456,4229,49,61,61,50,1487,1505,1413,1382,1485,1475,1405,1400,0.0,0.0,0.0,0.0,1684.6,1679.7,1680.9,1685.2,3.42,3.24,3.13,1.42,0,0,0,0,170.65604755066795,13.991862524601157,66.38567904682331,0,-109.688515,-109.46055,-0.0043316633,0.00370806,-0.9756044,0.97562104,-6.016641,14.930636,0.27519324,16.099678,120,399,1487,1544.0,0.003613678,-0.078557655,-0.5075401,0.5135965,0.07864072569414889,-0.04055252681007572,-0.3197229223750041,-0.9494967163856101,-82.52405274066044,277.4759472593396,11.582426812383298,29.918690315520347,-7.578962910166526,-76.81997161578508,0.7603315678840834,7464163.976448947,-107.89569687624993,-102.62097612871774,50.28,NONE,0.0,0.0,0.0,NONE,2.087902552178311E-9,-1.3730864830208596E-10,1.6021729E-4,2,46.44,43.49,37.13,36.76,17.164,17.164,6.016,1.7380929,0,3571,4.258,12.0,2.809,99,24.4,OK,84,0,0,0,0,0,65,100,0.0,0,0.0,-3.6766525E-34,8.8E-44,0.0,-1.05007105E-23,62,4.053145E-7,-4.053164E-7,2.4896536E-34,False,False,0,None,1.6341776E29,1.0842106E-19,geoDeclination|527 degrees
343857160,4.052,13.991861299527175,66.38567888341471,16,-109.148285,-109.60412,0.0017644521,-0.014067524,-0.96398455,0.9640888,-3.4110432,-11.2260065,-5.368322,12.902609,55,426,1481,1542.0,-0.03357769,-0.058740757,-0.09361122,0.11550324,0.067660461139449,0.02661502220076467,1.3275838868699588,0.27841789855391225,-84.20787350150846,275.79212649849154,13.315407903280942,33.90251536605111,-5.8750521957509925,-80.9681810026095,0.07452377436139727,20.41941720961398,-102.96284746829949,-97.6881267207673,50.6,0.5581970878906191,,13.9918599,66.385679,20190516,102128,2019-05-16T10:21:28Z,74.679,0.87,1.78,11.21,9,7,16,0.02,-0.07,-0.19,0,0,0,0,5,5,13.991862940737835,66.38567901364976,50,1746176,48,12,158,412,3643,3714,3716,0,14863,31,212,4,0,false,false,false,false,false,false,true,false,false,false,5473,5534,4679,4502,50,62,62,50,1527,1534,1433,1424,1513,1519,1430,1422,0.0,0.0,0.0,0.0,1674.1,1668.7,1668.7,1673.5,4.74,4.1,3.23,2.38,0,0,0,0,172.57395780700185,13.991860548153273,66.3856784071392,0,-109.20641,-109.18614,0.0016216969,-0.010121289,-0.96368253,0.963737,8.217424,9.444701,6.332884,14.029749,55,426,1478,1539.0,-0.024673577,-0.05182116,-0.14389187,0.15491639,0.05739528143998768,0.05362598881374793,1.5211672513782002,0.8386721247984458,-82.44445954540114,277.5555404545988,11.022146599761058,30.08369046184511,-4.228735277887709,-78.7666532245069,0.12611769701946832,7464164.104873967,-111.14776620805394,-105.87304546052175,50.59,NONE,0.0,0.0,0.0,NONE,-9.38094068377376E-9,-2.300279459698459E-9,-0.0012588501,2,48.96,49.77,39.05,37.75,17.032,17.032,6.009,2.1089842,0,3569,4.297,12.0,6.988,99,24.4,OK,85,0,0,0,0,0,65,100,0.0,0,0.0,-2.701915E-37,8.8E-44,0.0,-1.05007105E-23,62,5.381153E-7,-4.5639362E-7,3.323373E-34,False,False,0,None,2.847939E29,1.2897153E-19,geoInclination|7646 degrees
347729888,5.058,13.991860623890487,66.38568158969791,16,-108.896645,-109.54466,-0.0014913958,-0.0490563,-0.97471344,0.9759483,-33.828842,3.778632,6.3644066,34.629093,41,500,1459,1542.0,0.5267275,-0.10322797,0.06830289,0.5410759,0.5367474810643782,-0.2362759180581671,5.83441162628431,0.5324989960419113,-85.54362923188341,274.4563707681166,15.205305529348946,30.903248442997775,-6.033622401445164,-81.05310464007526,0.30446610823614145,20.7629935257284,-5.036866819500525,0.2378539280316568,50.86,0.8098374077148378,,13.9918587,66.3856817,20190516,102129,2019-05-16T10:21:29Z,74.673,0.87,1.78,11.26,9,7,16,0.52,-0.07,-0.11,0,0,0,0,5,5,13.991862940737835,66.38567901364976,50,1746179,16,12,159,412,3643,3714,3716,0,14867,31,1,17553,0,false,false,false,false,false,false,true,false,false,false,5966,5424,4360,5057,50,63,64,50,1505,1403,1205,1598,1374,1661,1559,1269,0.0,0.0,0.0,0.0,1662.5,1661.3,1642.9,1644.7,8.38,3.54,2.38,6.74,0,0,0,0,-147.8720954063918,13.991860548592472,66.38568106203009,0,-108.98649,-109.07303,-0.0023063163,-0.052864224,-0.9714979,0.9729379,-26.804363,-3.647914,-4.3302975,27.39585,41,470,1472,1545.0,0.55356574,0.04499685,5.69092E-4,0.5553918,0.5553915096184155,-0.26208894525010973,6.4372091467445225,1.013456997224775,-83.27035568821977,276.72964431178025,10.927949097888234,26.41002098747588,-2.401611584741454,-77.34742237211384,0.25146008338725934,7464164.429351049,-2.863209592832194,2.4115111546999883,50.88,NONE,0.0,0.0,0.0,NONE,8.748355215398975E-9,4.0024112178188333E-8,-1.2207031E-4,2,27.54,67.32,59.77,13.38,16.871,16.871,5.991,2.6586711,0,3567,4.27,12.0,7.177,99,24.4,OK,86,0,0,0,0,0,65,100,0.0,0,0.0,5.5573537E-9,9.0E-44,0.0,2.5102509E-8,63,6.0648017E-7,-4.7348485E-7,4.541083E-34,False,False,0,None,5.068784E29,1.3584706E-19,geoIntensity|5257913 nanoTesla
351579816,6.059,13.991859369696506,66.38568371960983,16,-109.18917,-109.55005,-1.00862E-4,-0.015427489,-0.929002,0.9291301,9.2509365,3.642621,5.8656363,11.543578,61,372,1490,1536.0,-0.08177989,0.040781096,-0.010098983,0.0919404,0.09138407112096887,0.15180998377908816,-0.7952773692747164,0.1417856626675132,-90.91328763682688,269.0867123631731,15.80589467523053,27.521468691045637,-0.5847762472809158,-80.64660483094941,0.546920079043201,21.04348893051555,52.89777300853396,58.172493756066146,51.21,0.5173111625976503,,13.9918577,66.3856836,20190516,102130,2019-05-16T10:21:30Z,74.476,0.87,1.78,11.23,9,7,16,-0.01,-0.01,-0.05,0,0,0,0,5,5,13.991862940737835,66.38567901364976,50,1746180,18,12,160,400,3648,3747,3748,2383,14976,31,1,15108,0,false,false,false,false,false,false,true,false,false,false,5414,5466,4513,4510,51,63,63,50,1533,1533,1432,1424,1525,1538,1428,1418,0.0,0.0,0.0,0.0,1666.8,1663.1,1663.1,1666.8,5.12,4.3,3.08,2.82,0,0,0,0,178.30352885249974,13.991858227472573,66.38568330097097,0,-109.1786,-109.09706,-0.0011810121,-0.012976347,-0.9237557,0.92384756,4.400159,-8.665601,-3.3065052,10.265818,61,369,1493,1539.0,0.01669943,-0.011487644,-0.027584534,0.03423074,0.02026911240239781,0.2491478259392692,-0.14451546897847103,0.46568410701077534,-83.50544307925465,276.49455692074537,10.094461948291112,21.47140808786632,-6.5167641569193915,-78.9012677982536,0.5209073744050823,7464164.753874428,-107.21868913078987,-101.94396838325768,51.2,NONE,0.0,0.0,0.0,NONE,-2.3450476223810543E-9,6.9388549920891005E-9,-0.0011672974,2,49.72,52.25,40.16,38.17,16.835,16.835,5.995,3.3758936,0,3565,4.215,12.0,7.451,99,24.5,OK,87,0,0,0,0,0,65,100,0.0,0,0.0,1.5174528E-11,9.0E-44,0.0,2.5102509E-8,63,5.8862497E-7,-4.6902468E-7,6.8340023E-34,False,False,0,None,1.0475294E30,1.3405373E-19,mcID(SN)|298DG13001W644
355431429,7.060,13.991858042671259,66.38568242641563,16,-109.02412,-109.516174,0.001481377,-0.007158991,-1.0399228,1.0399485,6.6758556,5.0866766,7.345441,11.153333,50,424,1475,1535.0,-0.105189145,0.06366967,-0.0013322011,0.12296486,0.12295764382169146,0.03235565114734219,1.2304476212770274,0.32183014419991623,-93.75755254999612,266.24244745000385,15.345332161636836,29.595386914842397,-1.6886065855823111,-81.54079482739313,0.4377274413679281,21.220313829818586,-82.39036280733433,-77.11564205980214,51.45,0.6823654838867128,,13.9918573,66.3856825,20190516,102131,2019-05-16T10:21:31Z,74.406,0.87,1.78,11.22,9,7,16,-0.07,0.03,-0.02,0,0,0,4311,5,5,13.991862940737835,66.38567901364976,50,1751167,114,99,161,3624,3622,4382,4390,194,17569,26,3643,17559,0,false,false,false,false,false,false,true,false,false,false,5658,5748,4739,4661,51,64,63,51,1585,1578,1460,1485,1585,1602,1488,1483,0.0,0.0,0.0,0.0,1645.9,1648.4,1648.4,1649.6,5.93,5.42,4.18,3.72,0,0,0,0,175.21272143787832,13.991857873428364,66.38568185642427,0,-109.16165,-109.06683,0.0062779924,-0.011886793,-1.3029236,1.3029929,-1.9870591,5.6000752,2.7584445,6.5512033,55,421,1475,1534.0,-0.018167173,-0.01235399,-0.17584075,0.17720789,0.021969689725256668,0.13926487394889425,1.7082669869618825,0.4447447894781296,-83.252834233928,276.747165766072,10.727219749756651,25.814936230193705,-5.106712017695882,-79.98637569059439,0.3884137581638537,7464164.978991936,36.2156901400903,41.49041088762248,51.52,NONE,0.0,0.0,0.0,NONE,-2.165513883123978E-9,-1.5249524591747397E-9,-8.69751E-4,2,61.08,61.99,46.8,48.54,16.828,16.828,5.975,4.149415,0,3563,4.2,12.0,7.036,99,24.5,OK,88,0,0,0,0,0,65,100,0.0,0,0.0,1.8360825E-21,9.0E-44,0.0,2.5102509E-8,63,6.10642E-7,-4.745253E-7,5.4611424E-34,False,False,0,None,6.477908E29,1.3626727E-19,mcVer|v3.4.1.6
359290535,8.063,13.991858870917033,66.38568195086357,14,-108.777626,-109.38175,-0.0011110897,-0.010044847,-0.98417443,0.98422635,-1.876967,-1.7521297,0.9956111,2.7539434,70,429,1478,1540.0,0.003897516,0.044198353,-8.870065E-4,0.04437873,0.044369866710588485,0.019915920330692907,1.1963681489241367,-0.12394218167104583,-95.37345670197851,264.6265432980215,16.070147052731883,30.19182223087431,-5.686742020212636,-80.4756820766697,0.37353950228056143,21.310582603713993,-59.309038434665695,-54.03431768713351,51.82,0.9288559624023378,,13.9918575,66.385682,20190516,102132,2019-05-16T10:21:32Z,74.515,0.97,2.0,11.27,8,6,14,0.02,0.03,-0.07,0,0,0,0,5,5,13.991862940737835,66.38567901364976,50,1751251,48,99,162,3619,3619,4384,4394,175,17586,26,212,17589,0,false,false,false,false,false,false,true,false,false,false,5418,5560,4451,4544,51,64,64,51,1504,1543,1429,1417,1504,1533,1421,1416,0.0,0.0,0.0,0.0,1669.3,1663.7,1663.1,1669.3,4.24,4.14,2.92,2.38,0,0,0,0,178.58450731206074,13.991858538934826,66.38568136186844,0,-108.84104,-108.93703,-0.0013951175,-0.013119116,-0.98438853,0.9844769,2.3876748,5.133356,-2.17949,6.0665073,72,429,1478,1540.0,0.032140967,-0.0067819012,0.018249407,0.03757761,0.032848682209259794,0.02943944638312286,1.487455854011962,0.013368607482039673,-83.33105529822504,276.668944701775,10.98923851541597,25.475046132486913,-2.3393273809650172,-79.50363071842077,0.32652777229622704,7464165.067861188,78.4068838956728,83.68160464320499,51.81,NONE,0.0,0.0,0.0,NONE,5.361361400525096E-11,1.8794181933837663E-10,3.0517578E-5,2,48.92,51.53,36.78,36.91,16.795,16.795,5.994,4.889915,0,3561,4.203,12.0,7.244,99,24.5,OK,89,0,0,0,0,0,65,100,0.0,0,0.0,2.8956285E-20,9.0E-44,0.0,2.5102509E-8,63,7.059425E-7,-5.19871E-7,5.1162524E-34,False,False,0,None,5.9061346E29,1.4585263E-19,
363215616,9.083,13.99185860243796,66.38568256869237,14,-108.87343,-109.356926,0.0014741288,-0.019021051,-1.0030272,1.0032086,-2.383522,-0.1478045,1.6923825,2.9269748,58,429,1481,1542.0,0.015260436,0.03649681,-0.039747216,0.056077976,0.039558792480273934,0.02879896247640095,1.4851323526732776,0.045463732270661944,-96.26906044118739,263.7309395588126,15.283409495832958,29.621638738061026,-4.725810015069739,-81.38131865261425,0.4400056858635677,21.3904175711417,6.001034288066428,11.27575503559861,52.16,0.8330536552734316,,13.991858,66.3856827,20190516,102133,2019-05-16T10:21:33Z,74.51,0.97,2.0,11.35,8,6,14,0.06,0.02,-0.04,0,0,0,0,5,5,13.991862940737835,66.38567901364976,50,1751251,48,99,163,3619,3619,4384,4394,175,17586,26,212,17589,0,false,false,false,false,false,false,true,false,false,false,5598,5619,4594,4502,50,64,63,50,1523,1551,1445,1412,1519,1541,1436,1411,0.0,0.0,0.0,0.0,1666.2,1660.0,1660.7,1665.0,4.3,4.26,3.48,2.28,0,0,0,0,176.95034992871288,13.991858561197223,66.38568206590399,0,-108.87871,-108.96433,0.0014876446,-0.01882616,-0.9984043,0.9985829,-7.627975,-3.4671528,-2.561684,8.761814,58,426,1481,1542.0,0.0425219,-0.016239176,0.007872793,0.046193115,0.04551728236019059,0.031230702067547217,1.7642524864112332,0.11954448642665291,-83.48924908784464,276.51075091215534,12.122185591359107,25.232238355075367,-2.521632670292358,-80.86808181946773,0.391462872523302,7464165.154937906,1.7837267483584345,7.058447495890617,52.14,NONE,0.0,0.0,0.0,NONE,-8.782440755912533E-10,9.070468481048086E-10,2.2888184E-5,2,51.47,51.45,38.03,38.2,16.851,16.851,5.982,5.5450907,0,3559,4.195,12.0,7.011,99,24.5,OK,90,0,0,0,0,0,65,100,0.0,0,0.0,3.838943E-15,9.0E-44,0.0,2.5102509E-8,63,6.862101E-7,-5.100048E-7,5.709642E-34,False,False,0,None,7.201523E29,1.438674E-19,
367064755,10.083,13.991860194568579,66.38568382340685,15,-108.672874,-109.31164,2.9400084E-4,-0.020594416,-1.1688298,1.1690112,-10.461872,-4.4942765,-7.8926105,13.854335,55,415,1475,1533.0,0.016331196,0.037765663,-0.11645982,0.12351454,0.041145513567003876,0.11530306890873437,0.9341507901244329,0.1919263549583701,-96.68566915910841,263.31433084089156,14.662455487673288,27.28502258426723,-4.106144921279056,-81.2789701012537,0.5486304536503381,21.549529942597133,35.99927223044088,41.27399297797306,52.45,1.0336075493164003,,13.9918594,66.3856836,20190516,102134,2019-05-16T10:21:34Z,74.695,0.88,1.79,11.41,8,7,15,0.05,0.02,-0.03,0,0,0,3927,5,5,13.991862940737835,66.38567901364976,50,1751251,48,99,164,3619,3619,4384,4394,175,17586,26,212,17589,0,false,false,false,false,false,false,true,false,false,false,6082,6109,5185,5006,50,64,64,49,1635,1655,1542,1522,1629,1661,1542,1516,0.0,0.0,0.0,0.0,1625.7,1624.5,1623.2,1627.6,7.17,6.72,5.67,4.74,0,0,0,0,174.11927241397947,13.991860283087824,66.38568308680547,0,-108.58304,-108.94368,0.0010993674,-0.021657247,-1.1500909,1.1502954,4.8941383,-0.054723687,8.858988,10.121129,55,415,1475,1533.0,0.026305195,-0.01172051,-0.056977537,0.06384178,0.02879815397382237,0.10815058350021803,1.1947080827800984,0.2700098588628149,-83.44245446090237,276.55754553909765,12.69856550176463,24.42625651642857,-2.69043829485398,-80.83343382205624,0.4681288245495156,7464165.304411984,101.86473722377511,107.1394579713073,52.45,NONE,0.0,0.0,0.0,NONE,-4.23244736365437E-9,3.400087055280154E-9,-7.6293945E-5,2,65.97,67.34,50.85,50.15,16.807,16.807,5.974,5.5450907,0,3559,4.201,12.0,7.011,99,24.5,OK,90,0,0,0,0,0,65,100,0.0,0,0.0,3.4958124E-5,9.0E-44,0.0,2.5102509E-8,63,7.003546E-7,-5.17077E-7,6.646276E-34,False,False,0,None,9.9288594E29,1.4529015E-19,
370914079,11.084,13.991862445488776,66.38568462300867,16,-108.60961,-109.058624,0.006174759,-0.019663427,-0.9722395,0.97245795,7.421226,0.6897776,4.7298675,8.827346,58,410,1490,1546.0,0.010891454,0.006863477,-0.06156183,0.06289348,0.012873658887347046,0.12107561734517663,0.7952331729973913,0.264592814946707,-96.81972229540858,263.1802777045914,14.334621918634733,27.00361998574623,-3.1733903937906196,-80.53400020637253,0.6241222199436213,21.695113339627984,85.1469259042988,90.42164665183098,52.71,1.0968704887695253,,13.9918615,66.3856843,20190516,102135,2019-05-16T10:21:35Z,75.049,0.87,1.78,11.47,9,7,16,0.07,0.01,-0.12,0,0,0,0,5,5,13.991862940737835,66.38567901364976,50,1751251,48,99,164,3619,3619,4384,4394,175,17586,26,212,17589,0,false,false,false,false,false,false,true,false,false,false,5423,5552,4579,4448,52,64,64,52,1522,1544,1434,1418,1521,1528,1419,1416,0.0,0.0,0.0,0.0,1665.6,1659.4,1659.4,1665.6,4.4,4.34,3.36,2.24,0,0,0,0,172.3976504069072,13.991862713658152,66.38568387240768,0,-108.5779,-108.70535,0.0046143066,-0.020768382,-0.9742671,0.9744994,-4.39069,2.6020641,-4.003253,6.4865193,58,410,1493,1549.0,0.014653287,-0.035555992,0.0053974036,0.038834,0.038457086034167136,0.10059490085605158,0.8922645494498586,0.2724918924203891,-83.43322567081576,276.5667743291842,14.424016151546438,24.81671117707405,-2.2669323355649453,-80.43978908367278,0.5403639029235168,7464165.479217676,29.52344373150245,34.79816447903463,52.71,NONE,0.0,0.0,0.0,NONE,-5.8144980951554595E-9,1.0845474121972953E-9,2.2888184E-5,2,49.03,51.66,38.71,36.21,16.789,16.789,5.984,6.0896173,0,3557,4.195,12.0,7.105,99,24.6,OK,91,0,0,0,0,0,65,100,0.0,0,0.0,95544.0,9.0E-44,0.0,2.5102509E-8,63,8.718198E-7,-6.0280234E-7,7.5068552E-34,False,False,0,None,1.2434334E30,1.6253521E-19,
374945947,12.132,13.991864209726161,66.38568504559885,16,-108.466675,-109.15265,0.005633016,-0.030678779,-1.004038,1.0045223,13.179649,10.993859,10.31863,20.02604,70,246,1524,1545.0,-0.22346503,0.061021417,-0.029796166,0.23355523,0.23164678407814696,-0.14426846349831102,-2.2806233504786992,0.31899569652141496,-96.92443505056407,263.07556494943594,15.491843474958603,23.548911801527414,-3.180228607679296,-75.64573496443462,0.6730996213822267,21.844474625874323,158.72935416239835,164.00407490993052,53.03,1.239807195312494,,13.9918628,66.3856851,20190516,102136,2019-05-16T10:21:36Z,75.085,0.87,1.78,11.49,9,7,16,0.09,0.02,-0.06,-6389,0,0,0,5,5,13.991862940737835,66.38567901364976,50,1751251,48,99,165,3619,3619,4384,4394,175,17586,26,212,17589,0,false,false,false,false,false,false,true,false,false,false,5829,5315,4534,4846,52,65,65,52,1572,1497,1377,1496,1539,1515,1406,1442,0.0,0.0,0.0,0.0,1662.5,1658.2,1657.6,1662.5,5.66,3.2,2.21,4.09,0,0,0,0,-154.9084702903262,13.991863883067275,66.3856842137764,0,-108.40326,-108.73649,0.0040651057,-0.031347644,-1.0060486,1.0065451,11.091177,-4.8596535,-1.0447778,12.154094,75,208,1530,1545.0,-0.20574668,0.0025309243,0.014132797,0.20624702,0.20576223980765684,-0.14425461390299463,-2.1493770382475685,0.3037725658839706,-83.54314280800341,276.4568571919966,13.99121929562251,19.217023170751617,-2.2346776794100354,-72.6110815411964,0.5797491227341625,7464165.643370748,-175.02729161165735,-169.75257086412518,53.02,NONE,0.0,0.0,0.0,NONE,1.4613314029186975E-9,1.7150359810444627E-9,7.6293945E-5,2,45.93,56.29,42.41,31.93,16.799,16.799,5.965,6.522005,0,3555,4.192,12.0,7.278,99,24.6,OK,92,0,0,0,0,0,65,100,0.0,0,0.0,179.23828,2.69E-43,0.0,2.5102509E-8,63,8.4968633E-7,-5.917429E-7,8.821441E-34,False,False,0,None,1.6593426E30,1.6031175E-19,
378799910,13.133,13.991867297346426,66.38568007381276,16,-108.80623,-109.12992,0.0025118084,-0.009251984,-0.992551,0.99259734,14.961683,1.3557992,-3.3617501,15.394528,53,525,1447,1540.0,-0.7436975,0.09955002,-0.012695636,0.75043815,0.7503307328556889,-0.18156928187274557,7.241325922564496,0.2334800734558402,-97.59450094182435,262.4054990581757,15.543061742447467,37.07782603760263,-2.673144968718072,-80.09097246664598,0.2270538131423752,22.416954830197465,166.472682990991,171.74740373852316,53.33,0.9002533623046816,,13.9918651,66.3856809,20190516,102137,2019-05-16T10:21:37Z,75.115,0.87,1.78,11.52,9,7,16,-0.73,0.04,-0.06,0,0,0,0,5,5,13.991862940737835,66.38567901364976,50,1751252,19,100,166,3619,3619,4380,4389,125,17586,26,1,17112,0,false,false,false,false,false,false,true,false,false,false,5545,5524,4532,4567,51,65,66,51,1531,1545,1429,1433,1527,1532,1422,1424,0.0,0.0,0.0,0.0,1660.7,1657.0,1657.0,1661.3,4.7,4.26,3.3,2.6,0,0,0,0,-178.37172597248525,13.991866631707358,66.38567937602038,0,-108.716385,-108.696106,0.0027203595,-0.010307221,-0.9900213,0.9900787,19.330917,-4.904688,2.559625,20.107014,55,503,1456,1541.0,-0.73649424,0.07254589,0.01551496,0.7402212,0.7400585760955354,-0.18926484108240427,7.433793542122208,0.2932147633322717,-94.68532295384853,265.3146770461515,13.719792803493222,31.790982294735,-2.551333735451332,-78.576169816872,0.16926987234480168,7464166.2224786915,133.06688367921936,138.34160442675153,53.34,NONE,0.0,0.0,0.0,NONE,9.928730552333852E-9,-5.1370101127762345E-8,9.918213E-5,2,51.14,50.51,37.44,39.38,16.767,16.767,5.975,6.8551083,0,3553,4.194,12.0,7.205,99,24.6,OK,93,0,0,0,0,0,65,100,0.0,0,0.0,-2.4358946E31,2.68E-43,0.0,2.5102509E-8,63,8.7861554E-7,-6.062075E-7,3.6325868E-34,False,False,0,None,3.4268695E29,1.6322012E-19,
382695364,14.146,13.99186746500884,66.38567778572418,16,-108.39612,-109.13381,0.0036212571,-0.013464349,-0.9841011,0.9841999,1.4584473,1.9311442,4.3528776,4.9803543,64,437,1472,1536.0,0.018321002,0.0062641734,-0.0059424713,0.02025369,0.019362308329951616,0.2320508149119152,1.8063893217838498,0.2332816854441156,-96.1714194036068,263.8285805963932,15.394365288176449,31.872736469891198,-3.325291938008677,-79.8277209812901,0.243420873806528,22.692027751229656,-179.90925603455742,-174.63453528702524,53.67,1.310363835937494,,13.9918666,66.3856775,20190516,102138,2019-05-16T10:21:38Z,75.033,0.87,1.78,11.58,9,7,16,-0.1,0.04,-0.01,0,0,0,0,5,5,13.991862940737835,66.38567901364976,50,1751253,114,100,167,3619,3619,4379,4387,0,17512,26,3622,677,0,false,false,false,false,false,false,true,false,false,false,5472,5600,4550,4571,53,65,66,52,1526,1541,1428,1433,1520,1538,1428,1423,0.0,0.0,0.0,0.0,1661.3,1657.0,1657.0,1661.9,4.58,4.16,3.22,2.65,0,0,0,0,176.8608340177461,13.991867757370091,66.38567678326342,0,-108.53916,-108.713524,0.005055025,-0.013430089,-0.9919209,0.99202466,-6.130156,-9.243714,-3.9368603,11.769619,58,435,1478,1541.0,-0.023727817,0.017403543,0.01263259,0.03202304,0.029426053482436102,0.2596155520962612,1.5446828763448393,0.20994903867583073,-93.38395751336952,266.6160424866305,14.190206081889478,27.18877021910963,-2.4988097867704715,-80.87346213404038,0.32792798811232016,7464166.54505274,119.20427462405755,124.47899537158973,53.72,NONE,0.0,0.0,0.0,NONE,9.557298329958826E-10,-1.583316069833584E-9,1.5258789E-5,2,50.83,51.98,37.45,38.3,16.759,16.759,5.969,7.0997243,0,3551,4.184,12.0,7.275,99,24.7,OK,94,0,0,0,0,0,65,100,0.0,0,0.0,1.9550583E-11,2.68E-43,0.0,2.5102509E-8,63,8.673669E-7,-6.0059045E-7,5.2857587E-34,False,False,0,None,6.152852E29,1.6208854E-19,
386554412,15.149,13.991868650921509,66.38567842284678,16,-108.72012,-109.119286,-0.0015537193,-0.014937646,-0.98495775,0.98507226,-4.392657,6.5405784,-5.011595,9.337595,64,421,1475,1535.0,0.085804366,-0.032389946,-0.025478154,0.095187366,0.09171421813978933,-0.0036039600162825203,1.2458852597286785,0.002952908444013156,-95.48100163134943,264.51899836865056,16.11686113747716,32.2492976272041,-2.847749369380771,-80.64214601520149,0.26269150247612877,22.862882531425377,5.385984746650852,10.660705494183034,53.98,0.9863587089843691,,13.9918677,66.3856782,20190516,102139,2019-05-16T10:21:39Z,75.219,0.87,1.78,11.4,9,7,16,0.01,0.01,-0.01,0,0,0,0,5,5,13.991862940737835,66.38567901364976,50,1823543,16,100,168,3604,3617,4327,4344,-1392,17254,23,0,16709,0,false,false,false,false,false,false,true,false,false,false,5452,5610,4567,4527,53,67,67,53,1525,1537,1425,1434,1515,1542,1431,1417,0.0,0.0,0.0,0.0,1661.3,1655.8,1655.8,1661.3,4.59,4.2,3.18,2.72,0,0,0,0,174.25481840940472,13.991868920039723,66.38567777533541,0,-108.58801,-108.722534,-0.0010481597,-0.012556471,-0.98421794,0.9842986,7.0091105,-8.5013075,6.293758,12.689021,64,418,1475,1534.0,0.0061446,0.007400329,0.00412235,0.01046493,0.009618782793810631,0.11188765698053052,1.1364999400324396,0.020893368737443914,-89.83163634608268,270.1683636539173,13.682237426819198,27.31940925241307,-2.659241672679566,-80.57156444851391,0.29982029742078053,7464166.675231518,22.546818250668966,27.82153899820115,53.98,NONE,0.0,0.0,0.0,NONE,3.3517378941160556E-10,9.102594942693517E-11,1.5258789E-5,2,50.49,52.17,37.17,37.39,16.753,16.753,5.969,7.266331,0,3549,4.184,12.0,7.128,99,24.7,OK,95,0,0,0,0,0,65,100,0.0,0,0.0,NaN,2.68E-43,0.0,-3.3654391E38,63,8.5966894E-7,-5.967342E-7,5.181257E-34,False,False,0,None,6.000721E29,1.613143E-19,
390479420,16.169,13.991868566841017,66.38567964731067,16,-108.402954,-109.10359,-0.002814488,-0.016041225,-0.9838285,0.9839633,-3.57929,2.150283,-7.411055,8.506396,81,421,1493,1553.0,0.08899498,-0.036383785,-0.028035194,0.100149184,0.09614513465500744,0.037377792301908644,1.2320757223417627,-0.47717277083286214,-95.22079245568752,264.7792075443125,16.824178245295617,33.75245733187081,-3.256960851514644,-80.00931400129457,0.26031633553903133,23.010668324384472,-27.5019776274444,-22.22725687991222,54.23,1.303527898437494,,13.9918674,66.385679,20190516,102140,2019-05-16T10:21:40Z,75.329,0.87,1.78,11.3,9,7,16,0.03,0.02,-0.03,0,0,0,0,5,5,13.991862940737835,66.38567901364976,50,1823543,20,100,169,3604,3617,4327,4344,-1392,17254,23,2,16709,0,false,false,false,false,false,false,true,false,false,false,5438,5579,4612,4550,53,67,66,53,1520,1535,1426,1440,1510,1533,1437,1422,0.0,0.0,0.0,0.0,1660.7,1655.2,1655.2,1660.0,4.54,4.18,3.2,2.65,0,0,0,0,173.75474732132304,13.991868336802186,66.38567874226376,0,-108.41353,-108.72036,-0.0036453083,-0.018214012,-0.9885394,0.9887139,6.003254,4.77351,6.380445,9.976749,81,421,1490,1550.0,0.013951412,0.010087195,-0.0014047815,0.017273298,0.01721607996529338,0.09121682314687202,1.1030219052715344,-0.4455093736196402,-88.4445680797291,271.5554319202709,13.127547277354397,28.169313834389342,-3.6462496673118183,-79.97325670156695,0.24223980596009376,7464166.817291707,-6.601454112639384,-1.3267333651072017,54.22,NONE,0.0,0.0,0.0,NONE,2.706119105364783E-9,1.0532237795142767E-9,0.0,2,49.85,51.04,38.51,38.7,16.75,16.75,5.969,7.3645215,0,3547,4.182,12.0,7.103,99,24.7,OK,96,0,0,0,0,0,65,100,0.0,0,0.0,-0.039812088,2.68E-43,0.0,-3.3654391E38,63,8.604402E-7,-5.971271E-7,4.6586324E-34,False,False,0,None,5.2398714E29,1.613937E-19,
394328758,17.169,13.991867398493904,66.38568001687544,15,-108.50857,-109.090904,-0.005156501,-0.024915408,-0.99444765,0.9947731,0.12435757,-0.71563977,-1.1892879,1.3935604,75,424,1478,1539.0,0.067884,-0.057253785,-0.012778581,0.08971915,0.08880446389811893,-0.022523254424785435,1.2205625999341925,-0.367687298512803,-95.03728396282933,264.96271603717065,16.11782754161859,34.027314188896646,-4.39351767691514,-80.52994515754874,0.22774914864238302,23.1053469025682,0.09853340487565809,5.37325415240784,54.55,1.1979141899414003,,13.9918668,66.3856797,20190516,102141,2019-05-16T10:21:41Z,75.44,0.9,1.8,11.3,8,7,15,0.01,0.0,-0.01,0,0,0,0,5,5,13.991862940737835,66.38567901364976,50,1823544,114,100,170,3603,3617,4285,4307,-2951,17325,23,3619,17413,0,false,false,false,false,false,false,true,false,false,false,5461,5701,4614,4527,53,65,66,54,1527,1549,1443,1434,1516,1535,1438,1423,0.0,0.0,0.0,0.0,1660.0,1654.6,1653.9,1658.8,4.61,4.21,3.26,2.56,0,0,0,0,170.80913251758932,13.99186721371198,66.38567914705719,0,-108.439865,-108.71561,-0.004265611,-0.023658663,-0.99187404,0.9921653,6.045346,-1.5996968,2.9758477,6.925381,75,424,1478,1539.0,-0.0025625166,-0.011270426,0.013618643,0.01786215,0.011558070661418177,0.05570731101756575,1.0239946369259112,-0.30204896390829544,-87.70200961745896,272.29799038254106,12.992725017808189,29.55504807839456,-2.630348501371042,-80.40933513254237,0.19090509265262268,7464166.929204086,-52.32244240918108,-47.04772166164889,54.55,NONE,0.0,0.0,0.0,NONE,-1.939530218569067E-9,7.496254649354115E-11,6.866455E-5,2,48.67,52.38,40.58,37.6,16.741,16.741,5.959,7.4071493,0,3545,4.181,12.0,7.111,99,24.8,OK,97,0,0,0,0,0,65,100,0.0,0,0.0,-2.69927466E18,2.68E-43,0.0,-3.3654391E38,63,8.6538785E-7,-5.995864E-7,4.1488205E-34,False,False,0,None,4.4976876E29,1.6189001E-19,
398273924,18.194,13.991866085113163,66.38567988688287,15,-108.720245,-109.071686,0.004441263,-0.018234972,-0.99178714,0.9919647,-2.0842216,5.772459,-2.4906337,6.623331,61,426,1481,1542.0,0.0679921,-0.07430465,-0.019998562,0.102684215,0.100717953277559,-0.04194649173030413,1.3641135784516625,0.18202201797258902,-94.96916950662754,265.0308304933725,15.428006597451201,34.39355542554929,-4.102664244533666,-80.44753844182922,0.1704240277310433,23.214146840716197,-135.17155927647346,-129.8968385289413,54.87,0.9862366386718691,,13.9918655,66.3856799,20190516,102142,2019-05-16T10:21:42Z,75.497,0.9,1.8,11.38,8,7,15,0.03,-0.01,-0.02,0,0,0,0,5,5,13.991862940737835,66.38567901364976,50,1823544,114,100,170,3603,3617,4285,4307,-2951,17325,23,3619,17413,0,false,false,false,false,false,false,true,false,false,false,5429,5599,4536,4551,54,68,67,54,1514,1541,1434,1426,1513,1537,1417,1419,0.0,0.0,0.0,0.0,1660.7,1655.2,1654.6,1660.0,4.34,4.11,3.25,2.53,0,0,0,0,175.43429150663633,13.991865779416353,66.38567928067341,0,-108.66212,-108.71273,0.004877518,-0.017956033,-0.9917734,0.99194795,-1.2994583,-3.3977616,2.64757,4.4992223,61,426,1478,1539.0,0.006987036,-0.029102674,0.0071882373,0.030780759,0.02992965577313557,0.0340415131866193,1.1489259165266081,0.21182284916813207,-87.21977544569499,272.780224554305,13.912980344042921,30.788098085199472,-1.4627219250208865,-80.47469727785415,0.12988053432925262,7464167.051376122,-86.72513570080513,-81.45041495327294,54.87,NONE,0.0,0.0,0.0,NONE,-3.564939427133169E-9,9.959309746938445E-11,2.2888184E-5,2,49.05,52.04,37.0,37.74,16.738,16.738,5.964,7.4097137,0,3543,4.179,12.0,7.07,98,24.8,OK,98,0,0,0,0,0,65,100,0.0,0,0.0,-1.99831943E14,2.68E-43,0.0,-3.3654391E38,63,8.665229E-7,-6.001539E-7,3.7175163E-34,False,False,0,None,3.674264E29,1.6200251E-19,
402142651,19.200,13.991864980806183,66.38568018565634,15,-108.461044,-109.06881,0.0035145374,-0.012467736,-0.99155766,0.9916423,11.146271,6.998606,13.208772,18.646486,58,418,1475,1534.0,0.0564126,-0.048129965,-0.020374632,0.07690254,0.07415439927966204,-0.015120478427404896,1.0409836986894354,0.14346055086882503,-95.08005153476084,264.91994846523914,14.81568372992742,33.87207298267028,-6.0466194476988235,-81.0340278687859,0.15887362299381147,23.299794841643614,-29.16508034102338,-23.890359593491198,55.16,1.2454376884765566,,13.9918644,66.3856802,20190516,102143,2019-05-16T10:21:43Z,75.537,0.9,1.8,11.5,8,7,15,0.02,0.01,0.01,0,0,0,0,5,5,13.991862940737835,66.38567901364976,50,1823544,114,100,170,3603,3617,4285,4307,-2951,17325,23,3619,17413,0,false,false,false,false,false,false,true,false,false,false,5551,5560,4625,4484,54,66,66,54,1531,1537,1435,1415,1525,1542,1435,1402,0.0,0.0,0.0,0.0,1658.2,1653.9,1653.9,1658.8,4.68,4.14,3.29,2.43,0,0,0,0,175.7151155731609,13.991865018890662,66.38567942825154,0,-108.50332,-108.72581,0.003296388,-0.018060282,-0.99063593,0.99080604,-14.593196,-7.6297483,-15.863691,22.865501,58,418,1475,1534.0,0.0055566956,-0.007059953,0.010020895,0.013458757,0.008984420318852028,0.028451894526100086,0.7961080757912294,0.14121769087132444,-87.11051543409687,272.8894845659031,13.404284357892228,31.243769725684885,-0.36256380795617593,-81.18334547300593,0.10341058400470571,7464167.125132321,-104.16768419592204,-98.89296344838985,55.18,NONE,0.0,0.0,0.0,NONE,-1.5248236484289845E-9,3.964983268709498E-10,6.866455E-5,2,50.79,51.8,38.87,36.17,16.738,16.738,5.957,7.383987,0,3541,4.179,12.0,7.025,98,24.8,OK,99,0,0,0,0,0,65,100,0.0,0,0.0,1.1964328E-36,2.69E-43,0.0,-3.3654391E38,63,8.585048E-7,-5.961521E-7,3.5214438E-34,False,False,0,None,3.1362437E29,1.6119849E-19,
405992235,20.200,13.991864473196813,66.38568054284332,15,-108.66656,-109.05816,0.008178113,-0.015180243,-0.98826534,0.9884157,7.0918255,-4.766424,3.347486,9.177061,58,415,1478,1536.0,0.044565547,-0.06366065,-0.032762066,0.08433338,0.07770949976883414,-0.0320297317370274,0.8853454998632376,0.18320901008932444,-95.03218391059286,264.96781608940717,15.297701043385787,35.03124351080189,-5.4130279287614185,-80.9086395173335,0.18322780191050378,23.359828035872788,-60.42492502103275,-55.15020427350056,55.41,1.0399246879882753,,13.9918636,66.3856805,20190516,102144,2019-05-16T10:21:44Z,75.633,0.9,1.8,11.6,8,7,15,0.0,-0.01,0.0,0,0,0,0,5,5,13.991862940737835,66.38567901364976,50,1823544,114,100,170,3603,3617,4285,4307,-2951,17325,23,3619,17413,0,false,false,false,false,false,false,true,false,false,false,5499,5555,4595,4442,54,67,67,54,1536,1540,1428,1427,1523,1527,1427,1422,0.0,0.0,0.0,0.0,1659.4,1653.3,1653.3,1657.6,4.53,4.18,3.26,2.44,0,0,0,0,174.08416744865053,13.991864549155887,66.38567995153632,0,-108.66127,-108.73397,0.007610527,-0.018981613,-0.9913675,0.99157846,-3.496078,8.229337,-3.1408367,9.476782,58,415,1478,1536.0,-0.004388922,-0.014571989,-0.0027910154,0.015472403,0.015218590237172527,0.04658524532348008,0.6574702679466667,0.2601161317142317,-86.78190162926805,273.2180983707319,13.545967344633196,31.578947409737598,-0.8144059904033896,-80.76262506868252,0.12652545178625468,7464167.210425203,-55.7559416394365,-50.481220891904314,55.43,NONE,0.0,0.0,0.0,NONE,-2.7903303917788754E-10,-8.352969490343569E-11,0.0,2,50.44,51.84,38.55,36.32,16.725,16.725,5.957,7.340716,0,3537,4.179,12.0,7.083,98,24.8,OK,100,0,0,0,0,0,65,100,0.0,0,0.0,1.1102315E-21,2.69E-43,0.0,-3.3654391E38,63,8.516363E-7,-5.9271787E-7,3.56E-34,False,False,0,None,3.215646E29,1.6050697E-19,
409905037,21.217,13.991863165081124,66.38568084459561,15,-108.52354,-109.045166,0.011258231,-0.017774291,-0.9868415,0.9870658,0.17943281,-2.5275018,3.7055569,4.4890547,47,415,1475,1532.0,0.037345245,-0.06555791,-0.034204904,0.0828401,0.0754487053589286,-0.00933051076634872,0.9680581964869704,0.5598187564218597,-94.93908076527998,265.06091923472,15.599685311294943,35.6641763925344,-5.122936774526176,-81.04263556299956,0.20383697610165147,23.43275902522184,-80.59435246453265,-75.31963171700046,55.78,1.1829453178710878,,13.9918624,66.3856807,20190516,102145,2019-05-16T10:21:45Z,75.769,0.9,1.8,11.69,8,7,15,0.01,0.0,-0.02,0,0,0,0,5,5,13.991862940737835,66.38567901364976,50,1823544,114,100,170,3603,3617,4285,4307,-2951,17325,23,3619,17413,0,false,false,false,false,false,false,true,false,false,false,5447,5591,4567,4518,54,68,68,53,1524,1543,1434,1427,1515,1536,1429,1422,0.0,0.0,0.0,0.0,1658.8,1653.3,1653.3,1657.0,4.37,4.2,3.25,2.59,0,0,0,0,174.35622237390518,13.99186328837462,66.38568012827889,0,-108.52882,-108.73838,0.0105946055,-0.016389739,-0.98842424,0.9886169,0.8813258,4.859665,-0.9656165,5.032444,47,418,1475,1533.0,-0.013504255,-0.017481888,-0.003549188,0.022373602,0.022090298251030527,0.03641733136610269,0.7723330838242922,0.6229107623886698,-86.50766754835882,273.4923324516412,13.526640401939595,31.80341843902422,-0.42606823756973583,-80.9939628491141,0.1249046347297705,7464167.28674676,-67.56030803906745,-62.28558729153527,55.76,NONE,0.0,0.0,0.0,NONE,-1.0185541572169304E-9,-2.0614700360885347E-10,0.0,2,50.28,52.59,37.66,37.22,16.723,16.723,5.958,7.2901716,0,3535,4.179,12.0,7.037,98,24.8,OK,101,0,0,0,0,0,65,100,0.0,0,0.0,196.40625,2.69E-43,0.0,-3.3654391E38,63,8.477655E-7,-5.9078246E-7,3.609606E-34,False,False,0,None,3.3601368E29,1.6011654E-19,
413787406,22.226,13.991862054043455,66.38568094033631,15,-108.534035,-109.03376,0.007606541,-0.013841493,-1.0012496,1.0013741,-0.55270857,3.6552017,0.576889,3.7414954,44,424,1481,1541.0,0.048609182,-0.06260102,-0.029827543,0.08468425,0.07925743475194623,-0.029089233072580573,1.0911000542808666,0.6022650054150358,-94.99130161453776,265.00869838546225,16.269368361318588,35.91863992229281,-4.5412898781487705,-81.4283707528391,0.21784789567770546,23.503494249944378,-80.60955421173153,-75.33483346419935,56.16,1.1724472709960878,,13.9918612,66.3856807,20190516,102146,2019-05-16T10:21:46Z,75.93,0.87,1.78,11.77,9,7,16,-0.02,0.0,-0.01,0,0,0,0,5,5,13.991862940737835,66.38567901364976,50,1823544,114,100,170,3603,3617,4285,4307,-2951,17325,23,3619,17413,0,false,false,false,false,false,false,true,false,false,false,5458,5617,4529,4563,53,68,67,54,1524,1544,1434,1435,1511,1532,1433,1425,0.0,0.0,0.0,0.0,1658.8,1652.1,1652.7,1657.0,4.48,4.38,3.24,2.3,0,0,0,0,176.3930867734269,13.991862028049843,66.38568020133188,0,-108.58688,-108.74004,0.007243257,-0.0150936125,-1.0022509,1.0023907,-2.526375,-0.4216756,0.5588257,2.6215773,44,424,1481,1541.0,3.2586994E-4,-0.00630103,-0.0041618235,0.007558435,0.006309451041823513,0.04990638616446337,0.9358917567633634,0.6417054311592492,-86.34942162095817,273.6505783790418,13.415618556769823,31.890235533206223,-0.7774145826246862,-81.37166142223462,0.13817973939726844,7464167.36312633,-71.22923078894028,-65.9545100414081,56.12,NONE,0.0,0.0,0.0,NONE,-1.8914096280213429E-10,3.8284443540089747E-11,-1.5258789E-5,2,49.4,51.82,38.41,38.01,16.717,16.717,5.955,7.239163,0,3533,4.176,12.0,7.078,98,24.9,OK,102,0,0,0,0,0,65,100,0.0,0,0.0,2.2614404E-7,9.0E-44,0.0,-3.3654391E38,63,8.471543E-7,-5.904769E-7,3.6846612E-34,False,False,0,None,3.578614E29,1.6005698E-19,
417639396,23.227,13.991860586600687,66.38568079167241,16,-108.650116,-109.02423,0.0095671415,-0.011021655,-0.9874212,0.9875291,-1.8424696,-3.8726618,-3.188276,5.343904,53,418,1481,1539.0,0.049443245,-0.06741495,-0.029696489,0.08872029,0.08360268665388876,-0.016256631865768048,1.254385152655927,0.27745858544255453,-95.17042170210986,264.8295782978901,14.351043957817508,36.2688758551722,-4.571406724863779,-81.1218447056691,0.22379323862823836,23.577400983535888,-126.82767749782568,-121.55295675029349,56.39,1.056366033203119,,13.9918598,66.3856807,20190516,102147,2019-05-16T10:21:47Z,76.124,0.87,1.78,11.82,9,7,16,-0.01,0.0,-0.02,0,0,0,0,5,5,13.991862940737835,66.38567901364976,50,1823544,114,100,170,3603,3617,4285,4307,-2951,17325,23,3619,17413,0,false,false,false,false,false,false,true,false,false,false,5627,5592,4512,4491,55,68,68,55,1541,1550,1427,1433,1535,1536,1417,1424,0.0,0.0,0.0,0.0,1656.4,1652.1,1651.5,1655.8,4.68,4.17,2.93,2.67,0,0,0,0,-179.6380278693886,13.991860616640412,66.38568014258108,0,-108.407005,-108.74132,0.00868631,-0.009684466,-0.99434334,0.99442846,-7.4196115,-1.546255,-5.1679883,9.173311,55,424,1481,1541.0,0.014124785,-0.008584218,0.001608,0.016606746,0.016528713046976472,0.04660675295934156,0.9765727960684034,0.2798050211252473,-86.30847361457818,273.6915263854218,15.3032479331836,34.26391003665089,-1.0778527007272625,-81.12359679414946,0.1627102940322371,7464167.429926434,,,56.44,NONE,0.0,0.0,0.0,NONE,-3.9064626315665484E-10,-1.070893525664809E-10,0.0,2,51.77,52.61,37.63,37.51,16.709,16.709,5.947,7.1926775,1767,3531,4.176,12.0,7.078,98,24.9,OK,103,0,0,0,0,0,65,100,0.0,0,0.0,3.487471E-22,9.0E-44,0.0,-3.3654391E38,63,8.4604835E-7,-5.899239E-7,3.811262E-34,False,False,0,None,3.947191E29,1.5994448E-19,
421498315,24.230,13.991858497388138,66.38568100442048,16,-108.47511,-109.00989,0.018391872,-0.0068401555,-0.98685926,0.98705435,-3.0065033,2.2076895,-3.5864336,5.1745014,30,413,1481,1537.0,0.04304889,-0.08430536,-0.036361814,0.101404056,0.09466045078264351,0.0010784267878224951,0.9007714687646478,0.9551560085467831,-95.23404584138916,264.76595415861084,15.01534853509041,36.80860302101046,-4.077467588721115,-81.99639530057254,0.29693921248386274,23.67670637220162,-107.74047215942205,-102.46575141188987,56.71,1.2313690849609316,,13.9918582,66.3856809,20190516,102148,2019-05-16T10:21:48Z,76.35,0.87,1.78,11.86,9,7,16,0.0,-0.01,-0.02,0,0,0,0,5,5,13.991862940737835,66.38567901364976,50,1823544,114,100,170,3603,3617,4285,4307,-2951,17325,23,3619,17413,0,false,false,false,false,false,false,true,false,false,false,5545,5566,4452,4437,53,68,68,53,1537,1542,1414,1419,1524,1534,1416,1413,0.0,0.0,0.0,0.0,1657.6,1653.3,1653.3,1657.6,4.7,4.19,2.83,2.47,0,0,0,0,179.07179675322058,13.99185874937662,66.38568021047867,0,-108.43812,-108.7322,0.019610252,-0.0051411074,-0.9863028,0.9865111,3.7184668,-2.0666678,4.3251624,6.066724,30,413,1481,1537.0,0.0030841192,-0.021030951,-0.010296569,0.023618469,0.021255886816362667,0.062015400021008936,0.8178444960710718,1.0108465517551073,-86.25822175845596,273.741778241544,15.088836905266406,33.89296139796067,-0.6458505639840176,-81.83408897437745,0.22927009742122043,7464167.529061305,-107.48936614814198,-102.2146454006098,56.72,NONE,0.0,0.0,0.0,NONE,-3.501112836621431E-9,5.970231398311173E-11,-9.1552734E-5,2,50.98,51.99,36.7,36.61,16.703,16.703,5.947,7.1543345,1775,3529,4.173,12.0,7.112,98,24.9,OK,104,0,0,0,0,0,65,100,0.0,0,0.0,6.645662E-31,9.0E-44,0.0,-3.3654391E38,63,8.5240754E-7,-5.9311077E-7,4.386388E-34,False,False,0,None,4.843634E29,1.6058638E-19,
425423678,25.251,13.99185732053126,66.3856812960748,15,-108.485245,-108.98915,0.016533533,-0.0038829553,-0.99203664,0.992182,3.6841507,4.86027,-1.9309611,6.3971715,47,399,1490,1543.0,0.051636152,-0.07049072,-0.026512615,0.09131348,0.08737982294632755,-0.02695867516019345,0.15072860660941623,0.6370273356893591,-95.34554923721208,264.6544507627879,14.924715961734996,37.382352957992616,-3.689327147667563,-80.85855605412951,0.3564826269802813,23.781619541770596,22.600750449286004,27.875471196818186,57.0,1.2212372490234316,,13.9918571,66.3856813,20190516,102149,2019-05-16T10:21:49Z,76.647,0.9,1.8,11.86,8,7,15,0.01,0.0,-0.03,0,0,0,0,5,5,13.991862940737835,66.38567901364976,50,1823544,114,100,170,3603,3617,4285,4307,-2951,17325,23,3619,17413,0,false,false,false,false,false,false,true,false,false,false,5545,5503,4444,4386,54,70,70,54,1538,1535,1421,1415,1536,1522,1409,1414,0.0,0.0,0.0,0.0,1657.0,1653.9,1653.3,1656.4,4.7,4.15,2.96,2.29,0,0,0,0,179.58669225825054,13.99185772412341,66.38568073982012,0,-108.41654,-108.71707,0.015674304,0.0045193685,-0.99423665,0.99437046,-1.773819,-1.5400864,3.0064447,3.8153648,44,399,1490,1543.0,0.013853549,-0.0017578255,-0.005627361,0.015055828,0.013964625628641925,0.05905969907464445,0.0409625855154836,0.6884765232291163,-86.31937732139306,273.68062267860694,15.066881281912712,33.32911370680865,-0.7075764747061597,-81.15776628042175,0.3013843702503737,7464167.632887211,37.52044297069088,42.795163718223066,57.01,NONE,0.0,0.0,0.0,NONE,-4.3843276431737873E-10,8.296747562120682E-10,-2.2888184E-5,2,50.74,50.73,36.63,36.72,16.704,16.704,5.952,7.125679,1781,3527,4.173,12.0,7.113,98,24.9,OK,105,0,0,0,0,0,65,100,0.0,0,0.0,5.544945E-30,9.0E-44,0.0,2.0469024E-31,64,8.633215E-7,-5.9856774E-7,5.2098217E-34,False,False,0,None,6.042308E29,1.6168487E-19,
429272754,26.251,13.991856888441156,66.38568184087684,15,-108.48987,-108.972916,0.018086756,0.00346441,-0.9955099,0.9956802,7.7993007,6.249764,7.1718206,12.301368,27,391,1481,1531.0,0.032883756,-0.077974066,-0.019869927,0.086925894,0.08462444350437869,-0.02108411946147494,-0.1701254236574405,1.0182343147504422,-95.33812727203252,264.6618727279675,13.817381713459005,35.9753963299532,-3.7855126176399665,-82.32367296224756,0.41413223660092185,23.86161620954233,-103.81854045455296,-98.54381970702077,57.32,1.216613835937494,,13.9918565,66.3856816,20190516,102150,2019-05-16T10:21:50Z,76.877,0.9,1.8,11.88,8,7,15,-0.01,-0.01,-0.02,0,0,0,0,5,5,13.991862940737835,66.38567901364976,50,1823544,114,100,170,3603,3617,4285,4307,-2951,17325,23,3619,17413,0,false,false,false,false,false,false,true,false,false,false,5611,5577,4426,4489,55,70,71,55,1539,1541,1420,1423,1536,1539,1412,1414,0.0,0.0,0.0,0.0,1654.6,1651.5,1650.2,1653.9,4.8,4.15,3.01,2.68,0,0,0,0,-177.5563922098121,13.991857107107428,66.38568114696223,0,-108.46873,-108.7132,0.018629868,-6.7484565E-5,-0.9939415,0.99411607,-7.420807,-6.986148,-8.577455,13.320937,27,391,1481,1531.0,1.594692E-4,-0.012527168,0.0026452253,0.012804397,0.012528183088317515,0.040414160873116584,-0.27416973631988095,1.0834436589387415,-86.2358385808884,273.7641614191116,16.085968730511567,34.76034550757667,-0.23824251156105866,-82.13890385416792,0.3518361007692489,7464167.711361512,-36.40474662820027,-31.130025880668093,57.31,NONE,0.0,0.0,0.0,NONE,-2.0845607107642782E-9,5.970231380342938E-11,2.2888184E-5,2,51.78,52.06,36.11,37.26,16.705,16.705,5.95,7.1046553,1786,3525,4.172,12.0,7.033,98,24.9,OK,106,0,0,0,0,0,65,100,0.0,0,0.0,2.975682E-27,9.0E-44,0.0,2.0469024E-31,64,8.6623186E-7,-6.000084E-7,5.6132514E-34,False,False,0,None,6.921052E29,1.6197273E-19,
433250980,27.285,13.991857002200573,66.38568185928884,15,-108.43706,-108.95775,0.0165568,0.003828125,-0.9894319,0.98957783,-0.34473225,-2.2866337,0.4064449,2.3479207,39,402,1478,1532.0,0.023238733,-0.053948954,-0.0153712565,0.060719058,0.05874119921912123,-0.0534554357310675,0.27547209075073026,0.5354886910207706,-95.53650272995661,264.4634972700434,14.098702479989372,37.19069221427779,-4.250829747700579,-82.38004831043344,0.4124204356576383,23.896133729893492,,,57.61,1.2694245048828066,,13.9918565,66.3856818,20190516,102151,2019-05-16T10:21:51Z,77.114,0.9,1.8,11.88,8,7,15,-0.01,0.02,-0.01,0,0,0,0,5,5,13.991862940737835,66.38567901364976,50,1823544,114,100,170,3603,3617,4285,4307,-2951,17325,23,3619,17413,0,false,false,false,false,false,false,true,false,false,false,5617,5516,4505,4443,56,70,70,56,1538,1538,1427,1421,1531,1534,1423,1412,0.0,0.0,0.0,0.0,1655.8,1651.5,1650.8,1656.4,4.7,4.0,2.86,2.48,0,0,0,0,-178.97743791793033,13.991857356636546,66.38568128072927,0,-108.40006,-108.70533,0.015567792,0.0019192575,-0.98819464,0.9883191,0.3914843,0.30791757,-0.56311494,0.75177896,36,402,1481,1535.0,-0.014698975,0.01589093,0.0010376646,0.0216716,0.021646743576069518,-0.003687811009950654,0.20527680404089196,0.6697844567340506,-86.31012082446803,273.689879175532,15.596725636655751,34.79808548236101,-1.0358690604334686,-82.34370567645162,0.35413846675870614,7464167.772883339,-4.079729310948904,1.1949914365832777,57.63,NONE,0.0,0.0,0.0,NONE,1.7099546641801326E-9,-1.3118445619720194E-9,2.2888184E-5,2,52.44,51.04,36.64,37.38,16.695,16.695,5.948,7.0889297,1789,3523,4.17,12.0,7.128,98,25.0,OK,107,0,0,0,0,0,65,100,0.0,0,0.0,7.67183E-26,9.0E-44,0.0,2.0469024E-31,64,8.718489E-7,-6.028169E-7,5.6014964E-34,False,False,0,None,6.886815E29,1.6253852E-19,
437144298,28.297,13.991857590046234,66.38568237448821,15,-108.569016,-108.94912,0.015118836,-0.00314197,-0.98695844,0.98707926,8.677376,-0.6462514,4.46113,9.778352,44,399,1478,1531.0,0.025642548,-0.068404704,-0.017871417,0.075207256,0.07305302033099287,-0.010803238799276575,-0.04508278252284018,0.41508302442723477,-95.51874365370665,264.4812563462933,14.400169921369246,37.65789360120036,-4.786513492691391,-82.21567791785064,0.4432379312094096,23.979904033713783,43.3046710359925,48.579391783524684,57.91,1.1374664970703066,,13.9918571,66.3856822,20190516,102152,2019-05-16T10:21:52Z,77.36,0.9,1.8,11.78,8,7,15,0.0,0.01,-0.02,0,0,0,0,5,5,13.991862940737835,66.38567901364976,50,1823544,114,100,170,3603,3617,4285,4307,-2951,17325,23,3619,17413,0,false,false,false,false,false,false,true,false,false,false,5495,5526,4450,4448,56,69,69,57,1539,1538,1416,1421,1527,1524,1416,1420,0.0,0.0,0.0,0.0,1657.0,1651.5,1652.1,1654.6,4.7,4.26,2.88,2.33,0,0,0,0,179.10946374663942,13.991857910314447,66.38568163317584,0,-108.547874,-108.705,0.014655878,0.0013742791,-0.99016434,0.9902737,-5.075094,1.4741908,-1.8394403,5.5958343,41,399,1478,1531.0,-0.007692095,0.01077648,8.974357E-4,0.013270502,0.013240122358028645,0.03252169387369669,-0.17860138976330683,0.5573065257358394,-86.25651437178944,273.7434856282106,15.655716726152491,34.52779987524608,-0.853033699330463,-82.18956543056814,0.3674896061059619,7464167.838260915,156.58571778128433,161.8604385288165,57.89,NONE,0.0,0.0,0.0,NONE,1.94019874678742E-9,-3.5674140377197987E-10,1.5258789E-5,2,52.31,50.19,35.74,38.15,16.696,16.696,5.954,7.0799127,1790,3521,4.169,12.0,7.12,98,25.0,OK,108,0,0,0,0,0,65,100,0.0,0,0.0,1.603076E-19,9.0E-44,0.0,2.0469024E-31,64,8.720963E-7,-6.0294786E-7,5.9372176E-34,False,False,0,None,7.864401E29,1.6256499E-19,
440994176,29.297,13.991858301046609,66.38568253700367,15,-108.67435,-108.949486,0.013031349,-0.007223918,-0.99264544,0.99275726,-3.9638183,3.236061,-4.2619405,6.6594357,50,402,1487,1541.0,0.0015028566,-0.088790976,-0.015061139,0.09007183,0.08880369307530987,-0.0523617695334145,0.2548671691879909,0.4229451660579162,-95.55516984204596,264.444830157954,14.477370150356993,37.87058828759561,-4.991954978593942,-81.23112873775192,0.442944848496284,24.03583820202033,-8.829965725998555,-3.555244978466372,58.18,1.032135076171869,,13.9918577,66.3856826,20190516,102153,2019-05-16T10:21:53Z,77.618,0.9,1.8,11.66,8,7,15,-0.01,0.0,-0.01,0,0,0,0,5,5,13.991862940737835,66.38567901364976,50,1823544,114,100,170,3603,3617,4285,4307,-2951,17325,23,3619,17413,0,false,false,false,false,false,false,true,false,false,false,5518,5610,4416,4465,55,70,69,55,1533,1550,1425,1423,1527,1535,1409,1416,0.0,0.0,0.0,0.0,1653.9,1650.8,1650.8,1653.9,4.63,4.18,2.95,2.48,0,0,0,0,178.90368587511577,13.991858584265557,66.38568215565519,0,-108.706055,-108.707344,0.014426648,-0.004245884,-0.9900302,0.99014443,6.317645,-5.7765665,6.0569043,10.486536,53,399,1487,1540.0,-0.022668974,-0.011383617,0.0027849707,0.025519114,0.025366692772512182,0.0399906963644212,0.21202600041763398,0.5609767904382149,-86.15369781368348,273.8463021863165,16.003075122475902,35.250256875323906,-0.9107470547300056,-80.25623607617119,0.3996463369660368,7464167.924451267,5.163962594308558,10.43868334184074,58.18,NONE,0.0,0.0,0.0,NONE,-9.203078496690982E-10,-1.416256680354452E-9,8.392334E-5,2,50.35,51.19,37.33,37.96,16.69,16.69,5.943,7.075482,1790,3519,4.168,12.0,7.019,98,25.0,OK,109,0,0,0,0,0,65,100,0.0,0,0.0,1.2240426E-14,9.0E-44,0.0,2.0469024E-31,64,8.704228E-7,-6.021184E-7,6.122123E-34,False,False,0,None,8.402518E29,1.6239625E-19,
444847926,30.299,13.991858335484004,66.38568281587715,15,-108.5686,-108.949196,0.012761606,-0.008495117,-0.99333256,0.9934509,4.1095366,-0.19676553,4.41562,6.0352883,47,407,1484,1539.0,0.016842976,-0.08440396,-0.007740073,0.08641541,0.08606808126583282,-0.05506959093754583,0.39217527705639565,0.38473662976924583,-95.66252845197214,264.33747154802785,14.324431921094876,38.40101799477972,-4.861612152343877,-81.8286049744231,0.4699230416469821,24.102999998353653,-28.281326289334757,-23.006605541802575,58.5,1.137878484374994,,13.9918577,66.3856827,20190516,102154,2019-05-16T10:21:54Z,77.777,0.9,1.8,11.57,8,7,15,-0.01,0.0,0.0,0,0,0,0,5,5,13.991862940737835,66.38567901364976,50,1823544,114,100,170,3603,3617,4285,4307,-2951,17325,23,3619,17413,0,false,false,false,false,false,false,true,false,false,false,5549,5587,4415,4455,56,70,69,56,1539,1547,1422,1423,1527,1538,1413,1419,0.0,0.0,0.0,0.0,1653.3,1650.2,1650.2,1653.9,4.66,4.17,2.89,2.52,0,0,0,0,-179.94943004003954,13.991858614092859,66.38568219632874,0,-108.54746,-108.707664,0.012561748,2.5029015E-4,-0.9933632,0.99344265,-2.1982088,-1.3258083,1.2127534,2.8391302,47,405,1487,1541.0,-0.012391719,-0.0046809413,0.005751769,0.014441217,0.013246354856409388,-0.008539959874768074,0.2780610438353831,0.5275925716758985,-86.25100495449594,273.74899504550405,16.147340003356653,35.74521448529612,-0.9560133950894921,-81.32256446985349,0.4029690244625876,7464167.981884662,-161.49488685789484,-156.22016611036267,58.49,NONE,0.0,0.0,0.0,NONE,-2.362591359864691E-10,-2.642429761093631E-10,1.5258789E-5,2,51.41,52.39,35.6,37.98,16.688,16.688,5.944,7.071536,1790,3517,4.167,12.0,7.089,98,25.0,OK,110,0,0,0,0,0,65,100,0.0,0,0.0,1.7616464E-13,9.0E-44,0.0,2.0469024E-31,64,8.702482E-7,-6.020311E-7,6.2429637E-34,False,False,0,None,8.754364E29,1.623797E-19,
