Tick#,offsetTime,IMU_ATTI(0):Longitude,IMU_ATTI(0):Latitude,IMU_ATTI(0):numSats,IMU_ATTI(0):barometer:Raw,IMU_ATTI(0):barometer:Smooth,IMU_ATTI(0):accel:X,IMU_ATTI(0):accel:Y,IMU_ATTI(0):accel:Z,IMU_ATTI(0):accel:Composite,IMU_ATTI(0):gyro:X,IMU_ATTI(0):gyro:Y,IMU_ATTI(0):gyro:Z,IMU_ATTI(0):gyro:Composite,IMU_ATTI(0):mag:X,IMU_ATTI(0):mag:Y,IMU_ATTI(0):mag:Z,IMU_ATTI(0):mag:Mod,IMU_ATTI(0):velN,IMU_ATTI(0):velE,IMU_ATTI(0):velD,IMU_ATTI(0):velComposite,IMU_ATTI(0):velH,IMU_ATTI(0):GPS-H,IMU_ATTI(0):roll,IMU_ATTI(0):pitch,IMU_ATTI(0):yaw,IMU_ATTI(0):yaw360,IMU_ATTI(0):totalGyro:Z,IMU_ATTI(0):totalGyro:X,IMU_ATTI(0):totalGyro:Y,IMU_ATTI(0):magYaw,IMU_ATTI(0):distanceHP,IMU_ATTI(0):distanceTravelled,IMU_ATTI(0):directionOfTravel[mag],IMU_ATTI(0):directionOfTravel[true],IMU_ATTI(0):temperature,General:relativeHeight,General:absoluteHeight,GPS(0):Long,GPS(0):Lat,GPS(0):Date,GPS(0):Time,GPS:dateTimeStamp,GPS(0):heightMSL,GPS(0):hDOP,GPS(0):pDOP,GPS(0):sAcc,GPS(0):numGPS,GPS(0):numGLNAS,GPS(0):numSV,GPS(0):velN,GPS(0):velE,GPS(0):velD,RC:Aileron,RC:Elevator,RC:Rudder,RC:Throttle,Controller:navHealth,Controller:ctrl_level,HP:Longitude,HP:Latitude,HP:rthHeight,OA:avoidObst,OA:emergBrake,OA:radiusLimit,OA:airportLimit,OA:groundForceLanding,OA:horizNearBoundary,OA:vertLowLimit,OA:vertAirportLimit,OA:roofLimit,OA:hitGroundLimit,Motor:Speed:RFront,Motor:Speed:LFront,Motor:Speed:LBack,Motor:Speed:RBack,Motor:EscTemp:RFront,Motor:EscTemp:LFront,Motor:EscTemp:LBack,Motor:EscTemp:RBack,Motor:PPMrecv:RFront,Motor:PPMrecv:LFront,Motor:PPMrecv:LBack,Motor:PPMrecv:RBack,Motor:PPMsend:RFront,Motor:PPMsend:LFront,Motor:PPMsend:LBack,Motor:PPMsend:RBack,Motor:V_out:RFront,Motor:V_out:LFront,Motor:V_out:LBack,Motor:V_out:RBack,Motor:Volts:RFront,Motor:Volts:LFront,Motor:Volts:LBack,Motor:Volts:RBack,Motor:Current:RFront,Motor:Current:LFront,Motor:Current:LBack,Motor:Current:RBack,Motor:Status:RFront,Motor:Status:LFront,Motor:Status:LBack,Motor:Status:RBack,Motor:thrustAngle,IMU_ATTI(1):Longitude,IMU_ATTI(1):Latitude,IMU_ATTI(1):numSats,IMU_ATTI(1):barometer:Raw,IMU_ATTI(1):barometer:Smooth,IMU_ATTI(1):accel:X,IMU_ATTI(1):accel:Y,IMU_ATTI(1):accel:Z,IMU_ATTI(1):accel:Composite,IMU_ATTI(1):gyro:X,IMU_ATTI(1):gyro:Y,IMU_ATTI(1):gyro:Z,IMU_ATTI(1):gyro:Composite,IMU_ATTI(1):mag:X,IMU_ATTI(1):mag:Y,IMU_ATTI(1):mag:Z,IMU_ATTI(1):mag:Mod,IMU_ATTI(1):velN,IMU_ATTI(1):velE,IMU_ATTI(1):velD,IMU_ATTI(1):velComposite,IMU_ATTI(1):velH,IMU_ATTI(1):GPS-H,IMU_ATTI(1):roll,IMU_ATTI(1):pitch,IMU_ATTI(1):yaw,IMU_ATTI(1):yaw360,IMU_ATTI(1):totalGyro:Z,IMU_ATTI(1):totalGyro:X,IMU_ATTI(1):totalGyro:Y,IMU_ATTI(1):magYaw,IMU_ATTI(1):distanceHP,IMU_ATTI(1):distanceTravelled,IMU_ATTI(1):directionOfTravel[mag],IMU_ATTI(1):directionOfTravel[true],IMU_ATTI(1):temperature,IMUEX(0):err,IMUEX(0):rtk_Longitude,IMUEX(0):rtk_Latitude,IMUEX(0):rtk_Alti,IMUEX(1):err,IMUEX(1):rtk_Longitude,IMUEX(1):rtk_Latitude,IMUEX(1):rtk_Alti,BattInfo:Voltage,BattInfo:BatVoltage,BattInfo:AdVoltage,BattInfo:AvgCurrent,BattInfo:R_time,BattInfo:R_CAP_MAH,BattInfo:LowCellVoltage,BattInfo:LowCellVolThreshold,BattInfo:BatCurrent,BattInfo:Remaining%,BattInfo:Temp,BattInfo:status,battery_info:BatDynCnt,battery_info:Vol1Protect,battery_info:Vol2Protect,battery_info:Cap1Protect,battery_info:Cap2Protect,battery_info:Batpresent,battery_info:sopPercentage,battery_info:sopValue,battery_info:sopScale,battery_info:sopFlg,BattInfo:WindHeading:WindDir,battery_info:home_dir,BattInfo:Wind:rangeMin,BattInfo:Wind:rangeMax,battery_info:cap_speed,battery_info:against_wind,battery_info:emergency_land_cap,battery_info:intel_bat_land_cap,battery_info:intel_bat_gh_cap,BattInfo:Smart:SmartGh,BattInfo:Smart:SmartLand,BattInfo:GoHome:CntDown,BattInfo:GoHome:GhCmd,BattInfo:GoHome:CapLevel,BattInfo:GoHome:LandCapLv,Attribute|Value,ConvertDatV3,3.6.6-Tablet
7334266,1.906,,,,,,,,,,,,,,,,,,,,,,,,,,,,,,,,,,,,,,,,,,,,,,,,,,,,,,,,,,,,,,,,,,,,,,,,,,,,,,,,,,,,,,,,,,,,,,,,,,,,,,,,,,,,,,,,,,,,,,,,,,,,,,,,,,,,,,,,,,,,,,,,,,,,,,,,,,,,,,,,,OK,,,,,,,,,,,,,,,,,,,,,,,,,,Firmware Date| Oct 17 2018
1512551267,393.105,,,,,,,,,,,,,,,,,,,,,,,,,,,,,,,,,,,,,,,,,,,,,,,,,,,,,,,,,,,,,,,,,,,,,,,,,,,,,,,,,,,,,,,,,,,,,,,,,,,,,,,,,,,,,,,,,,,,,,,,,,,,,,,,,,,,,,,,,,,,,,,,,,NONE,-3.9157119688898013E-11,-1.0427397496045824E-10,0.0,,,,,,,,,,,,OK,,,,,,,,,,,,,,,,,,,,,,,,,,ACType|MavicEnterprise
1516413149,394.109,,,0,152.93483,152.87804,0.057314392,0.0027239518,-0.9869862,0.9886527,0.34139675,-0.018034497,-0.048483577,0.34529355,-526,-218,1582,1681.0,-0.001988219,-6.409781E-4,0.001833894,0.0027797546,0.0020889872909384054,-0.0020889872909384054,-0.18203398561450787,3.327946967551482,152.67586263815974,152.67586263815974,-0.03466102211551485,0.2658492882761253,-0.0970912971110665,153.82194520143523,,0.0,,,64.95,,,27.2138922,43.1869578,20190524,152302,2019-05-24T15:23:02Z,9936.087,99.99,99.99,3.7500048E7,0,0,0,0.0,0.0,0.0,0,0,0,0,0,0,,,,false,false,false,false,false,false,false,false,false,false,0,0,0,0,56,71,71,54,944,946,945,945,940,940,940,940,0.0,0.0,0.0,0.0,1693.2,1688.9,1688.9,1692.0,0.0,0.0,0.01,0.0,0,0,0,0,-45.0,1.0603920350334695E-10,2.1977513814855418E-11,0,152.94804,153.1799,0.057722196,0.002432596,-0.9876017,0.98929006,0.3410649,-0.07033887,-0.08153442,0.35766003,-526,-221,1582,1681.0,2.6915988E-4,0.001213101,-0.0016745938,0.0020852638,0.0012426025022633036,-0.0012426025022633036,-0.19979025500736422,3.3003593572147767,160.77045394064547,160.77045394064544,-0.03899636279153873,0.26330584254795975,-0.049411788161058914,153.59586999371948,,8.261390050244273E-5,,,64.98,NONE,0.0,0.0,0.0,NONE,6.873306399994444E-11,-2.6516075385427248E-11,0.0,17.034,17.034,6.082,1.4038682,0,3223,4.251,12.0,1.397,93,28.1,OK,378,0,0,0,0,0,65,100,0.0,0,0.0,589232.0,2.69E-43,0.0,-5.9807744E7,62,1.1641532E-10,-1.1641625E-10,9.4E-44,False,False,0,None,0.0,1.0842022E-19,dateTime|2019-5-24 15:23:1 GMT
1520267338,395.111,0.0,0.0,0,153.24133,152.95023,0.057793837,0.0028220871,-0.9899667,0.9916563,0.49102977,-0.02674181,-0.31291622,0.5828738,-526,-221,1582,1681.0,6.8806455E-4,-5.666775E-4,-0.03816232,0.03817273,8.913788038583805E-4,-8.913788038583805E-4,-0.18511599408580037,3.331074848423018,152.6650697885696,152.66506978856955,-0.06625666484031824,0.6004962136127392,-0.19493692696006407,153.5076008640426,,0.0,,,64.98,,,27.2172187,43.1871126,20190524,152303,2019-05-24T15:23:03Z,9936.145,99.99,99.99,3.7500048E7,0,0,0,0.0,0.0,0.0,0,0,0,0,0,0,,,,false,false,false,false,false,false,false,false,false,false,0,0,0,0,54,70,71,55,944,945,944,945,940,940,940,940,0.0,0.0,0.0,0.0,1692.6,1690.1,1688.9,1693.2,0.0,0.0,0.01,0.0,0,0,0,0,-45.0,-7.09939787747774E-11,-1.2862743620813134E-11,0,153.17792,153.17961,0.057655208,0.0034323893,-0.98926204,0.99094665,0.39268625,-0.055650387,-0.017656919,0.3970028,-526,-221,1582,1681.0,-1.3818432E-4,-8.18532E-4,5.147633E-4,9.767655E-4,8.301141937918423E-4,-8.100851926526663E-4,-0.1808780174453237,3.27647525570164,160.75871679740953,160.75871679740953,-0.12188598941000348,0.595334056749172,-0.14396635789729595,153.57608632532742,,1.5226477347840206E-4,,,64.99,NONE,0.0,0.0,0.0,NONE,-2.0400520531106652E-11,7.089776962922425E-11,0.0,17.034,17.034,6.082,1.4034309,0,3223,4.251,12.0,1.407,93,28.1,OK,379,0,0,0,0,0,65,100,0.0,0,0.0,589232.0,2.69E-43,0.0,-5.9807744E7,62,1.1641532E-10,-1.1641625E-10,9.4E-44,False,False,0,None,0.0,1.0842022E-19,
1524128916,396.114,0.0,0.0,0,153.02202,153.07947,0.05664378,0.0019423412,-0.9883674,0.98999107,0.21868652,-0.07970181,-0.091367714,0.25004846,-529,-218,1591,1690.0,0.0048834938,-0.0019203968,-0.047939375,0.04822572,0.00524751716448157,-0.00524751716448157,-0.18439299298137024,3.3294736860399547,152.66297092244204,152.662970922442,-0.13572325971987337,0.9102486206598136,-0.29574726973522397,153.95853710683673,,0.0,,,65.03,,,27.21988,43.1872361,20190524,152304,2019-05-24T15:23:04Z,9936.191,99.99,99.99,3.7500052E7,0,0,0,0.0,0.0,0.0,0,0,0,0,0,0,,,,false,false,false,false,false,false,false,false,false,false,0,0,0,0,55,71,70,54,944,946,944,945,940,940,940,940,0.0,0.0,0.0,0.0,1693.2,1688.9,1688.9,1692.6,0.0,0.0,0.01,0.0,0,0,0,0,-45.0,1.597490012648553E-11,-3.789385185803415E-11,0,153.10393,153.17947,0.0571177,0.002204189,-0.9876737,0.98932636,0.32384408,-0.09005124,0.05236642,0.3401859,-529,-218,1594,1693.0,-4.1874402E-4,1.7663451E-4,-1.9518814E-4,4.9461576E-4,4.544736555797826E-4,-4.4444674625480115E-4,-0.17894906502362426,3.252915541379744,160.75667687563185,160.7566768756319,-0.18032808080650528,0.9539475562754567,-0.2828051407892086,154.04662027429669,,2.624133318385609E-4,,,65.0,NONE,0.0,0.0,0.0,NONE,-7.167580876286072E-12,-5.677594119278135E-11,0.0,17.033,17.033,6.08,1.4030557,0,3222,4.251,12.0,1.398,93,28.1,OK,380,0,0,0,0,0,65,100,0.0,0,0.0,589232.0,2.69E-43,0.0,-5.9807744E7,62,1.1641532E-10,-1.1641625E-10,9.4E-44,False,False,0,None,0.0,1.0842022E-19,
1527985680,397.117,0.0,0.0,0,152.86348,153.16534,0.05725578,0.0022565825,-0.9882267,0.9898865,0.28711435,-0.1150891,0.02129201,0.31005403,-529,-221,1579,1679.0,0.0062579997,-9.6446427E-4,-0.028954579,0.029638832,0.006331883834782554,-0.006331883834782554,-0.17144362558620596,3.3363420791848917,152.65531316927206,152.65531316927206,-0.14176621801680345,1.2615935588914537,-0.3485894005654849,153.62565226341349,,0.0,,,65.0,,,27.223872,43.1874208,20190524,152305,2019-05-24T15:23:05Z,9936.261,99.99,99.99,3.7500052E7,0,0,0,0.0,0.0,0.0,0,0,0,0,0,0,,,,false,false,false,false,false,false,false,false,false,false,0,0,0,0,55,73,72,55,944,945,944,945,940,940,940,940,0.0,0.0,0.0,0.0,1694.4,1687.6,1688.9,1693.2,0.0,0.0,0.01,0.0,0,0,0,0,-45.0,-8.624312735151914E-11,-9.335632914908232E-11,0,152.94804,153.17952,0.05636881,0.002969985,-0.98962516,0.9912337,0.2767845,-0.2591651,-0.009184376,0.37928954,-529,-218,1594,1693.0,-9.769079E-4,-0.00101508,-4.1005836E-4,0.0014672711,0.0014088068098542315,-0.0013959057464062328,-0.15941903033033863,3.2697369066703623,160.75495874863051,160.75495874863054,-0.22694380389354216,1.2945144401828235,-0.3717664624074253,153.9647385090578,,3.187486190245389E-4,,,64.99,NONE,0.0,0.0,0.0,NONE,-3.732705453722717E-11,-4.45239164559025E-11,0.0,17.033,17.033,6.082,1.4025693,0,3222,4.251,12.0,1.397,93,28.1,OK,381,0,0,0,0,0,65,100,0.0,0,0.0,589232.0,2.69E-43,0.0,-5.9807744E7,62,1.1641532E-10,-1.1641625E-10,9.4E-44,False,False,0,None,0.0,1.0842022E-19,
1531847524,398.120,0.0,0.0,0,153.03523,153.13383,0.05635633,0.002879506,-0.98805493,0.98966503,0.4154987,-0.08315257,0.02054614,0.4242354,-526,-221,1582,1681.0,0.005188631,-0.0044494965,0.018487928,0.019710997,0.006835196393149834,-0.006835196393149834,-0.17556077669665476,3.3263299998265623,152.65942741029806,152.65942741029812,-0.2034613298403523,1.6397958423646697,-0.4512562339763384,153.48679859817457,,0.0,,,65.01,,,27.2271988,43.1875743,20190524,152306,2019-05-24T15:23:06Z,9936.318,99.99,99.99,3.7500056E7,0,0,0,0.0,0.0,0.0,0,0,0,0,0,0,,,,false,false,false,false,false,false,false,false,false,false,0,0,0,0,55,72,71,55,944,945,944,944,940,940,940,940,0.0,0.0,0.0,0.0,1692.6,1688.2,1687.6,1693.2,0.0,0.0,0.01,0.0,0,0,0,0,-45.0,9.729253784578113E-11,-3.984313267900878E-11,0,153.133,153.17963,0.057064243,0.0032474725,-0.988627,0.9902779,0.42206872,0.006201727,0.045062706,0.42451277,-526,-221,1579,1678.0,-4.3134022E-4,0.0010672996,-1.1460323E-4,0.0011568564,0.0011511658843090565,-0.0011299857253839528,-0.19816271825115964,3.257341378413245,160.75596807037542,160.7559680703754,-0.2609451071028051,1.6419792127038995,-0.4546058474465145,153.66239022660054,,4.035156050908889E-4,,,65.0,NONE,0.0,0.0,0.0,NONE,-2.2556860154871686E-11,-3.3648100711319024E-11,0.0,17.033,17.033,6.082,1.40179,0,3221,4.251,12.0,1.395,93,28.1,OK,382,0,0,0,0,0,65,100,0.0,0,0.0,589232.0,2.69E-43,0.0,-5.9807744E7,62,1.1641532E-10,-1.1641625E-10,9.4E-44,False,False,0,None,0.0,1.0842022E-19,
1535998230,399.199,0.0,0.0,0,153.19905,152.9907,0.057382915,0.002031166,-0.98824686,0.9899135,0.32828212,0.0032156934,0.027307684,0.32943162,-529,-221,1585,1685.0,0.0038208833,-0.0035237395,0.04363713,0.043945592,0.0051976811096832755,-0.0051976811096832755,-0.1717400194732782,3.31667188445447,152.6624579878227,152.66245798782268,-0.24027485500561496,2.000642602779663,-0.5072388724402452,153.63910955074013,,0.0,,,65.03,,,27.2311911,43.1877577,20190524,152307,2019-05-24T15:23:07Z,9936.387,99.99,99.99,3.7500056E7,0,0,0,0.0,0.0,0.0,0,0,0,0,0,0,,,,false,false,false,false,false,false,false,false,false,false,0,0,0,0,55,73,72,55,944,945,944,945,940,940,940,940,0.0,0.0,0.0,0.0,1692.0,1690.1,1687.6,1692.0,0.0,0.0,0.01,0.0,0,0,0,0,-45.0,-9.474508715931784E-13,-6.110535246019051E-11,0,152.95068,153.17953,0.056946397,0.0020167362,-0.988602,0.99024284,0.33280775,0.08310559,-0.027599247,0.34413552,-529,-221,1585,1685.0,-6.355241E-4,7.103712E-6,-0.0016663952,0.0017834838,6.355637878185646E-4,-6.252029901655092E-4,-0.187053010124149,3.2599733536964255,160.76267745558934,160.76267745558937,-0.2646801348163287,2.0044519971855683,-0.5499646249994067,153.76668710834653,,4.888727243929259E-4,,,65.02,NONE,0.0,0.0,0.0,NONE,-1.5539867496624716E-12,-3.4509799958857044E-11,0.0,17.032,17.032,6.081,1.4008652,0,3221,4.25,12.0,1.399,93,28.1,OK,383,0,0,0,0,0,65,100,0.0,0,0.0,589232.0,2.69E-43,0.0,-5.9807744E7,62,1.1641532E-10,-1.1641625E-10,9.4E-44,False,False,0,None,0.0,1.0842022E-19,
1539872847,400.206,0.0,0.0,0,153.27304,153.05928,0.056853678,0.0024409844,-0.98777,0.98940784,0.38969266,-0.1617096,-0.014073364,0.42214742,-529,-218,1588,1687.0,0.0017720725,-0.0053069065,-0.027842157,0.028398754,0.005594952900843191,-0.005594952900843191,-0.17216879907455407,3.3131389157291675,152.66818007504256,152.66818007504253,-0.28347301230437927,2.3539918995466422,-0.5893726247862949,153.9546179108512,,0.0,,,65.0,,,27.2331873,43.1878492,20190524,152308,2019-05-24T15:23:08Z,9936.421,99.99,99.99,3.7500052E7,0,0,0,0.0,0.0,0.0,0,0,0,0,0,0,,,,false,false,false,false,false,false,false,false,false,false,0,0,0,0,55,72,71,55,944,946,944,945,940,940,940,940,0.0,0.0,0.0,0.0,1692.0,1688.9,1688.9,1693.2,0.0,0.0,0.01,0.0,0,0,0,0,-45.0,1.1617671869268354E-10,-1.393359317210034E-11,0,153.37344,153.17912,0.057413165,0.0026788786,-0.98937887,0.99104697,0.30240434,-0.032969523,-0.09909468,0.3199299,-526,-221,1585,1684.0,-1.5931831E-4,0.0013447129,1.5831011E-4,0.0013633404,0.001354117834760086,-0.0013401751705026698,-0.20885975261738024,3.253780228856301,160.76435953410382,160.76435953410385,-0.3478809380130904,2.3577862790934767,-0.6223683885888938,153.68317909194548,,5.786417266099624E-4,,,65.0,NONE,0.0,0.0,0.0,NONE,-1.3258037691762106E-11,4.581646532193417E-11,0.0,17.033,17.033,6.08,1.4001021,0,3220,4.25,12.0,1.402,92,28.1,OK,384,0,0,0,0,0,65,100,0.0,0,0.0,589232.0,2.69E-43,0.0,-5.9807744E7,62,1.1641532E-10,-1.1641625E-10,9.4E-44,False,False,0,None,0.0,1.0842022E-19,
1543751391,401.214,0.0,0.0,0,153.12772,153.23416,0.058212448,0.0020603603,-0.9871693,0.98888636,0.41550636,-0.10169489,-0.15722097,0.45574754,-529,-214,1594,1693.0,6.9870835E-4,-0.0011913961,-0.048948124,0.048967607,0.0013811654754655215,-0.0013811654754655215,-0.17877479560643952,3.3082603322325275,152.66927407884953,152.66927407884953,-0.3442427361266031,2.7310197754466254,-0.673435088751596,154.39100492282918,,0.0,,,64.98,,,27.2378452,43.188062,20190524,152309,2019-05-24T15:23:09Z,9936.501,99.99,99.99,3.7500056E7,0,0,0,0.0,0.0,0.0,0,0,0,0,0,0,,,,false,false,false,false,false,false,false,false,false,false,0,0,0,0,56,72,71,55,944,945,944,944,940,940,940,940,0.0,0.0,0.0,0.0,1691.4,1688.9,1689.5,1693.2,0.0,0.0,0.01,0.0,0,0,0,0,-45.0,1.1617462718743221E-10,2.0375422497748976E-11,0,153.08015,153.17924,0.0581338,0.0020735962,-0.9883825,0.9900928,0.4798067,-0.15474279,-0.1066443,0.5152988,-529,-214,1591,1690.0,2.2112708E-4,0.0013749427,0.0012398775,0.0018645806,0.001392610737178308,-0.0013888260872673376,-0.19100448107549733,3.2596291866318223,160.7726003478736,160.77260034787355,-0.41368670879937053,2.637389894024433,-0.7107720844941308,154.5051279813274,,6.823921618560823E-4,,,64.99,NONE,0.0,0.0,0.0,NONE,7.303528573407864E-11,4.482927589989237E-11,0.0,17.032,17.032,6.083,1.3995645,0,3220,4.251,12.0,1.395,92,28.1,OK,385,0,0,0,0,0,65,100,0.0,0,0.0,589232.0,2.69E-43,0.0,-5.9807744E7,62,1.1641532E-10,-1.1641625E-10,9.4E-44,False,False,0,None,0.0,1.0842022E-19,
1547674242,402.234,0.0,0.0,0,153.3391,153.27266,0.05683198,0.0037187133,-0.98937434,0.9910122,0.34625372,-0.110217005,-0.06858468,0.36978817,-529,-221,1582,1682.0,-0.0019033492,0.0014622717,-0.027138593,0.027244527,0.002400203495361777,-0.002400203495361777,-0.1713194542225379,3.3102443161592583,152.66247965004607,152.66247965004607,-0.42471836833010806,3.025748675342778,-0.7234979889704102,153.65543562231008,,0.0,,,65.02,,,27.2411725,43.1882135,20190524,152310,2019-05-24T15:23:10Z,9936.558,99.99,99.99,3.7500052E7,0,0,0,0.0,0.0,0.0,0,0,0,0,0,0,,,,false,false,false,false,false,false,false,false,false,false,0,0,0,0,55,71,71,56,944,946,945,945,940,940,940,940,0.0,0.0,0.0,0.0,1693.2,1689.5,1688.9,1693.2,0.0,0.0,0.01,0.0,0,0,0,0,-45.0,2.2563134664386922E-11,1.2387135832712085E-10,0,153.26247,153.1794,0.05829081,0.0029509813,-0.9900432,0.9917621,0.34363475,-0.047426738,-0.021639926,0.34756643,-529,-218,1585,1685.0,0.0013539005,2.4506566E-4,2.7001894E-5,0.001376166,0.0013759011226900197,-0.0013606810142315802,-0.18530561006049115,3.2790436433320065,160.7701040102847,160.77010401028474,-0.4812564624775986,2.999768275774971,-0.8112083661114323,154.05060729899589,,7.578492005056165E-4,,,65.03,NONE,0.0,0.0,0.0,NONE,4.216470104164859E-12,-1.8313200511938244E-11,0.0,17.031,17.031,6.082,1.3992145,0,3219,4.25,12.0,1.406,92,28.1,OK,386,0,0,0,0,0,65,100,0.0,0,0.0,589232.0,2.69E-43,0.0,-5.9807744E7,62,1.1641532E-10,-1.1641625E-10,9.4E-44,False,False,0,None,0.0,1.0842022E-19,
1551590889,403.252,0.0,0.0,0,153.23076,153.28438,0.057429206,0.001973112,-0.9883904,0.9900594,0.41198853,-5.603373E-4,0.011610141,0.41215247,-523,-221,1585,1683.0,-0.002018314,0.0026056978,-0.011226439,0.011700264,0.003295944934313897,-0.003295944934313897,-0.17249947118840842,3.3062295295748743,152.65909872579863,152.65909872579869,-0.46239264909315647,3.354447760560143,-0.8189570938580235,153.34064400661651,,0.0,,,64.97,,,27.2444998,43.1883645,20190524,152311,2019-05-24T15:23:11Z,9936.614,99.99,99.99,3.7500052E7,0,0,0,0.0,0.0,0.0,0,0,0,0,0,0,,,,false,false,false,false,false,false,false,false,false,false,0,0,0,0,55,71,72,54,944,945,944,946,940,940,940,940,0.0,0.0,0.0,0.0,1692.0,1688.2,1688.2,1691.4,0.0,0.0,0.01,0.0,0,0,0,0,-45.0,2.915346070554354E-11,-6.698665897676652E-11,0,153.2149,153.1793,0.05709883,0.0031444207,-0.9875,0.9891544,0.13379714,-0.03229061,-0.0055962396,0.13775222,-526,-221,1582,1681.0,-7.500239E-4,3.486569E-4,1.4895576E-4,8.404078E-4,8.271018510458591E-4,-8.062405731882486E-4,-0.18056289045732987,3.2584741192172872,160.76387987096354,160.7638798709636,-0.563907739138515,3.3425110280818915,-0.8816011930523554,153.60171771687715,,8.52363090301826E-4,,,64.97,NONE,0.0,0.0,0.0,NONE,-1.3170194566557631E-11,-2.9812284159395344E-11,0.0,17.03,17.03,6.081,1.3991133,0,3219,4.25,12.0,1.396,92,28.1,OK,387,0,0,0,0,0,65,100,0.0,0,0.0,589232.0,2.69E-43,0.0,-5.9807744E7,62,1.1641532E-10,-1.1641625E-10,9.4E-44,False,False,0,None,0.0,1.0842022E-19,
1555559098,404.283,0.0,0.0,0,153.35759,153.34297,0.056804575,0.0023637423,-0.98872036,0.99035364,0.28296283,-0.09170468,0.022569872,0.29830706,-532,-218,1585,1686.0,-0.0033766045,0.0024011324,-0.017445318,0.01793059,0.004143295113180375,-0.004143295113180375,-0.16556839528974315,3.3075688771896385,152.65957438753728,152.6595743875373,-0.5445183425401962,3.725487287738544,-0.9240525336122616,154.10568135940355,,0.0,,,64.97,,,27.2478272,43.188515,20190524,152312,2019-05-24T15:23:12Z,9936.67,99.99,99.99,3.7500056E7,0,0,0,0.0,0.0,0.0,0,0,0,0,0,0,,,,false,false,false,false,false,false,false,false,false,false,0,0,0,0,55,72,71,56,945,944,944,946,940,940,940,940,0.0,0.0,0.0,0.0,1693.2,1688.9,1690.1,1692.0,0.0,0.0,0.01,0.0,0,0,0,0,-45.0,-1.5104834865720143E-11,-3.262326422535348E-11,0,153.44743,153.17998,0.05741981,0.0019771243,-0.9888064,0.99047416,0.45160294,-0.13573736,0.072026916,0.4770301,-529,-218,1585,1685.0,-3.3227407E-4,-1.1752967E-4,-0.0026384278,0.002661864,3.524475616996968E-4,-3.4640624588950256E-4,-0.1774457945858885,3.2688321017032353,160.7639915831171,160.7639915831171,-0.6616387181365827,3.674493190374744,-0.9676617702769211,154.04248131355078,,9.506296220426036E-4,,,65.0,NONE,0.0,0.0,0.0,NONE,6.713724718674287E-13,-7.688365129547251E-12,0.0,17.032,17.032,6.082,1.3990592,0,3219,4.25,12.0,1.399,92,28.1,OK,388,0,0,0,0,0,65,100,0.0,0,0.0,589232.0,2.69E-43,0.0,-5.9807744E7,62,1.1641532E-10,-1.1641625E-10,9.4E-44,False,False,0,None,0.0,1.0842022E-19,
1559421192,405.287,0.0,0.0,0,153.28362,153.36691,0.05755815,0.0027220752,-0.9886549,0.9903327,0.39253888,-0.10720657,0.106442265,0.42060667,-529,-218,1585,1685.0,-0.0036965967,6.5226975E-4,-0.011547815,0.012142583,0.0037537025724726737,-0.0037537025724726737,-0.175259627642136,3.311901846875256,152.6704073631562,152.6704073631562,-0.5679854832788415,4.0406095494173115,-1.022115472417858,153.97347598238335,,0.0,,,65.03,,,44.8673326,42.0648724,20190524,152313,2019-05-24T15:23:13Z,9548.836,99.99,99.99,3.7500056E7,0,0,0,0.0,0.0,0.0,0,0,0,0,0,0,,,,false,false,false,false,false,false,false,false,false,false,0,0,0,0,56,72,71,56,945,944,944,945,940,940,940,940,0.0,0.0,0.0,0.0,1692.0,1687.6,1688.2,1692.6,0.0,0.0,0.01,0.0,0,0,0,0,-45.0,2.7189539364450786E-12,1.2725122723168573E-10,0,153.133,153.17882,0.057813976,0.0019795569,-0.98913425,0.9908244,0.2519522,-0.20965694,-0.08281602,0.3380746,-529,-218,1588,1687.0,0.0014388922,1.3706299E-4,-3.217085E-4,0.0014807746,0.0014454055127233801,-0.0014275848096426264,-0.20150787506739928,3.275115568060536,160.771194477168,160.77119447716802,-0.7135309223987452,4.027511263074841,-1.071984581483183,154.0959273945745,,0.0010442744901920304,,,65.02,NONE,0.0,0.0,0.0,NONE,-1.9517906254537873E-11,6.372391424809902E-11,0.0,17.032,17.032,6.083,1.3987585,0,3218,4.25,12.0,1.389,92,28.1,OK,389,0,0,0,0,0,65,100,0.0,0,0.0,589232.0,2.69E-43,0.0,-5.9807744E7,62,1.1641532E-10,-1.1641625E-10,9.4E-44,False,False,0,None,0.0,1.0842022E-19,
1563277397,406.289,0.0,0.0,0,153.26776,153.33768,0.05875127,0.0023981705,-0.9889659,0.9907124,0.3915856,-0.024817085,-0.03568467,0.39399055,-526,-218,1582,1681.0,-0.0026961684,-1.872881E-4,-7.020833E-4,0.0027923684,0.0027026654799918027,-0.0027026654799918027,-0.17451897883175452,3.316747041306743,152.66940911073783,152.6694091107379,-0.6523095706210862,4.364467227454678,-1.115560063018475,153.81640747190096,,0.0,,,64.98,,,44.8728225,42.0676377,20190524,152314,2019-05-24T15:23:14Z,9549.886,99.99,99.99,3.7500052E7,0,0,0,0.0,0.0,0.0,0,0,0,0,0,0,,,,false,false,false,false,false,false,false,false,false,false,0,0,0,0,55,71,71,55,945,945,944,945,940,940,940,940,0.0,0.0,0.0,0.0,1692.6,1688.9,1688.9,1692.0,0.0,0.0,0.01,0.0,0,0,0,0,-45.0,3.519581295442034E-11,-4.9125223120598104E-11,0,153.10922,153.17906,0.05830823,0.0028123735,-0.98845917,0.99018145,0.34696695,-0.15272816,-0.09546019,0.39092785,-526,-218,1582,1681.0,-5.915282E-4,4.5719216E-4,-0.0019603283,0.002098051,7.476164190512848E-4,-7.27718528891403E-4,-0.19652400002098613,3.2554959631258478,160.76380468986994,160.76380468986997,-0.7862931917191216,4.327380884962364,-1.1487905484474785,153.97052520457112,,0.0011357928332068785,,,64.99,NONE,0.0,0.0,0.0,NONE,-3.673934219063289E-11,-9.594979291457785E-11,0.0,17.03,17.03,6.08,1.3980227,0,3218,4.25,12.0,1.391,92,28.1,OK,390,0,0,0,0,0,65,100,0.0,0,0.0,589232.0,2.69E-43,0.0,-5.9807744E7,62,1.1641532E-10,-1.1641625E-10,9.4E-44,False,False,0,None,0.0,1.0842022E-19,
1567136881,407.292,0.0,0.0,0,153.08015,153.26866,0.057106648,0.003378341,-0.9893312,0.9909838,0.35209954,-0.24867177,-0.14196245,0.45383376,-523,-218,1582,1680.0,-0.0016212015,-9.486001E-4,0.022152228,0.022231719,0.0018783334716839198,-0.0018783334716839198,-0.18052327018713965,3.3256048490361056,152.67535979218346,152.67535979218349,-0.6803363045154321,4.686635371929595,-1.227733855100049,153.66329340921766,,0.0,,,65.01,,,27.2571446,43.1889339,20190524,152315,2019-05-24T15:23:15Z,9936.827,99.99,99.99,3.7500052E7,0,0,0,0.0,0.0,0.0,0,0,0,0,0,0,,,,false,false,false,false,false,false,false,false,false,false,0,0,0,0,55,72,72,55,945,945,944,946,940,940,940,940,0.0,0.0,0.0,0.0,1692.0,1688.2,1688.9,1691.4,0.0,0.0,0.01,0.0,0,0,0,0,-45.0,4.417254395314909E-12,1.19721816333625E-10,0,153.18849,153.17867,0.057944354,0.0042113904,-0.9883545,0.99006057,0.40835363,-0.09275055,-0.045489408,0.42121804,-534,-218,1582,1683.0,0.0013022373,-7.780445E-7,9.88345E-4,0.0016348236,0.0013022374774979831,-0.0012832114310608116,-0.20671404860211048,3.2854101905610755,160.7682472400556,160.76824724005564,-0.8540351852993096,4.688165413623791,-1.2379104998984665,154.3661105601533,,0.0012439434062193368,,,65.0,NONE,0.0,0.0,0.0,NONE,2.6873722407924736E-11,3.673515918536774E-11,0.0,17.028,17.028,6.078,1.3971672,0,3217,4.25,12.0,1.402,92,28.2,OK,391,0,0,0,0,0,65,100,0.0,0,0.0,589232.0,2.69E-43,0.0,-5.9807744E7,62,1.1641532E-10,-1.1641625E-10,9.4E-44,False,False,0,None,0.0,1.0842022E-19,
1570993865,408.294,0.0,0.0,0,153.08543,153.21109,0.08523717,-0.0025226693,-0.9891806,0.99284947,1.0948652,4.7292023,-2.083386,5.282479,-532,-218,1588,1688.0,0.0025186506,-0.0017629075,0.020935081,0.02115961,0.0030743200020447808,-0.0030743200020447808,-0.16048998893629865,3.4626105032538206,152.6512314644615,152.6512314644615,-0.940362276957645,5.069533954360653,-1.2101412618246554,153.85681607407003,,0.0,,,65.0,,,44.8838043,42.0731658,20190524,152316,2019-05-24T15:23:16Z,9551.985,99.99,99.99,3.7500052E7,0,0,0,0.0,0.0,0.0,0,0,0,0,0,0,,,,false,false,false,false,false,false,false,false,false,false,0,0,0,0,54,72,72,54,945,945,944,945,940,940,940,940,0.0,0.0,0.0,0.0,1692.0,1687.6,1687.0,1692.0,0.0,0.0,0.01,0.0,0,0,0,0,-45.0,1.0348359594813146E-9,-1.1552124162327807E-9,0,153.16206,153.18025,0.15093856,-0.045104843,-1.0154678,1.0276146,2.8485894,16.82359,-21.645712,27.562374,-543,-224,1579,1684.0,-0.027809134,0.024995385,-0.03383119,0.050424863,0.03739140496265422,-0.037209564741581755,-0.2930496921288758,4.556195091657639,159.67818525898466,159.67818525898463,-1.994355656596976,5.1005641534831225,-0.3644905877543053,152.5555413264927,,0.0015755539536962755,,,65.02,NONE,0.0,0.0,0.0,NONE,7.011952135668417E-10,-7.442697184225178E-10,-1.373291E-4,17.029,17.029,6.08,1.3969063,0,3217,4.249,12.0,1.408,92,28.2,OK,392,0,0,0,0,0,65,100,0.0,0,0.0,589232.0,2.69E-43,0.0,-5.9807744E7,62,1.1641532E-10,-1.1641625E-10,9.4E-44,False,False,0,None,0.0,1.0842022E-19,
1574852950,409.297,0.0,0.0,0,153.3893,153.22958,-6.200513E-4,0.058877002,-0.9902454,0.9919944,2.4727316,-2.539822,-6.2139406,7.1538906,-469,-452,1502,1637.0,-0.010445841,0.039636962,0.020320516,0.04575071,0.040990296558680674,-0.040990296558680674,-3.0914429202602545,1.1501462444651032,140.8444737818123,140.84447378181233,-12.033817797359697,4.843747791685292,-5.297186308059708,139.80471721227892,,0.0,,,64.97,,,44.8892962,42.0759286,20190524,152317,2019-05-24T15:23:17Z,9553.034,99.99,99.99,3.7500052E7,0,0,0,0.0,0.0,0.0,0,0,0,0,0,0,,,,false,false,false,false,false,false,false,false,false,false,0,0,0,0,55,72,72,54,944,945,944,944,940,940,940,940,0.0,0.0,0.0,0.0,1693.2,1688.9,1688.9,1692.0,0.0,0.0,0.01,0.0,0,0,0,0,-45.0,1.3963878097528167E-9,-1.567255240652881E-9,0,153.3206,153.19667,0.010026213,0.043306265,-0.9889042,0.98990273,1.442031,0.45324805,-6.606434,6.777157,-446,-452,1508,1636.0,-0.034851883,0.031106306,-0.009856349,0.0477431,0.04671462260070405,-0.04665384782446798,-2.687664738562241,0.5483430455790251,147.94782859519083,147.9478285951908,-13.961536651098466,4.255571123327885,-4.602011035255759,138.5630283727996,,0.0030877834810311084,,,64.97,NONE,0.0,0.0,0.0,NONE,4.074180959608131E-9,-6.171406334313269E-9,3.0517578E-5,17.028,17.028,6.082,1.3974291,0,3217,4.25,12.0,1.404,92,28.2,OK,393,0,0,0,0,0,65,100,0.0,0,0.0,589232.0,2.69E-43,0.0,-5.9807744E7,62,1.1641532E-10,-1.1641625E-10,9.4E-44,False,False,0,None,0.0,1.0842022E-19,
1578712176,410.300,0.0,0.0,0,153.11714,153.22691,0.030272264,0.0123377135,-0.98243254,0.98297626,4.9347453,-0.33748958,3.553483,6.0903897,-471,-387,1505,1623.0,-0.14865865,-7.7386945E-4,-0.018492276,0.14980641,0.14866066770663322,-0.14866066770663322,-1.1028587625464035,2.0300625020806846,139.693096562939,139.693096562939,-13.448487836762075,7.463749001903976,-3.974314657725139,139.36588836876533,,0.0,,,64.99,,,27.2684596,43.1894377,20190524,152319,2019-05-24T15:23:19Z,9937.016,99.99,99.99,3.7500056E7,0,0,0,0.0,0.0,0.0,0,0,0,0,0,0,,,,false,false,false,false,false,false,false,false,true,false,0,0,0,0,55,72,71,56,944,945,944,945,940,940,940,940,0.0,0.0,0.0,0.0,1692.0,1687.6,1688.2,1692.6,0.0,0.0,0.01,0.0,0,0,0,0,-45.0,-1.3018184012693315E-9,-6.56644938488184E-9,0,152.91104,153.23505,0.030512165,0.011910713,-0.981494,0.9820404,5.0899143,-0.21488048,4.2056212,6.606107,-469,-393,1505,1624.0,-0.14589095,-0.02900707,-0.043674953,0.15502608,0.14874670174291937,-0.1481169046580209,-1.1130182655769074,2.0380483955948008,147.71440985962425,147.71440985962425,-14.118007939814106,6.306460733409953,-3.0417118236023235,138.76426644809138,,0.0041955218027017235,,,64.98,NONE,0.0,0.0,0.0,NONE,-1.2945232389019274E-9,-6.6313696389660214E-9,-2.1362305E-4,17.027,17.027,6.078,1.3977097,0,3216,4.249,12.0,1.371,92,28.2,OK,394,0,0,0,0,0,65,100,0.0,0,0.0,589232.0,2.69E-43,0.0,-5.9807744E7,62,1.1641532E-10,-1.1641625E-10,9.4E-44,False,False,0,None,0.0,1.0842022E-19,
1582638703,411.321,0.0,0.0,0,152.9084,153.24239,0.048955984,0.0026274463,-0.98118275,0.98240685,1.166928,-1.6528641,6.769155,7.065065,-497,-310,1485,1596.0,0.041862532,-0.03331825,6.9236476E-4,0.05350754,0.0535030612154709,-0.0535030612154709,0.13826819637071128,2.7694478483531206,142.57524999906633,142.57524999906633,-10.773256453180817,9.092765159953464,-3.550208733602394,143.55952887094918,,0.0,,,64.98,,,27.2717878,43.1895848,20190524,152319,2019-05-24T15:23:19Z,9937.071,99.99,99.99,3.7500056E7,0,0,0,0.0,0.0,0.0,0,0,0,0,0,0,,,,false,false,false,false,false,false,false,false,true,false,0,0,0,0,55,71,70,55,945,945,944,945,940,940,940,940,0.0,0.0,0.0,0.0,1692.0,1688.2,1688.2,1692.0,0.0,0.0,0.01,0.0,0,0,0,0,-45.0,-5.702943071852295E-10,1.4449775956025236E-9,0,152.90048,153.25124,0.05096441,0.0053674225,-0.97879785,0.9801385,1.5091374,-1.7877657,7.3324547,7.696655,-494,-313,1485,1596.0,0.031953525,-0.01300848,-0.0028558453,0.034617975,0.034499976973163135,-0.033623399243274364,0.10896044954176275,2.8331901498232615,150.2061910283087,150.2061910283087,-11.387916780302092,7.961512391286291,-2.554799600397631,143.05988714557662,,0.0053683524828692245,,,64.99,NONE,0.0,0.0,0.0,NONE,-7.452108865165061E-10,1.9098601515681007E-9,-3.0517578E-5,17.027,17.027,6.078,1.3970494,0,3216,4.249,12.0,1.403,92,28.2,OK,395,0,0,0,0,0,65,100,0.0,0,0.0,589232.0,2.69E-43,0.0,-5.9807744E7,62,1.1641532E-10,-1.1641625E-10,9.4E-44,False,False,0,None,0.0,1.0842022E-19,
1586593873,412.349,0.0,0.0,0,153.10922,153.24486,0.03989263,-0.0016249376,-0.98376364,0.9845735,0.43623045,-0.22037823,-3.2492657,3.2858167,-491,-319,1497,1607.0,0.034004927,-0.014765948,0.0013428412,0.037096784,0.03707247235615484,-0.03707247235615484,-0.32090051243927137,2.5977765753547,141.79378326103242,141.79378326103244,-11.615690864060698,8.892270158123324,-3.8898159796813383,143.68188558196752,,0.0,,,64.98,,,27.273119,43.1896435,20190524,152320,2019-05-24T15:23:20Z,9937.093,99.99,99.99,3.7500056E7,0,0,0,0.0,0.0,0.0,0,0,0,0,0,0,,,,false,false,false,false,false,false,false,false,false,false,0,0,0,0,54,71,71,55,945,945,944,945,940,940,940,940,0.0,0.0,0.0,0.0,1691.4,1686.4,1687.6,1693.2,0.0,0.0,0.01,0.0,0,0,0,0,-45.0,3.122195682552953E-10,9.42615305317809E-10,0,153.2889,153.25583,0.040590245,-0.0016930634,-0.9836684,0.98450696,0.43381497,-0.092551336,-2.611392,2.6487978,-491,-319,1494,1604.0,0.021251934,0.006968017,-0.0056908163,0.023077767,0.02236510518186381,-0.022255257175137027,-0.4054338544772773,2.6568440803476685,149.49564176564303,149.49564176564303,-12.070714230764827,7.848479666438054,-2.860581927703963,143.78142066725988,,0.005585252365344929,,,65.01,NONE,0.0,0.0,0.0,NONE,3.0475708554574356E-10,8.937577951856505E-10,-3.0517578E-5,17.027,17.027,6.08,1.3970494,0,3216,4.249,12.0,1.403,92,28.2,OK,395,0,0,0,0,0,65,100,0.0,0,0.0,589232.0,2.69E-43,0.0,-5.9807744E7,62,1.1641532E-10,-1.1641625E-10,9.4E-44,False,False,0,None,0.0,1.0842022E-19,
1590526338,413.371,0.0,0.0,0,153.2017,153.24208,0.04071838,0.02676645,-0.98871726,0.9899173,-0.44234803,0.44989032,-5.0338492,5.0732346,-480,-375,1494,1613.0,0.024868611,-0.03211625,-0.008176416,0.041433744,0.040618976733374196,-0.040618976733374196,-1.3299325373164035,2.7259090022394723,138.0419346738221,138.04193467382208,-15.683334670625069,8.280255794353018,-3.7996615924122223,140.176590413992,,0.0,,,65.0,,,27.2784444,43.1898777,20190524,152322,2019-05-24T15:23:22Z,9937.181,99.99,99.99,3.7500056E7,0,0,0,0.0,0.0,0.0,0,0,0,0,0,0,,,,false,false,false,false,false,false,false,false,false,false,0,0,0,0,54,71,71,54,944,945,944,945,940,940,940,940,0.0,0.0,0.0,0.0,1693.2,1687.6,1688.2,1692.0,0.0,0.0,0.01,0.0,0,0,0,0,-45.0,-4.6551837238840935E-10,8.102315313254379E-10,0,153.10129,153.25526,0.040882073,0.025784891,-0.9892078,0.9903879,-0.34504387,0.18151493,-5.136008,5.1507845,-480,-372,1491,1609.0,0.018224994,-0.010559372,-0.0026282442,0.021226361,0.021063018058232113,-0.020977184578612897,-1.4434576087137534,2.74718642406152,145.71756689765948,145.71756689765948,-15.956559835838227,7.418399779602636,-2.797238406130149,140.63781472586652,,0.005790638181456669,,,64.99,NONE,0.0,0.0,0.0,NONE,-9.236077261743565E-12,6.283209661829607E-10,-3.0517578E-5,17.026,17.026,6.079,1.3966382,0,3215,4.249,12.0,1.408,92,28.2,OK,397,0,0,0,0,0,65,100,0.0,0,0.0,589232.0,2.69E-43,0.0,-5.9807744E7,62,1.1641532E-10,-1.1641625E-10,9.4E-44,False,False,0,None,0.0,1.0842022E-19,
1594400788,414.378,0.0,0.0,0,153.21227,153.19543,0.050013643,0.027963027,-0.99784833,0.99949217,1.4562789,3.0257242,-1.3041472,3.6022985,-480,-406,1479,1607.0,0.024906186,-0.03986863,0.014851777,0.0492991,0.04700878542254151,-0.04700878542254151,-1.3972721158121517,3.163424859236773,136.33406212864716,136.33406212864713,-17.67662999670456,8.574056235061725,-3.443357743175925,137.03972714868277,,0.0,,,64.98,,,27.2817729,43.1900234,20190524,152323,2019-05-24T15:23:23Z,9937.236,99.99,99.99,3.7500056E7,0,0,0,0.0,0.0,0.0,0,0,0,0,0,0,,,,false,false,false,false,false,false,false,false,false,false,0,0,0,0,55,72,71,54,945,945,944,945,940,940,940,940,0.0,0.0,0.0,0.0,1692.0,1687.6,1688.9,1691.4,0.0,0.0,0.01,0.0,0,0,0,0,-45.0,-2.2762245483634274E-10,1.235894222583918E-9,0,152.89255,153.25478,0.051500134,0.021240693,-0.98829526,0.9898641,1.2884492,0.806673,-0.344475,1.5586807,-489,-406,1476,1607.0,0.027881233,-0.00502043,-0.0094234375,0.029855805,0.028329628817885324,-0.02827578117543784,-1.6016166092691837,3.3308406907183215,143.65824416478256,143.65824416478256,-18.04349458366821,7.872098903485226,-2.2197758760460475,137.77918362877662,,0.005949016657988385,,,64.99,NONE,0.0,0.0,0.0,NONE,-2.0513461456683925E-10,1.0899909731926734E-9,-1.5258789E-5,17.025,17.025,6.079,1.3974963,0,3215,4.249,12.0,1.405,92,28.2,OK,398,0,0,0,0,0,65,100,0.0,0,0.0,589232.0,2.69E-43,0.0,-5.9807744E7,62,1.1641532E-10,-1.1641625E-10,9.4E-44,False,False,0,None,0.0,1.0842022E-19,
1598279193,415.386,0.0,0.0,0,153.1145,153.18173,0.07511472,0.014082092,-0.9898589,0.9928047,0.8677818,0.5750474,0.9403607,1.4028553,-503,-409,1473,1609.0,-0.013765034,-0.0109509155,0.0027407906,0.017801985,0.017589733310810644,-0.017589733310810644,-0.7086901823891276,3.9297339974929626,135.46690650404847,135.46690650404844,-19.52850126674625,9.558710461125282,-2.3208457260289674,135.7080930416602,,0.0,,,65.01,,,27.2851015,43.1901687,20190524,152324,2019-05-24T15:23:24Z,9937.29,99.99,99.99,3.7500056E7,0,0,0,0.0,0.0,0.0,0,0,0,0,0,0,,,,false,false,false,false,false,false,false,false,true,false,0,0,0,0,55,72,71,55,944,946,945,945,940,940,940,940,0.0,0.0,0.0,0.0,1692.0,1687.6,1687.6,1692.0,0.0,0.0,0.01,0.0,0,0,0,0,-45.0,3.5143943225743056E-10,8.316485212780103E-10,0,153.25983,153.26138,0.07502984,0.01291371,-0.99109846,0.9940183,0.8219525,0.5622006,0.73958486,1.2404279,-503,-409,1476,1612.0,0.018625908,0.008046855,-0.0090447,0.022214476,0.020289807814645247,-0.020211902951356952,-1.0606404493705648,4.190178622185724,141.7819239322686,141.78192393226857,-19.826922228764555,8.721102002798538,-1.4066008265512526,135.8624807987247,,0.006102809865748363,,,64.98,NONE,0.0,0.0,0.0,NONE,-1.9984729478413327E-10,1.1053844342447237E-9,-3.0517578E-5,17.023,17.023,6.076,1.3992116,0,3214,4.248,12.0,1.43,92,28.2,OK,399,0,0,0,0,0,65,100,0.0,0,0.0,589232.0,2.69E-43,0.0,-5.9807744E7,62,1.1641532E-10,-1.1641625E-10,9.4E-44,False,False,0,None,0.0,1.0842022E-19,
1602405307,416.458,0.0,0.0,0,153.17528,153.25949,0.0808598,0.029028326,-0.9883972,0.99212396,-0.4750508,-0.68333185,-3.3663342,3.4676824,-514,-427,1461,1606.0,-0.023580398,0.0012000296,-0.030021241,0.038193587,0.02361091395234244,-0.02361091395234244,-1.3463977321180374,4.363634127273858,135.15242814386374,135.15242814386374,-20.67207717816596,9.441292725633666,-1.8074884905919102,135.58237389058874,,0.0,,,65.01,,,27.2884302,43.1903135,20190524,152325,2019-05-24T15:23:25Z,9937.344,99.99,99.99,3.7500056E7,0,0,0,0.0,0.0,0.0,0,0,0,0,0,0,,,,false,false,false,false,false,false,false,false,true,false,0,0,0,0,56,72,72,56,944,945,944,945,940,940,940,940,0.0,0.0,0.0,0.0,1690.7,1686.4,1687.0,1691.4,0.0,0.0,0.01,0.0,0,0,0,0,-45.0,-4.53571706920788E-10,1.5706685580665562E-9,0,153.07222,153.25969,0.08056418,0.03011296,-0.98766845,0.9914062,-0.743674,-0.761722,-3.179859,3.3533227,-514,-424,1461,1605.0,0.035042446,-0.0102201095,0.0035678763,0.036676332,0.03650237868589249,-0.03638906501385098,-1.6790725208525934,4.746736855910013,140.75798240993635,140.75798240993635,-20.874916724103656,8.63398920344259,-0.9369486800956662,135.69461982994264,,0.006321350237986328,,,64.99,NONE,0.0,0.0,0.0,NONE,-3.3865616596578907E-10,1.5073545790279647E-9,0.0,17.024,17.024,6.079,1.4026042,0,3214,4.248,12.0,1.446,92,28.2,OK,400,0,0,0,0,0,65,100,0.0,0,0.0,589232.0,2.69E-43,0.0,-5.9807744E7,62,1.1641532E-10,-1.1641625E-10,9.4E-44,False,False,0,None,0.0,1.0842022E-19,
1606269272,417.462,0.0,0.0,0,153.43422,153.31041,0.06818384,0.0032206057,-0.9852986,0.9876602,1.515686,-3.0881872,17.603373,17.936357,-520,-375,1470,1603.0,-0.10799472,0.024306359,-0.026778514,0.11388919,0.11069624585332918,-0.11069624585332918,0.07577367828928049,3.88782176395458,140.7114578265134,140.71145782651342,-15.736107121116484,10.542508073954277,-2.241682839512153,138.03589861010346,,0.0,,,65.04,,,27.2917589,43.1904578,20190524,152326,2019-05-24T15:23:26Z,9937.398,99.99,99.99,3.7500056E7,0,0,0,0.0,0.0,0.0,0,0,0,0,0,0,,,,false,false,false,false,false,false,false,false,true,false,0,0,0,0,55,69,71,56,944,945,945,945,940,940,940,940,0.0,0.0,0.0,0.0,1692.6,1686.4,1688.9,1691.4,0.0,0.0,0.01,0.0,0,0,0,0,-45.0,-3.982556356157681E-10,1.6290298581443232E-10,0,153.45537,153.25842,0.06918362,0.006953529,-0.98601335,0.988462,2.1721087,-2.5109506,18.895357,19.184822,-520,-381,1467,1602.0,0.0038061151,-0.009247713,-0.002517808,0.010312423,0.01000033528971443,-0.009844337535980728,-0.44289161152033857,4.483266217355138,145.5234207328488,145.52342073284876,-16.068873507176416,9.845090312914303,-1.3108547272901383,137.50769119540354,,0.00664297878272879,,,65.02,NONE,0.0,0.0,0.0,NONE,-5.026969294889464E-10,8.540025056955076E-11,0.0,17.023,17.023,6.078,1.4075432,0,3213,4.248,12.0,1.426,92,28.2,OK,401,0,0,0,0,0,65,100,0.0,0,0.0,589232.0,2.69E-43,0.0,-5.9807744E7,62,1.1641532E-10,-1.1641625E-10,9.4E-44,False,False,0,None,0.0,1.0842022E-19,
1610144837,418.469,0.0,0.0,0,153.2387,153.36992,0.078646466,0.12387523,-0.9822226,0.99312216,-0.61929226,0.46175516,-1.4110665,1.6086794,-509,-421,1443,1587.0,-0.09210304,0.08526215,-0.04503845,0.13334566,0.1255093790568592,-0.1255093790568592,-6.721685711821068,3.3263658580742455,152.4647852749318,152.46478527493184,-4.773632068200441,3.235805125291625,-3.791742154428412,149.44422736431918,,0.0,,,64.98,,,29.3009961,40.8108264,20190524,152327,2019-05-24T15:23:27Z,9052.735,99.99,99.99,3.7500056E7,0,0,0,0.0,0.0,0.0,0,0,0,0,0,0,,,,false,false,false,false,false,false,false,false,false,false,0,0,0,0,56,72,71,56,944,946,944,944,940,940,940,940,0.0,0.0,0.0,0.0,1691.4,1687.6,1688.2,1692.0,0.0,0.0,0.01,0.0,0,0,0,0,-45.0,4.1679471808928263E-10,1.3787187784246042E-10,0,153.54256,153.2605,0.07319168,0.12642601,-0.97217464,0.9830891,0.026593331,-0.060143378,1.3114704,1.3131181,-509,-430,1449,1594.0,0.002860527,0.009087188,-0.004734637,0.010638439,0.009526783510889219,-0.009436763242813654,-6.8989354576835265,3.9982618713700835,157.07611820240922,157.07611820240925,-4.977678083791981,2.7252767612598667,-2.797573713608822,147.95139975838134,,0.008158793720056175,,,64.99,NONE,0.0,0.0,0.0,NONE,3.928846557949604E-10,1.035779214357618E-9,0.0,17.024,17.024,6.078,1.4126151,0,3213,4.248,12.0,1.427,92,28.2,OK,402,0,0,0,0,0,65,100,0.0,0,0.0,589232.0,2.69E-43,0.0,-5.9807744E7,62,1.1641532E-10,-1.1641625E-10,9.4E-44,False,False,0,None,0.0,1.0842022E-19,
1614021152,419.477,0.0,0.0,0,153.25983,153.36526,0.06532722,0.07644388,-1.0008398,1.0058786,14.935687,-6.7981334,31.496168,35.514755,-557,-285,1458,1586.0,-0.084117234,0.13207795,-0.019269276,0.15777071,0.1565895682290201,-0.1565895682290201,-5.692828284551825,5.052868615420932,170.02638496626037,170.02638496626037,12.361539685184848,2.3373384556037387,-4.7080811134861955,161.87581814663656,,0.0,,,65.01,,,22.9370435,33.909965,20190524,152328,2019-05-24T15:23:28Z,6589.476,99.99,99.99,3.7500056E7,0,0,0,0.0,0.0,0.0,0,0,0,0,0,0,,,,false,false,false,false,false,false,false,false,false,false,0,0,0,0,56,70,71,56,944,945,944,945,940,940,940,940,0.0,0.0,0.0,0.0,1691.4,1687.0,1687.0,1691.4,0.0,0.0,0.01,0.0,0,0,0,0,-45.0,2.758776120650958E-9,2.7643980807221537E-9,0,153.42894,153.25615,0.07609085,0.08635469,-1.009774,1.0163121,0.65946,0.4371789,32.214466,32.224182,-554,-221,1470,1586.0,0.06206252,0.06109835,-0.02657139,0.09105384,0.08709055414998719,-0.08670214530363515,-4.689086102863193,5.3881153171603335,177.19552733750916,177.19552733750913,14.966297510318718,2.4542543938961536,-4.163425228163424,166.35428700036093,,0.009272148066343059,,,64.99,NONE,0.0,0.0,0.0,NONE,5.817578347954468E-9,5.55610282552452E-9,-2.4414062E-4,17.022,17.022,6.078,1.4171844,0,3212,4.248,12.0,1.436,92,28.2,OK,403,0,0,0,0,0,65,100,0.0,0,0.0,589232.0,2.69E-43,0.0,-5.9807744E7,62,1.1641532E-10,-1.1641625E-10,9.4E-44,False,False,0,None,0.0,1.0842022E-19,
1617880172,420.480,0.0,0.0,0,153.38138,153.33824,0.049287096,0.04645576,-0.9865573,0.9888795,-0.20362575,0.025045745,-3.004883,3.0118787,-483,-32,1508,1583.0,-0.19477561,0.088855326,0.017132228,0.21477039,0.21408598520410438,-0.21408598520410438,-2.740161296020041,2.533092146527044,-176.4955756509029,183.5044243490971,26.63507817930016,4.093890464904941,-7.219363233840463,-174.48860939482273,,0.0,,,65.02,,,22.9385043,33.9122028,20190524,152329,2019-05-24T15:23:29Z,6590.245,99.99,99.99,3.7500056E7,0,0,0,0.0,0.0,0.0,0,0,0,0,0,0,,,,false,false,false,false,false,false,false,false,false,false,0,0,0,0,55,72,72,55,944,945,944,945,940,940,940,940,0.0,0.0,0.0,0.0,1692.0,1687.0,1687.6,1692.0,0.0,0.0,0.01,0.0,0,0,0,0,-45.0,5.754812326671481E-10,-8.023340137481853E-10,0,153.43158,153.27306,0.04919995,0.04599045,-0.9872467,0.9895412,-0.20535842,0.12999158,-3.1175146,3.126974,-480,-32,1508,1582.0,-0.017601008,0.012917542,0.008230266,0.023332288,0.021832506596101118,-0.02136886368984224,-2.8697484026296616,3.1975053882692377,-172.23694879695475,187.76305120304525,25.592228188431186,4.011447045135106,-7.154342312691748,-173.71239111538432,,0.009913397422923017,,,65.0,NONE,0.0,0.0,0.0,NONE,-2.998378696223668E-11,-1.0812903173256604E-9,3.0517578E-5,17.022,17.022,6.079,1.4210438,0,3212,4.248,12.0,1.416,92,28.2,OK,404,0,0,0,0,0,65,100,0.0,0,0.0,589232.0,2.69E-43,0.0,-5.9807744E7,62,1.1641532E-10,-1.1641625E-10,9.4E-44,False,False,0,None,0.0,1.0842022E-19,
1621998784,421.550,0.0,0.0,0,153.15678,153.27666,0.036725804,0.08510325,-0.98429555,0.98865014,1.9136847,-2.0274253,-25.474257,25.626362,-466,-91,1541,1612.0,-0.12584987,0.09383255,0.034599744,0.16074789,0.1569800606604899,-0.1569800606604899,-3.49698552939237,1.0231497769619269,177.43315207701292,177.4331520770129,20.274366720986496,4.178450175197642,-8.34128294101786,-179.58641680571836,,0.0,,,64.98,,,29.3107454,40.8145322,20190524,152330,2019-05-24T15:23:30Z,9054.103,99.99,99.99,3.7500056E7,0,0,0,0.0,0.0,0.0,0,0,0,0,0,0,,,,false,false,false,false,false,false,false,false,false,false,0,0,0,0,55,72,72,55,944,945,944,945,940,940,940,940,0.0,0.0,0.0,0.0,1691.4,1687.6,1686.4,1692.0,0.0,0.0,0.01,0.0,0,0,0,0,-45.0,5.08620064717304E-10,2.17864337741663E-9,0,153.09337,153.27478,0.036642194,0.08121573,-0.979068,0.9831138,1.551118,-2.705431,-24.63838,24.834957,-466,-88,1541,1612.0,0.04822364,0.010362323,-0.0048895143,0.049566165,0.04932440796702,-0.04901466376124296,-3.654711924927436,1.6380877050885916,-178.1870341486119,181.8129658513881,19.363072473013872,3.7984781564048813,-8.22937406730183,-178.58616421645544,,0.010375078367749528,,,65.02,NONE,0.0,0.0,0.0,NONE,6.720584748907321E-10,2.2134459873112872E-9,-3.0517578E-5,17.024,17.024,6.08,1.423395,0,3212,4.248,12.0,1.41,92,28.2,OK,405,0,0,0,0,0,65,100,0.0,0,0.0,589232.0,2.69E-43,0.0,-5.9807744E7,62,1.1641532E-10,-1.1641625E-10,9.4E-44,False,False,0,None,0.0,1.0842022E-19,
1625854385,422.552,0.0,0.0,0,153.17792,153.21379,0.026905715,-0.24461704,-0.93780935,0.9695606,23.43652,0.93846405,-13.322617,26.974865,-457,192,1547,1624.0,-0.16107017,0.031474046,-0.004127139,0.16416836,0.16411647022457568,-0.16411647022457568,16.564192088141247,0.7073452452372214,155.70279802620985,155.70279802620985,-1.8308261265978942,23.881497558642582,-9.873155511697329,149.59635654977973,,0.0,,,65.01,,,27.3090703,43.1912007,20190524,152331,2019-05-24T15:23:31Z,9937.677,99.99,99.99,3.7500056E7,0,0,0,0.0,0.0,0.0,0,0,0,0,0,0,,,,false,false,false,false,false,false,false,false,true,false,0,0,0,0,55,71,71,55,944,945,944,945,940,940,940,940,0.0,0.0,0.0,0.0,1691.4,1687.6,1687.6,1691.4,0.0,0.0,0.01,0.0,0,0,0,0,-45.0,-2.373604912317968E-10,1.7802873443580415E-10,0,153.23076,153.29742,0.029469986,-0.24098791,-0.9415217,0.97232026,25.123617,1.6155378,-14.810883,29.209047,-451,183,1550,1624.0,0.0034250685,-0.005917287,-0.052088708,0.0525355,0.006837059252526406,-0.006600125838171399,15.8014004329335,1.15379877439027,159.4734227170733,159.47342271707328,-2.650390405281597,23.528268425959652,-9.640209537674842,149.6357577278316,,0.011501854910113948,,,65.01,NONE,0.0,0.0,0.0,NONE,1.4178717090010855E-9,2.4415369338852773E-9,-1.8310547E-4,17.021,17.021,6.076,1.4238671,0,3211,4.248,12.0,1.406,92,28.3,OK,406,0,0,0,0,0,65,100,0.0,0,0.0,589232.0,2.69E-43,0.0,-5.9807744E7,62,1.1641532E-10,-1.1641625E-10,9.4E-44,False,False,0,None,0.0,1.0842022E-19,
1629709506,423.554,0.0,0.0,0,153.24397,153.23856,0.14833371,-0.508538,-0.85572016,1.0064148,13.107195,7.397247,-3.0042977,15.34743,-672,541,1340,1593.0,-0.09485172,-0.0039991145,-0.06491789,0.11500945,0.09493598205226829,-0.09493598205226829,30.96323495960576,9.044128159989196,150.5548326075469,150.55483260754693,-5.8200627006132315,39.72910356353456,-3.082130084777208,152.82530357695185,,0.0,,,64.98,,,20.1027548,50.1642802,20190524,152332,2019-05-24T15:23:32Z,12526.469,99.99,99.99,3.7500056E7,0,0,0,0.0,0.0,0.0,0,0,0,0,0,0,,,,false,false,false,false,false,false,false,false,true,false,0,0,0,0,56,71,71,56,944,945,944,944,940,940,940,940,0.0,0.0,0.0,0.0,1692.0,1686.4,1688.2,1691.4,0.0,0.0,0.01,0.0,0,0,0,0,-45.0,1.0027501878393121E-9,7.892160997831583E-10,0,153.14357,153.33098,0.15138578,-0.504915,-0.8554498,1.004814,13.354231,6.1052804,-2.8139522,14.950861,-666,537,1345,1594.0,0.017245827,0.02258108,-0.057927556,0.06452074,0.028413442696971682,-0.02826000688513946,30.01600504888928,9.447897433760565,153.45187591079775,153.45187591079775,-6.860849033135621,39.634091426091196,-3.0475030888656494,153.76240775864167,,0.01200040912686648,,,64.99,NONE,0.0,0.0,0.0,NONE,9.611878407864887E-10,8.621677237761758E-10,-2.746582E-4,17.021,17.021,6.075,1.4233168,0,3211,4.247,12.0,1.431,92,28.3,OK,407,0,0,0,0,0,65,100,0.0,0,0.0,589232.0,2.69E-43,0.0,-5.9807744E7,62,1.1641532E-10,-1.1641625E-10,9.4E-44,False,False,0,None,0.0,1.0842022E-19,
1633568774,424.557,0.0,0.0,0,153.17264,153.37459,0.32581732,-0.5900497,-0.7100895,0.9790519,13.947774,-2.9861343,-15.865914,21.335056,-924,608,1162,1604.0,0.0048230514,-0.010599774,-0.16019407,0.1606168,0.01164547292436216,-0.01164547292436216,38.840695654051046,23.75179687590798,127.99487019385353,127.99487019385356,-20.884617677733786,53.36156581244741,-1.3256622782324534,142.08356571162457,,0.0,,,65.01,,,20.1074227,50.1616069,20190524,152333,2019-05-24T15:23:33Z,12525.486,99.99,99.99,3.7500056E7,0,0,0,0.0,0.0,0.0,0,0,0,0,0,0,,,,false,false,false,false,false,false,false,false,true,false,0,0,0,0,55,71,71,55,944,944,944,945,940,940,940,940,0.0,0.0,0.0,0.0,1690.7,1686.4,1687.0,1692.0,0.0,0.0,0.01,0.0,0,0,0,0,-45.0,2.7345480872819583E-9,5.3765346197959165E-9,0,153.38402,153.40213,0.3424481,-0.5869054,-0.7029197,0.977663,10.329771,-2.3667066,-9.554438,14.268593,-935,618,1153,1607.0,0.11879285,0.060582757,-0.09907999,0.16612902,0.13334920373978548,-0.13280561294954302,38.22157262187712,24.87455653410307,128.85833137986242,128.85833137986242,-23.457598931005794,54.07039057301711,-1.7010936683736244,143.36489252155224,,0.013062258566114617,,,64.99,NONE,0.0,0.0,0.0,NONE,6.921971284572798E-9,1.3404224985802819E-8,-0.001083374,17.02,17.02,6.076,1.423561,0,3210,4.248,12.0,1.455,92,28.3,OK,408,0,0,0,0,0,65,100,0.0,0,0.0,589232.0,2.69E-43,0.0,-5.9807744E7,62,1.1641532E-10,-1.1641625E-10,9.4E-44,False,False,0,None,0.0,1.0842022E-19,
1637447154,425.565,0.0,0.0,0,153.19377,153.52951,0.43624884,-0.64244455,-0.63242966,1.0015066,5.7317524,0.108704746,-4.7129555,7.4213715,-1073,615,1032,1610.0,-0.054683615,0.008692952,-0.1314988,0.14268076,0.05537025604085312,-0.05537025604085312,41.00021261960336,34.431504522087174,113.48683037348036,113.48683037348036,-30.046807379200487,61.585763636057415,0.008351482362310599,135.4783852382665,,0.0,,,65.04,,,20.1074227,50.1616069,20190524,152334,2019-05-24T15:23:34Z,12525.486,99.99,99.99,3.7500056E7,0,0,0,0.0,0.0,0.0,0,0,0,0,0,0,,,,false,false,false,false,false,false,false,false,true,false,0,0,0,0,55,71,72,55,945,945,944,946,940,940,940,940,0.0,0.0,0.0,0.0,1690.7,1685.8,1687.0,1691.4,0.0,0.0,0.01,0.0,0,0,0,0,-45.0,1.966748975281962E-9,4.1131329553164175E-9,0,153.34439,153.4387,0.4369278,-0.63931274,-0.63203543,0.9995476,5.334218,-0.38037404,-4.9733744,7.302946,-1073,615,1034,1612.0,0.091481455,0.043873437,-0.050332166,0.11325662,0.10145804645875064,-0.101294955074722,39.70374500673039,34.27237810489736,116.19196720211988,116.19196720211988,-31.216426350509188,60.52552549605911,-0.07761711587436898,139.25149652393273,,0.013548266854353452,,,65.03,NONE,0.0,0.0,0.0,NONE,2.1204158805008544E-9,3.960235726060738E-9,-2.746582E-4,17.018,17.018,6.072,1.423561,0,3210,4.247,12.0,1.455,92,28.3,OK,408,0,0,0,0,0,65,100,0.0,0,0.0,589232.0,2.69E-43,0.0,-5.9807744E7,62,1.1641532E-10,-1.1641625E-10,9.4E-44,False,False,0,None,0.0,1.0842022E-19,
1641366402,426.584,0.0,0.0,0,153.19641,153.41577,0.4546374,-0.47645107,-0.7116967,0.9696458,-45.050957,8.822174,-19.651125,49.93582,-1101,399,1114,1616.0,-0.17920876,0.0056480095,0.04456249,0.18475252,0.1792977397457371,-0.1792977397457371,30.1611112024514,32.89356447372369,119.23453300942452,119.23453300942452,-32.30417377666807,50.9693972351816,2.029186049076685,143.71999378247702,,0.0,,,64.98,,,20.1074227,50.1616069,20190524,152335,2019-05-24T15:23:35Z,12525.486,99.99,99.99,3.7500056E7,0,0,0,0.0,0.0,0.0,0,0,0,0,0,0,,,,false,false,false,false,false,false,false,false,true,false,0,0,0,0,56,72,72,56,944,945,944,945,940,940,940,940,0.0,0.0,0.0,0.0,1690.7,1686.4,1686.4,1692.0,0.0,0.0,0.01,0.0,0,0,0,0,-45.0,-1.4839966348413586E-9,-1.9978036147573424E-10,0,153.21227,153.42664,0.45259082,-0.47941232,-0.70993847,0.9688587,-45.589485,8.369033,-19.506487,50.288616,-1096,417,1120,1621.0,-0.0044547757,-0.03346979,0.05063494,0.06086024,0.03376494895045559,-0.03316197789211314,29.33213617943178,33.24019402079842,121.2699752332794,121.26997523327941,-33.3698460536981,49.89386848098091,1.8197309396263468,145.51301738284036,,0.014198494374277707,,,65.0,NONE,0.0,0.0,0.0,NONE,4.6367783646910277E-10,1.4077989969990391E-9,1.2207031E-4,17.015,17.015,6.074,1.4327021,0,3210,4.247,12.0,1.503,92,28.3,OK,410,0,0,0,0,0,65,100,0.0,0,0.0,589232.0,2.69E-43,0.0,-5.9807744E7,62,1.1641532E-10,-1.1641625E-10,9.4E-44,False,False,0,None,0.0,1.0842022E-19,
1645355336,427.620,0.0,0.0,0,153.28362,153.2692,0.4616071,0.23237297,-0.8432911,0.98904914,-4.0358725,3.687375,5.367813,7.6614895,-1033,-690,1073,1641.0,-0.14153434,0.259127,0.018944245,0.29586762,0.29526050654878905,-0.29526050654878905,-15.243424746457523,28.724791224894307,155.7148728877095,155.71487288770948,-24.40227013838024,-4.655572097676474,1.2420640246571808,129.93485263981265,,0.0,,,64.99,,,20.1074227,50.1616069,20190524,152336,2019-05-24T15:23:36Z,12525.486,99.99,99.99,3.7500056E7,0,0,0,0.0,0.0,0.0,0,0,0,0,0,0,,,,false,false,false,false,false,false,false,false,true,false,0,0,0,0,55,72,71,54,945,945,944,946,940,940,940,940,0.0,0.0,0.0,0.0,1690.7,1686.4,1686.4,1692.0,0.0,0.0,0.01,0.0,0,0,0,0,-45.0,5.138571797078003E-9,9.628275715250452E-10,0,153.43686,153.38045,0.4608896,0.2319543,-0.8464849,0.9913419,-4.7204366,4.9339375,5.47036,8.749349,-1027,-686,1079,1639.0,0.022910783,0.11533178,-0.01014292,0.11802204,0.11758538489883216,-0.11686419951833878,-15.484064390839867,29.46543767119212,157.8561237328459,157.85612373284584,-25.42774900026383,-7.205574022837907,1.1198257509562715,128.10738176391953,,0.01593874895306533,,,64.97,NONE,0.0,0.0,0.0,NONE,3.6673918819129054E-9,-6.348799071433284E-10,3.0517578E-5,17.016,17.016,6.076,1.4327021,0,3210,4.245,12.0,1.503,92,28.3,OK,410,0,0,0,0,0,65,100,0.0,0,0.0,589232.0,2.69E-43,0.0,-5.9807744E7,62,1.1641532E-10,-1.1641625E-10,9.4E-44,False,False,0,None,0.0,1.0842022E-19,
1649204854,428.621,0.0,0.0,0,153.19377,153.34476,0.42637092,0.29114583,-0.8423798,0.988009,-0.6057587,-0.10798621,-2.0621355,2.1519775,-987,-696,1106,1637.0,-0.27617818,0.12707381,0.03302907,0.30579907,0.3040101028335326,-0.3040101028335326,-16.192389446546496,25.389181125279812,157.62520867703637,157.62520867703643,-23.40303086823309,-6.325694885931352,-2.6526873862874636,134.44430013439833,,0.0,,,65.0,,,20.1074227,50.1616069,20190524,152337,2019-05-24T15:23:37Z,12525.486,99.99,99.99,3.7500056E7,0,0,0,0.0,0.0,0.0,0,0,0,0,0,0,,,,false,false,false,false,false,false,false,false,true,false,0,0,0,0,56,71,72,56,945,945,944,946,940,940,940,940,0.0,0.0,0.0,0.0,1692.0,1688.2,1686.4,1692.0,0.0,0.0,0.01,0.0,0,0,0,0,-45.0,-2.474816900451731E-9,-1.5433618704586445E-9,0,153.2202,153.36061,0.42620274,0.29069102,-0.84513086,0.9901496,-1.3061951,-0.15389735,-2.0593882,2.4435446,-987,-693,1106,1636.0,-0.034633417,-0.055396844,0.040940434,0.07709996,0.06533210509200549,-0.06444126781305134,-16.42945997360076,26.15099222211853,159.68636633792784,159.6863663379279,-24.283125258351383,-8.97163741038734,-2.681708856660592,133.3365106904917,,0.017217575235398817,,,64.98,NONE,0.0,0.0,0.0,NONE,-1.0770403674080651E-9,-1.3894272504204712E-9,1.6784668E-4,17.018,17.018,6.077,1.4405737,0,3209,4.247,12.0,1.429,92,28.3,OK,411,0,0,0,0,0,65,100,0.0,0,0.0,589232.0,2.69E-43,0.0,-5.9807744E7,62,1.1641532E-10,-1.1641625E-10,9.4E-44,False,False,0,None,0.0,1.0842022E-19,
1653116898,429.638,0.0,0.0,0,153.07487,153.21065,0.39836562,0.31060448,-0.85083115,0.98948675,-0.10893715,0.118133806,-16.256363,16.257158,-958,-742,1138,1662.0,-0.29442206,2.180636E-4,0.09313607,0.30880207,0.29442213045645743,-0.29442213045645743,-17.05935032419884,24.420443779505934,154.62936065059134,154.62936065059137,-26.705422115399465,-5.721841666920524,-2.9887660927792186,131.52550441621318,,0.0,,,65.0,,,20.1074227,50.1616069,20190524,152338,2019-05-24T15:23:38Z,12525.486,99.99,99.99,3.7500056E7,0,0,0,0.0,0.0,0.0,0,0,0,0,0,0,,,,false,false,false,false,false,false,false,false,true,false,0,0,0,0,57,71,72,55,945,945,944,946,940,940,940,940,0.0,0.0,0.0,0.0,1691.4,1686.4,1686.4,1691.4,0.0,0.0,0.01,0.0,0,0,0,0,-45.0,-4.586900267477035E-9,1.6946193686052481E-10,0,153.15942,153.34755,0.39726216,0.30894652,-0.8498601,0.9876878,0.90082765,-0.023624377,-15.241979,15.268594,-958,-736,1135,1657.0,0.003636243,-0.102939084,0.034472577,0.10861876,0.1030032866535751,-0.10270588622111293,-17.4130662736776,25.06605462422849,156.57881758597273,156.57881758597273,-27.42537207992985,-8.265818741343807,-2.984537618330187,131.03842791814728,,0.017774064158672578,,,64.97,NONE,0.0,0.0,0.0,NONE,-3.909537748032498E-9,-6.822650015996726E-10,1.8310547E-4,17.018,17.018,6.074,1.4462589,0,3209,4.247,12.0,1.433,92,28.3,OK,412,0,0,0,0,0,65,100,0.0,0,0.0,589232.0,2.69E-43,0.0,-5.9807744E7,62,1.1641532E-10,-1.1641625E-10,9.4E-44,False,False,0,None,0.0,1.0842022E-19,
1656973294,430.640,0.0,0.0,0,153.26247,153.0878,0.36509332,0.27114874,-0.88542974,0.9953897,5.405184,-1.754058,-17.019768,17.94339,-887,-785,1180,1671.0,-0.16007966,0.038437355,0.10247562,0.19391797,0.16462966544948932,-0.16462966544948932,-15.744576312076033,22.51681938063268,146.9174977286029,146.91749772860294,-33.23359159181657,-0.9788785056102582,-2.8271966088012914,124.82631926397225,,0.0,,,65.03,,,20.1074227,50.1616069,20190524,152339,2019-05-24T15:23:39Z,12525.486,99.99,99.99,3.7500056E7,0,0,0,0.0,0.0,0.0,0,0,0,0,0,0,,,,false,false,false,false,false,false,false,false,false,false,0,0,0,0,55,71,73,56,944,946,944,945,940,940,940,940,0.0,0.0,0.0,0.0,1691.4,1686.4,1687.6,1690.7,0.0,0.0,0.01,0.0,0,0,0,0,-45.0,-5.274937814928787E-10,1.1229195795073931E-9,0,153.15678,153.35054,0.3654205,0.2721099,-0.8854883,0.995824,4.8917694,-1.3226541,-15.64892,16.448936,-889,-782,1177,1669.0,0.02550893,-0.011818107,0.019951576,0.03447374,0.028113576602325156,-0.027650953144017654,-16.487203227532426,22.859365220334062,148.54448534093567,148.5444853409357,-33.92162041203449,-3.6514454988671337,-2.8071621476023867,125.31128677468551,,0.01856072991087469,,,64.98,NONE,0.0,0.0,0.0,NONE,-3.8995654601625345E-10,2.11519551708533E-9,3.0517578E-5,17.016,17.016,6.075,1.4485588,0,3208,4.246,12.0,1.423,92,28.3,OK,413,0,0,0,0,0,65,100,0.0,0,0.0,589232.0,2.69E-43,0.0,-5.9807744E7,62,1.1641532E-10,-1.1641625E-10,9.4E-44,False,False,0,None,0.0,1.0842022E-19,
1660832614,431.643,0.0,0.0,0,152.9771,152.95558,-0.040693227,0.041826457,-1.0360329,1.0376751,-10.284207,26.59584,32.472473,43.215336,-302,-569,1529,1659.0,-0.27150154,0.07954836,0.30484122,0.41589564,0.2829152321088561,-0.2829152321088561,-7.069375206993319,1.3629553700237669,143.31051778971917,143.31051778971914,-34.72481397894297,15.551049039077988,-20.407260949352118,125.05404500444592,,0.0,,,65.01,,,20.1074227,50.1616069,20190524,152340,2019-05-24T15:23:40Z,12525.486,99.99,99.99,3.7500056E7,0,0,0,0.0,0.0,0.0,0,0,0,0,0,0,,,,false,false,false,false,false,false,false,false,false,false,0,0,0,0,56,71,72,55,944,944,944,946,940,940,940,940,0.0,0.0,0.0,0.0,1690.7,1688.2,1686.4,1690.7,0.0,0.0,0.01,0.0,0,0,0,0,-45.0,1.3081765665441204E-9,2.5589288266268244E-9,0,152.68645,153.25394,-0.056922417,0.058234926,-0.9841873,0.98755056,-6.813785,5.598279,20.689808,22.49081,-385,-585,1511,1665.0,0.06270981,0.0290889,0.22061156,0.23118854,0.0691280269999077,-0.06886965371994216,-8.457413847456595,3.768752757555103,146.7928103214045,146.7928103214045,-33.2869038084304,12.553993169336652,-18.79588990647372,128.18095319364338,,0.023175493077771545,,,65.02,NONE,0.0,0.0,0.0,NONE,-1.3152709351379107E-9,-7.25534020576151E-9,0.0014648438,17.017,17.017,6.077,1.4485027,0,3208,4.246,12.0,1.439,92,28.3,OK,414,0,0,0,0,0,65,100,0.0,0,0.0,589232.0,2.69E-43,0.0,-5.9807744E7,62,1.1641532E-10,-1.1641625E-10,9.4E-44,False,False,0,None,0.0,1.0842022E-19,
