Tick#,offsetTime,IMU_ATTI(0):Longitude,IMU_ATTI(0):Latitude,IMU_ATTI(0):numSats,IMU_ATTI(0):barometer:Raw,IMU_ATTI(0):barometer:Smooth,IMU_ATTI(0):accel:X,IMU_ATTI(0):accel:Y,IMU_ATTI(0):accel:Z,IMU_ATTI(0):accel:Composite,IMU_ATTI(0):gyro:X,IMU_ATTI(0):gyro:Y,IMU_ATTI(0):gyro:Z,IMU_ATTI(0):gyro:Composite,IMU_ATTI(0):mag:X,IMU_ATTI(0):mag:Y,IMU_ATTI(0):mag:Z,IMU_ATTI(0):mag:Mod,IMU_ATTI(0):velN,IMU_ATTI(0):velE,IMU_ATTI(0):velD,IMU_ATTI(0):velComposite,IMU_ATTI(0):velH,IMU_ATTI(0):GPS-H,IMU_ATTI(0):roll,IMU_ATTI(0):pitch,IMU_ATTI(0):yaw,IMU_ATTI(0):yaw360,IMU_ATTI(0):totalGyro:Z,IMU_ATTI(0):totalGyro:X,IMU_ATTI(0):totalGyro:Y,IMU_ATTI(0):magYaw,IMU_ATTI(0):distanceHP,IMU_ATTI(0):distanceTravelled,IMU_ATTI(0):directionOfTravel[mag],IMU_ATTI(0):directionOfTravel[true],IMU_ATTI(0):temperature,General:relativeHeight,General:absoluteHeight,GPS(0):Long,GPS(0):Lat,GPS(0):Date,GPS(0):Time,GPS:dateTimeStamp,GPS(0):heightMSL,GPS(0):hDOP,GPS(0):pDOP,GPS(0):sAcc,GPS(0):numGPS,GPS(0):numGLNAS,GPS(0):numSV,GPS(0):velN,GPS(0):velE,GPS(0):velD,RC:Aileron,RC:Elevator,RC:Rudder,RC:Throttle,Controller:navHealth,Controller:ctrl_level,HP:Longitude,HP:Latitude,HP:rthHeight,BatBlackBox:tick,BatBlackBox:id,BatBlackBox:rsoc,BatBlackBox:index,BatBlackBox:rm,BatBlackBox:fcc,BatBlackBox:cell_min,BatBlackBox:cell_max,BatBlackBox:current,BatBlackBox:voltage,BatBlackBox:temp,BatBlackBox:flag,BatBlackBox:reserve,BatBlackBox:user_data,OA:avoidObst,OA:emergBrake,OA:radiusLimit,OA:airportLimit,OA:groundForceLanding,OA:horizNearBoundary,OA:vertLowLimit,OA:vertAirportLimit,OA:roofLimit,OA:hitGroundLimit,Motor:Speed:RFront,Motor:Speed:LFront,Motor:Speed:LBack,Motor:Speed:RBack,Motor:EscTemp:RFront,Motor:EscTemp:LFront,Motor:EscTemp:LBack,Motor:EscTemp:RBack,Motor:PPMrecv:RFront,Motor:PPMrecv:LFront,Motor:PPMrecv:LBack,Motor:PPMrecv:RBack,Motor:PPMsend:RFront,Motor:PPMsend:LFront,Motor:PPMsend:LBack,Motor:PPMsend:RBack,Motor:V_out:RFront,Motor:V_out:LFront,Motor:V_out:LBack,Motor:V_out:RBack,Motor:Volts:RFront,Motor:Volts:LFront,Motor:Volts:LBack,Motor:Volts:RBack,Motor:Current:RFront,Motor:Current:LFront,Motor:Current:LBack,Motor:Current:RBack,Motor:Status:RFront,Motor:Status:LFront,Motor:Status:LBack,Motor:Status:RBack,Motor:thrustAngle,IMU_ATTI(1):Longitude,IMU_ATTI(1):Latitude,IMU_ATTI(1):numSats,IMU_ATTI(1):barometer:Raw,IMU_ATTI(1):barometer:Smooth,IMU_ATTI(1):accel:X,IMU_ATTI(1):accel:Y,IMU_ATTI(1):accel:Z,IMU_ATTI(1):accel:Composite,IMU_ATTI(1):gyro:X,IMU_ATTI(1):gyro:Y,IMU_ATTI(1):gyro:Z,IMU_ATTI(1):gyro:Composite,IMU_ATTI(1):mag:X,IMU_ATTI(1):mag:Y,IMU_ATTI(1):mag:Z,IMU_ATTI(1):mag:Mod,IMU_ATTI(1):velN,IMU_ATTI(1):velE,IMU_ATTI(1):velD,IMU_ATTI(1):velComposite,IMU_ATTI(1):velH,IMU_ATTI(1):GPS-H,IMU_ATTI(1):roll,IMU_ATTI(1):pitch,IMU_ATTI(1):yaw,IMU_ATTI(1):yaw360,IMU_ATTI(1):totalGyro:Z,IMU_ATTI(1):totalGyro:X,IMU_ATTI(1):totalGyro:Y,IMU_ATTI(1):magYaw,IMU_ATTI(1):distanceHP,IMU_ATTI(1):distanceTravelled,IMU_ATTI(1):directionOfTravel[mag],IMU_ATTI(1):directionOfTravel[true],IMU_ATTI(1):temperature,IMUEX(0):err,IMUEX(0):rtk_Longitude,IMUEX(0):rtk_Latitude,IMUEX(0):rtk_Alti,IMUEX(1):err,IMUEX(1):rtk_Longitude,IMUEX(1):rtk_Latitude,IMUEX(1):rtk_Alti,MotorCtrl:Status,MotorCtrl:PWM:RFront,MotorCtrl:PWM:LFront,MotorCtrl:PWM:LBack,MotorCtrl:PWM:RBack,BattInfo:Voltage,BattInfo:BatVoltage,BattInfo:AdVoltage,BattInfo:AvgCurrent,BattInfo:R_time,BattInfo:R_CAP_MAH,BattInfo:LowCellVoltage,BattInfo:LowCellVolThreshold,BattInfo:BatCurrent,BattInfo:Remaining%,BattInfo:Temp,BattInfo:status,battery_info:BatDynCnt,battery_info:Vol1Protect,battery_info:Vol2Protect,battery_info:Cap1Protect,battery_info:Cap2Protect,battery_info:Batpresent,battery_info:sopPercentage,battery_info:sopValue,battery_info:sopScale,battery_info:sopFlg,BattInfo:WindHeading:WindDir,battery_info:home_dir,BattInfo:Wind:rangeMin,BattInfo:Wind:rangeMax,battery_info:cap_speed,battery_info:against_wind,battery_info:emergency_land_cap,battery_info:intel_bat_land_cap,battery_info:intel_bat_gh_cap,BattInfo:Smart:SmartGh,BattInfo:Smart:SmartLand,BattInfo:GoHome:CntDown,BattInfo:GoHome:GhCmd,BattInfo:GoHome:CapLevel,BattInfo:GoHome:LandCapLv,Attribute|Value,ConvertDatV3,3.6.6-Tablet
175159958,.000,9.295075895966253,62.64871223304871,10,497.5488,497.3788,0.07119846,0.033779062,-0.98296803,0.9861219,0.20289937,0.028699448,-0.041725397,0.20912392,381,57,1455,1505.0,0.0072844666,-0.008407639,0.019490138,0.02244142,0.011124381289052167,-0.011124381289052167,-1.9729745163849914,4.062958161261461,-9.396851761785626,350.6031482382144,1.2986384531266097,10.605530115881846,0.7655367992781374,-12.499486677495115,0.35862208800297496,7.288438616605374,-24.545526199970773,-21.95121771451668,43.56,,,9.2950759,62.6487125,20190821,172116,2019-08-21T17:21:16Z,596.382,1.23,1.99,10.48,6,4,10,-0.02,-0.01,-0.02,-9991,-9990,9954,-9989,4,4,9.295072743022308,62.64870935151401,120,3468787,81,60,342,2074,3455,3980,3987,-14,15924,29,1053,5,0,false,false,false,false,false,false,false,false,false,false,0,0,0,0,47,60,61,47,944,944,944,944,940,940,940,940,0.0,0.0,0.0,0.0,1729.4,1724.4,1725.7,1730.0,0.0,0.0,0.0,0.0,0,0,0,0,-45.0,9.29507608264325,62.648711668256404,0,497.28195,497.15475,0.07168582,0.033301163,-0.98203486,0.9852108,0.28867108,0.18235676,0.049653076,0.3450368,381,57,1455,1505.0,1.1078229E-4,-0.0015298284,-0.001328763,0.0020293493,0.001533834312430647,-0.001533834312430647,-1.8940487345773263,3.5035739373258488,-16.72744707370886,343.27255292629116,0.8215139661297212,9.156110165956003,0.9011934856907696,-12.625085857032456,0.30898570315521595,7009415.531838368,49.822396522029265,52.41670500748336,43.57,NONE,0.0,0.0,0.0,NONE,-1.1603944142878509E-10,-7.77997169667322E-12,0.0,,,,,,17.4,17.4,6.22,1.2369473,0,3634,4.349,12.0,1.252,100,29.5,OK,42,0,0,0,0,0,65,100,0.0,0,0.0,6.7002E-17,2.69E-43,0.0,0.0,0,1.3351382E-6,-1.3351458E-6,1.6768315E-33,False,False,0,None,1.0833523E30,1.0842106E-19,Firmware Date| Oct 17 2018
179014137,1.002,9.295077117106757,62.6487129395695,10,497.50653,497.35645,0.07208316,0.024749339,-0.98105365,0.98400956,0.5086895,-0.75735956,-0.8493019,1.2464639,381,51,1446,1496.0,-3.5034792E-4,-0.0028391539,0.008151125,0.00863854,0.0028606883489134434,0.09728951074032259,-1.9487676332846313,4.0826637762533435,-9.406648841103532,350.59335115889644,1.3276863071879597,10.920808633358305,0.8481422696750419,-11.718216409996398,0.4572915818376956,7.394108080791122,27.408499565801183,30.002808051255276,43.85,0.10064676171873543,,9.2950769,62.6487132,20190821,172117,2019-08-21T17:21:17Z,596.738,1.23,1.99,10.19,6,4,10,0.01,0.01,0.0,0,0,0,0,4,4,9.295072743022308,62.64870935151401,120,3468787,81,60,342,2074,3455,3980,3987,-14,15924,29,1053,5,0,false,false,false,false,false,false,false,false,false,false,584,554,583,582,52,64,65,51,1310,1318,1314,1314,1302,1302,1302,1302,0.1,0.1,0.1,0.1,1704.2,1698.1,1698.7,1704.2,7.9,7.4,8.01,7.52,0,0,0,0,-47.04540848888723,9.295077124711424,62.64871249183427,0,497.50653,497.15497,0.06889224,0.03488648,-0.98428434,0.9873089,0.56098497,0.21897483,0.25259802,0.653039,381,51,1434,1484.0,-2.04516E-4,-4.6797883E-4,-0.0016164293,0.0016951916,5.107161372232705E-4,0.10523883749016198,-1.8903129281212117,3.518677673988799,-16.710807605006597,343.2891923949934,0.6534267031994891,9.751160525082941,0.6916250390522289,-11.855663091115128,0.41477886328561625,7009415.646632016,19.287654892382793,21.881963377836886,43.84,NONE,0.0,0.0,0.0,NONE,-3.1481593952983603E-11,-3.341205048815649E-11,0.0,1,22.5,22.5,22.5,22.5,17.392,17.392,6.126,1.2385623,0,3634,4.348,12.0,1.241,100,29.5,OK,43,0,0,0,0,0,65,100,0.0,0,0.0,2.343359E-17,2.69E-43,0.0,0.0,0,1.3351382E-6,-1.3351458E-6,2.486324E-33,False,False,0,None,2.0719248E30,1.0842106E-19,ACType|MavicEnterprise
183045448,2.049,9.295077801937616,62.64871329364941,10,497.50653,497.35498,0.07057357,0.03436933,-0.98604935,0.98916894,-0.44476363,0.3969104,-1.1607,1.3048283,387,54,1458,1509.0,0.0023987498,-0.015968744,-2.1033618E-4,0.016149273,0.01614790325233806,0.03412388664651123,-1.9365400277066018,4.074523093721267,-9.358079356230668,350.6419206437693,1.6123543602748527,10.915509261645793,-0.9580514533474883,-11.911176700129028,0.5088643211241172,7.477226445578192,178.5585850352972,-178.8471064792487,44.17,0.10064676171873543,,9.2950776,62.6487135,20190821,172118,2019-08-21T17:21:18Z,596.956,1.23,1.99,9.98,6,4,10,-0.02,0.0,0.0,-9998,-9995,9978,-9980,4,4,9.295072743022308,62.64870935151401,120,3548157,181,60,343,2053,3446,3980,3987,0,15922,22,58118,1,0,false,false,false,false,false,false,false,false,false,false,2333,2097,2160,2125,52,66,65,52,1224,1205,1211,1205,1216,1200,1208,1205,0.0,0.0,0.0,0.0,1723.2,1718.9,1718.3,1723.8,0.84,0.24,0.86,0.33,0,0,0,0,-125.80641775138693,9.29507793429965,62.648712808240944,0,497.50653,497.0977,0.07441665,0.034707915,-0.98066896,0.98410064,0.7617506,1.7908816,-0.9738439,2.1762106,387,54,1458,1509.0,0.042425774,-0.01478991,0.040577978,0.06054139,0.04492980949154462,0.00689708113726753,-1.8507915922604807,3.504515697719615,-16.691784446699568,343.30821555330044,-1.2605988980916718,9.660195968138385,1.845914017373474,-12.005046509348732,0.46698810491964643,7009415.72507907,45.586232388085065,48.18054087353916,44.15,NONE,0.0,0.0,0.0,NONE,-5.991517393813376E-10,7.915828463274216E-10,9.1552734E-5,2,11.97,10.0,11.02,10.49,17.197,17.197,6.196,1.3095839,0,3634,4.348,12.0,4.705,100,29.5,OK,44,0,0,0,0,0,65,100,0.0,0,0.0,5.0612336E-18,2.69E-43,0.0,0.0,0,1.3351382E-6,-1.3351458E-6,3.0196692E-33,False,False,0,None,3.1541938E30,1.0842106E-19,dateTime|2015-10-18 0:0:6 GMT
186904708,3.052,9.29507826379438,62.64871315306502,10,497.5488,497.35562,0.07112697,0.032542545,-0.9824994,0.985608,0.1705685,0.32030934,0.36111292,0.5119514,387,57,1449,1500.0,0.0016545363,-0.003129675,-0.0022725242,0.0042067473,0.00354010688782534,0.024678934089775673,-1.9571920114850538,4.095579924442159,-9.37236779916136,350.62763220083866,1.6039969687910767,11.544343863184327,-1.2215968251958236,-12.27421711088104,0.5081689944926654,7.5138188995019215,111.53449699845723,114.12880548391132,44.51,0.14291360742186043,,9.2950782,62.6487136,20190821,172119,2019-08-21T17:21:19Z,597.105,1.23,1.99,9.82,6,4,10,-0.03,0.0,0.02,-10000,-10000,9998,-10000,4,4,9.295072743022308,62.64870935151401,120,4152958,181,60,344,2027,3443,3976,3982,0,15904,23,58118,4,0,false,false,false,false,false,false,false,false,false,false,0,0,0,0,48,62,62,48,943,944,943,944,940,940,940,940,0.0,0.0,0.0,0.0,1728.8,1722.0,1722.0,1727.5,0.26,0.28,0.27,0.24,0,0,0,0,-45.0,9.29507835917697,62.648712799770685,0,497.35593,497.077,0.07167003,0.03426278,-0.9825652,0.98577124,0.20511714,0.6826965,0.009097259,0.7129027,387,57,1452,1503.0,0.030548176,-0.0057224534,0.0075220605,0.03197685,0.031079535170389843,-0.009418087330022126,-1.8560631683699509,3.5125386857379706,-16.73192191561115,343.26807808438883,-1.3476245770774167,9.846338559044465,2.2078153461686463,-12.347877056552447,0.47889384631995857,7009415.78591648,6.513070766755125,9.107379252209219,44.47,NONE,0.0,0.0,0.0,NONE,-9.45685992315474E-10,2.003585337298462E-9,0.0,2,12.16,10.02,10.87,10.0,17.333,17.333,6.199,1.5221801,0,3633,4.292,12.0,2.905,100,29.5,OK,45,0,0,0,0,0,65,100,0.0,0,0.0,2.6703045E-20,2.69E-43,0.0,0.0,0,1.3351382E-6,-1.3351458E-6,3.0962767E-33,False,False,0,None,3.354895E30,1.0842106E-19,geoDeclination|259 degrees
190766101,4.056,9.295079287127617,62.648713992435894,10,497.6228,497.43988,0.07148489,0.03350659,-0.98266536,0.9858316,0.31967038,-0.0051227435,0.06698958,0.32665426,387,51,1452,1503.0,0.0013382848,-0.004305407,-0.023240082,0.02367338,0.004508606860406769,0.10209049362427919,-1.948192207724517,4.089186458576768,-9.396074817907623,350.6039251820924,1.6293976086901685,11.802494559533265,-1.1946632994247102,-11.586377064900121,0.6148801129305256,7.623979405812446,22.034438832138353,24.628747317592445,44.82,0.21691873437498543,,9.295079,62.6487142,20190821,172120,2019-08-21T17:21:20Z,597.276,1.23,1.99,9.66,6,4,10,0.01,0.01,0.01,0,0,0,0,4,4,9.295072743022308,62.64870935151401,120,4757759,181,60,345,1987,3434,3971,3978,0,15886,24,58118,0,0,false,false,false,false,false,false,false,false,false,false,0,0,0,0,49,62,62,49,944,945,944,945,940,940,940,940,0.0,0.0,0.0,0.0,1728.8,1722.6,1722.0,1728.2,0.0,0.0,0.02,0.0,0,0,0,0,-45.0,9.295079329684915,62.64871346118128,0,497.31628,497.08163,0.07050186,0.03355609,-0.98354596,0.98664033,0.2396097,0.012479471,-0.081163846,0.25329056,387,51,1452,1503.0,0.0017048699,0.0055945045,-0.003042582,0.006592599,0.005848509429563965,0.08253442415180942,-1.8557639820969876,3.530683703894438,-16.752290393548286,343.24770960645174,-1.4004199524490306,10.140576261872722,2.2619305166374026,-11.64401055204892,0.5675006054931553,7009415.890863228,38.760978450330896,41.35528693578499,44.81,NONE,0.0,0.0,0.0,NONE,5.84476123018611E-11,-7.502235157191603E-11,0.0,2,12.16,10.02,10.87,10.0,17.348,17.348,6.213,1.7839551,0,3633,4.334,12.0,1.819,100,29.5,OK,46,0,0,0,0,0,65,100,0.0,0,0.0,9.533091E-20,2.69E-43,0.0,0.0,0,1.3351382E-6,-1.3351458E-6,4.5504103E-33,False,False,0,None,5.8529805E30,1.0842106E-19,geoInclination|7433 degrees
194642282,5.063,9.295079348617781,62.648713930590034,10,497.42197,497.45294,0.071408935,0.033717476,-0.9827567,0.9859243,0.28309038,0.09965817,-0.045002576,0.3034751,390,51,1452,1504.0,0.0077978824,0.0012419781,-0.004033245,0.008866597,0.007896168561870275,-3.9124372919964717E-4,-1.9368974358191882,4.079645815432766,-9.399484890042478,350.60051510995754,1.6440794005950812,12.048933825260859,-1.1391171152243005,-11.491252147818322,0.6108498667301225,7.684340905151049,153.73343426543119,156.32774275088528,45.06,0.016082552734360434,,9.2950792,62.6487144,20190821,172121,2019-08-21T17:21:21Z,597.383,1.23,1.99,9.5,6,4,10,0.01,0.0,-0.01,0,0,0,0,4,4,9.295072743022308,62.64870935151401,120,5362560,181,60,346,1951,3443,3964,3974,0,15865,23,58118,2,0,false,false,false,false,false,false,false,false,false,false,0,0,0,0,48,63,62,48,944,945,944,944,940,940,940,940,0.0,0.0,0.0,0.0,1728.8,1722.6,1722.0,1728.2,0.0,0.0,0.02,0.0,0,0,0,0,-45.0,9.295079401375276,62.64871358939226,0,497.43518,497.0807,0.07203545,0.03266673,-0.9840066,0.9871804,0.33662006,-0.021531798,0.05384352,0.3415784,393,51,1449,1502.0,0.0015110857,0.0014112841,6.165684E-5,0.0020685513,0.002067632119853818,0.012543563979719275,-1.8163142572872448,3.505611552896957,-16.728135230735184,343.2718647692648,-1.4196459476816552,10.37389670781154,2.2722181571235205,-11.39660260357901,0.5811781842613833,7009415.969130512,24.98548079104879,27.579789276502883,45.07,NONE,0.0,0.0,0.0,NONE,2.0738888156479568E-10,8.887572071697668E-11,0.0,2,12.16,10.02,10.87,10.0,17.383,17.383,6.213,1.9653043,0,3633,4.336,12.0,1.263,100,29.5,OK,47,0,0,0,0,0,65,100,0.0,0,0.0,7.748201E-20,2.69E-43,0.0,-5.9807744E7,61,1.3351382E-6,-1.3351458E-6,4.8052574E-33,False,False,0,None,6.5915665E30,1.0842106E-19,geoIntensity|5165644 nanoTesla
198491913,6.064,9.295079767200237,62.64871468049175,10,497.5541,497.39612,0.07157083,0.033795845,-0.9837865,0.9869653,0.19372085,0.113482766,-0.024339413,0.2258285,387,51,1452,1503.0,0.020700281,6.571956E-4,0.015906367,0.026114097,0.020710711309458008,0.06532978847222842,-1.9375024573667148,4.063901505078934,-9.409551228439378,350.5904487715606,1.6433068886425963,12.294157204369148,-1.1226921462051505,-11.570358832709715,0.692744984415945,7.772092316065468,3.493816536986336,6.08812502244043,45.39,0.14822366601561043,,9.2950797,62.6487152,20190821,172122,2019-08-21T17:21:22Z,597.491,1.23,1.99,9.38,6,4,10,0.0,0.0,-0.01,0,0,0,0,4,4,9.295072743022308,62.64870935151401,120,5967361,181,60,347,1921,3439,3958,3970,0,15840,21,58118,2,0,false,false,false,false,false,false,false,false,false,false,0,0,0,0,48,62,62,48,944,944,944,945,940,940,940,940,0.0,0.0,0.0,0.0,1728.8,1722.6,1722.6,1728.2,0.0,0.0,0.02,0.0,0,0,0,0,-45.0,9.295079788890442,62.64871421250215,0,497.36386,497.08,0.07066591,0.03222356,-0.9839328,0.9869933,0.26820147,-0.037077352,0.03780343,0.27337858,387,51,1452,1503.0,0.001948783,1.5171272E-5,3.362903E-4,0.0019776442,0.0019488420992614045,0.07007454278091005,-1.8065469530390206,3.479610589685357,-16.74737856022195,343.25262143977807,-1.3840731490788636,10.64292159315156,2.3015841359695473,-11.52983339010982,0.6494068277794762,7009416.059092164,9.5247096224079,12.119018107861994,45.39,NONE,0.0,0.0,0.0,NONE,4.074945785194035E-11,3.078526470780184E-12,0.0,2,12.16,10.02,10.87,10.0,17.387,17.387,6.214,2.035999,0,3632,4.344,12.0,1.245,100,29.5,OK,48,0,0,0,0,0,65,100,0.0,0,0.0,1.1425204E-17,2.69E-43,0.0,-5.9807744E7,61,1.3351382E-6,-1.3351458E-6,5.857748E-33,False,False,0,None,9.641696E30,1.0842106E-19,
202347026,7.066,9.295080085954398,62.64871568616665,10,497.07584,497.38812,0.07051001,0.0320788,-0.98302406,0.9860715,0.46962184,-0.03988524,0.10051005,0.48191056,387,51,1458,1509.0,0.0104874205,0.004258845,0.0032632307,0.011780171,0.011319176169842623,0.10146895470564077,-1.9107529692732637,4.060604558709303,-9.414732708322587,350.58526729167744,1.6356695675977933,12.60587342865817,-1.0816627888221655,-11.508781660632804,0.7980472111158475,7.885674788010397,15.818547770222189,18.41285625567628,45.74,-0.33004781835938957,,9.29508,62.6487161,20190821,172123,2019-08-21T17:21:23Z,597.587,1.23,1.99,9.3,6,4,10,0.02,0.01,0.02,0,0,0,0,4,4,9.295072743022308,62.64870935151401,120,6572162,181,60,348,1891,3433,3951,3965,0,15815,23,58118,1,0,false,false,false,false,false,false,false,false,false,false,0,0,0,0,49,63,62,49,944,944,944,945,940,940,940,940,0.0,0.0,0.0,0.0,1728.8,1722.0,1722.0,1728.2,0.0,0.0,0.02,0.0,0,0,0,0,-45.0,9.295080054483696,62.64871531163705,0,497.28195,497.0796,0.07050751,0.03277218,-0.98216766,0.9852404,0.2179415,0.03470021,0.10779665,0.24560684,387,51,1452,1503.0,0.0015888313,8.9757494E-4,2.8175316E-4,0.0018464589,0.0018248358063291073,0.12090781537128024,-1.793663101808837,3.491685903652155,-16.685384218906513,343.3146157810935,-1.3753172565619978,10.891630664961822,2.349274335756381,-11.484917542418538,0.7607502987677639,7009416.1911479905,3.1972669676629124,5.791575453117006,45.71,NONE,0.0,0.0,0.0,NONE,-1.5331119259651965E-11,6.036588862817711E-11,0.0,2,12.16,10.02,10.87,10.0,17.388,17.388,6.216,2.018077,0,3632,4.344,12.0,1.241,100,29.5,OK,49,0,0,0,0,0,65,100,0.0,0,0.0,1.0426772E-14,2.69E-43,0.0,-5.9807744E7,61,1.3351382E-6,-1.3351458E-6,9.6050606E-33,False,False,0,None,2.149002E31,1.0842106E-19,
206260487,8.083,9.295080517110362,62.64871661708946,10,497.40878,497.34116,0.07051048,0.032270852,-0.9852435,0.98829037,0.23158848,0.016517779,0.12518093,0.26377323,390,51,1452,1504.0,0.023783905,0.008026551,5.101685E-4,0.02510697,0.025101786303331326,0.07895135421733951,-1.9075340241087766,4.06508320238134,-9.422912637540366,350.5770873624596,1.6400904254213002,12.940195219533008,-1.0419135938130843,-11.416235922255387,0.90024010675188,7.998540697545342,4.369018167135975,6.9633266525900686,46.01,0.0028989589843604335,,9.2950803,62.6487169,20190821,172124,2019-08-21T17:21:24Z,597.667,1.23,1.99,9.24,6,4,10,0.0,0.0,0.02,0,0,0,0,4,4,9.295072743022308,62.64870935151401,120,7176963,181,60,349,1852,3427,3944,3958,0,15786,23,58118,0,0,false,false,false,false,false,false,false,false,false,false,0,0,0,0,49,61,62,50,943,944,944,944,940,940,940,940,0.0,0.0,0.0,0.0,1728.8,1722.0,1722.6,1728.8,0.0,0.0,0.02,0.0,0,0,0,0,-45.0,9.295080517578764,62.64871624082461,0,497.36914,497.07877,0.07110671,0.03331743,-0.98433584,0.98746306,0.2617879,-0.009463187,-0.01886693,0.2626374,393,51,1452,1505.0,-7.7732006E-4,2.3645039E-4,-0.0016525732,0.0018415031,8.124871071672272E-4,0.10340141754984157,-1.8048830840613188,3.492968021368324,-16.69167812365558,343.3083218763444,-1.391565240950386,11.174297136318183,2.3781875997254134,-11.377350161882342,0.8629015637126005,7009416.311891754,5.671045424634905,8.265353910088999,46.0,NONE,0.0,0.0,0.0,NONE,-9.278786893112614E-11,-4.19616542973448E-11,0.0,2,12.16,10.02,10.87,10.0,17.387,17.387,6.215,1.944137,0,3631,4.344,12.0,1.236,100,29.5,OK,50,0,0,0,0,0,65,100,0.0,0,0.0,2.2214522E-13,2.69E-43,0.0,-5.9807744E7,61,1.3351382E-6,-1.3351458E-6,1.3551573E-32,False,False,0,None,4.1059995E31,1.0842106E-19,
210155837,9.095,9.295079961820429,62.64871772229974,10,497.52768,497.35434,0.07124186,0.033261787,-0.9858425,0.98897284,0.4151136,0.1748335,0.0013179664,0.45043066,396,51,1455,1508.0,0.02854551,0.0075243735,-0.0055474006,0.030037243,0.02952054098422007,0.09506218944582184,-1.9016532091137286,4.059746360673168,-9.435867031923372,350.56413296807665,1.6138177922355648,13.279291878001452,-1.0294021356022542,-11.27527618502842,1.0011875927340366,8.129717410924684,-26.555110598990513,-23.96080211353642,46.26,0.12179544335936043,,9.2950799,62.648718,20190821,172125,2019-08-21T17:21:25Z,597.711,1.23,1.99,9.21,6,4,10,-0.02,0.0,0.0,0,0,0,0,4,4,9.295072743022308,62.64870935151401,120,7781764,181,60,350,1843,3445,3937,3952,0,15760,25,58118,0,0,false,false,false,false,false,false,false,false,false,false,0,0,0,0,49,62,62,48,944,944,944,944,940,940,940,940,0.0,0.0,0.0,0.0,1728.8,1722.0,1723.2,1728.8,0.0,0.0,0.02,0.0,0,0,0,0,-45.0,9.295080023598123,62.64871729673917,0,497.52768,497.07886,0.07110927,0.032697838,-0.98452693,0.98763305,0.31653145,0.14503159,-0.107207276,0.3643072,396,51,1455,1508.0,1.1613123E-4,5.022385E-5,-3.9971323E-4,4.1926073E-4,1.265262782794724E-4,0.11849828603269953,-1.821309796486664,3.5113220444110245,-16.69931390591171,343.3006860940883,-1.4088889639317093,11.479293316825398,2.415380463714008,-11.35233996440586,0.958573659856389,7009416.451741986,-9.61056634674552,-7.016257861291426,46.27,NONE,0.0,0.0,0.0,NONE,1.5658863950976849E-12,8.164787598331105E-12,0.0,2,12.16,10.02,10.87,10.0,17.388,17.388,6.214,1.8400493,0,3631,4.344,12.0,1.242,100,29.5,OK,51,0,0,0,0,0,65,100,0.0,0,0.0,2.8033753E-10,2.69E-43,0.0,-5.9807744E7,61,1.3351382E-6,-1.3351458E-6,1.9763826E-32,False,False,0,None,7.706548E31,1.0842106E-19,
214173132,10.139,9.29508018451369,62.64871856334059,10,497.37708,497.3395,0.07054199,0.032997623,-0.9852199,0.9882931,0.3483692,-0.023865731,-0.024099428,0.3500164,402,51,1455,1510.0,0.014061097,0.009619689,-0.0066199303,0.018277755,0.01703680869150589,0.07319499869469726,-1.913097521110887,4.04973434111366,-9.453682618349776,350.5463173816502,1.582944467743436,13.578656740934719,-1.0016854509550053,-11.181866634789335,1.0925828014334167,8.248743370247222,12.63511076909425,15.229419254548345,46.58,-0.028808804687514566,,9.29508,62.6487189,20190821,172126,2019-08-21T17:21:26Z,597.698,1.23,1.99,9.19,6,4,10,0.0,0.01,0.01,0,0,0,0,4,4,9.295072743022308,62.64870935151401,120,8386565,181,60,351,1823,3452,3929,3945,0,15733,26,58118,5,0,false,false,false,false,false,false,false,false,false,false,0,0,0,0,48,63,62,48,944,945,943,944,940,940,940,940,0.0,0.0,0.0,0.0,1728.2,1722.6,1722.6,1728.8,0.0,0.0,0.02,0.0,0,0,0,0,-45.0,9.29508011585642,62.64871810978298,0,497.28723,497.0788,0.07153579,0.032807443,-0.9860167,0.98915243,0.26813635,0.1820065,-0.14051908,0.35322666,399,51,1455,1509.0,0.0019102368,-4.6313656E-4,-0.0029326335,0.0035304162,0.001965578870606515,0.0847417491671445,-1.8257244807158175,3.517012768678103,-16.68936482944941,343.3106351705506,-1.4364344422057715,11.816154329874701,2.4648368465102415,-11.293836684389422,1.0441779296718916,7009416.5665172,-5.698813629854547,-3.1045051444004526,46.57,NONE,0.0,0.0,0.0,NONE,1.0924789031281831E-11,-6.157052943180529E-12,0.0,2,12.16,10.02,10.87,10.0,17.387,17.387,6.213,1.725249,0,3631,4.345,12.0,1.248,100,29.5,OK,52,0,0,0,0,0,65,100,0.0,0,0.0,3.6126266E-9,2.69E-43,0.0,-5.9807744E7,61,1.3351382E-6,-1.3351458E-6,2.5974672E-32,False,False,0,None,1.3733212E32,1.0842106E-19,
218030227,11.142,9.295080097468656,62.64871962074464,10,497.16568,497.35825,0.070886046,0.03383234,-0.98488635,0.98801345,0.18540138,0.072235525,-0.030837396,0.2013519,393,51,1455,1508.0,0.0030897735,7.83812E-4,-0.01860661,0.018877685,0.0031876419583480543,0.11418779115767831,-1.898212884191155,4.052525443048834,-9.462914347452497,350.5370856525475,1.5651946830618955,13.887072575756363,-0.9485304155073222,-11.335977794428784,1.202111692483508,8.366911881242913,-13.623773850285275,-11.029465364831182,46.97,-0.24020406835938957,,9.2950801,62.6487199,20190821,172127,2019-08-21T17:21:27Z,597.678,1.23,1.99,9.15,6,4,10,0.0,0.0,0.01,0,0,0,0,4,4,9.295072743022308,62.64870935151401,120,8991366,181,60,352,1800,3454,3922,3937,0,15706,25,58118,3,0,false,false,false,false,false,false,false,false,false,false,0,0,0,0,48,63,62,48,944,945,944,945,940,940,940,940,0.0,0.0,0.0,0.0,1728.8,1723.2,1724.4,1729.4,0.0,0.0,0.02,0.0,0,0,0,0,-45.0,9.295080183664219,62.648719221589985,0,497.19473,497.07895,0.07046761,0.03286524,-0.9847552,0.98782015,0.3541562,0.13586774,-0.050611015,0.38268542,390,51,1455,1507.0,1.0914562E-4,7.5457187E-4,0.0015691455,0.0017445656,7.624247424063365E-4,0.12261215321521297,-1.8377377167943638,3.524982880594062,-16.69280424632325,343.30719575367675,-1.461846754422369,12.109421385411679,2.484497193349411,-11.53071489452627,1.161468029537107,7009416.695659443,35.98088803621704,38.57519652167113,47.0,NONE,0.0,0.0,0.0,NONE,3.583330948733526E-11,1.1310238558289795E-11,0.0,2,12.16,10.02,10.87,10.0,17.387,17.387,6.213,1.6131822,0,3630,4.345,12.0,1.249,100,29.5,OK,53,0,0,0,0,0,65,100,0.0,0,0.0,1.2306919E-7,2.69E-43,0.0,-5.9807744E7,61,1.3351382E-6,-1.3351458E-6,3.942308E-32,False,False,0,None,2.6829132E32,1.0842106E-19,
221916108,12.152,9.295080140920088,62.648720836265724,10,497.63864,497.33618,0.07007537,0.03258157,-0.9843208,0.98734975,0.2166212,0.009295885,0.15779525,0.26816133,390,51,1455,1507.0,0.004807895,-0.006230127,0.004141557,0.008892853,0.00786958316196899,0.12598022113217408,-1.944919073454146,4.075219588402665,-9.469936493101603,350.5300635068984,1.5052568871131833,14.144747903335256,-0.8989885423294987,-11.522982908975106,1.3317987506174873,8.510545964076462,-13.588903116074192,-10.994594630620098,47.19,0.23275735742186043,,9.2950801,62.6487212,20190821,172128,2019-08-21T17:21:28Z,597.648,1.23,1.99,9.11,6,4,10,0.0,-0.01,0.01,0,0,0,0,4,4,9.295072743022308,62.64870935151401,120,9596167,181,60,353,1782,3452,3917,3931,0,15682,23,58118,3,0,false,false,false,false,false,false,false,false,false,false,0,0,0,0,48,64,64,49,944,945,944,946,940,940,940,940,0.0,0.0,0.0,0.0,1728.2,1722.6,1723.2,1728.2,0.0,0.0,0.02,0.0,0,0,0,0,-45.0,9.29508031758344,62.64872050544949,0,497.15512,497.07812,0.071110584,0.033346314,-0.9838216,0.98695165,0.22768626,0.011162712,0.10427318,0.25067616,393,51,1458,1510.0,2.786516E-4,-1.2152594E-5,1.9205696E-4,3.3864475E-4,2.7891646904100524E-4,0.14123929861213197,-1.835656578327793,3.522377591039276,-16.712867177837836,343.28713282216216,-1.4979415839279393,12.371408809056184,2.4907820892575647,-11.463102035262454,1.2992275240733306,7009416.845988363,48.513611505150834,51.10791999060493,47.27,NONE,0.0,0.0,0.0,NONE,-7.501689022095551E-11,3.5469978922492007E-12,0.0,2,12.16,10.02,10.87,10.0,17.388,17.388,6.214,1.5119313,0,3630,4.345,12.0,1.244,100,29.5,OK,54,0,0,0,0,0,65,100,0.0,0,0.0,1.939712E-6,2.69E-43,0.0,-5.9807744E7,61,1.3351382E-6,-1.3351458E-6,6.6745903E-32,False,False,0,None,6.4333268E32,1.0842106E-19,
225769895,13.153,9.295080416804298,62.64872225249416,10,497.45898,497.31052,0.070496105,0.033114187,-0.9860272,0.98909855,0.34472716,0.1571157,-0.10998323,0.3944851,399,51,1452,1506.0,0.012191226,-0.009753346,0.009746796,0.018405266,0.015612615020608771,0.14224454355091726,-1.9430634673401472,4.048792623746841,-9.480972153995191,350.5190278460048,1.4890000661783624,14.443955097882249,-0.8590752367480499,-11.324696957016908,1.487128532577924,8.671825777998086,-3.902788910753346,-1.3084804252992526,47.51,0.053100374999985434,,9.2950802,62.6487225,20190821,172129,2019-08-21T17:21:29Z,597.653,1.23,1.99,9.09,6,4,10,0.0,0.01,0.01,0,0,0,0,4,4,9.295072743022308,62.64870935151401,120,9972946,48,60,354,1773,3454,3914,3927,0,15669,23,212,5,0,false,false,false,false,false,false,false,false,false,false,0,0,0,0,48,62,62,49,944,945,944,946,940,940,940,940,0.0,0.0,0.0,0.0,1729.4,1722.6,1723.2,1728.8,0.0,0.0,0.02,0.0,0,0,0,0,-45.0,9.29508041177492,62.64872199186376,0,497.4722,497.07825,0.070614114,0.032966606,-0.9845037,0.9875833,0.23227936,-0.07678696,-0.012216247,0.24494728,393,51,1449,1502.0,-4.846791E-4,-4.3155582E-4,-8.294679E-4,0.001053172,6.489639855814644E-4,0.16444162529625933,-1.8477484276492624,3.497830976069148,-16.72341840125425,343.27658159874574,-1.4988855352475718,12.625603956317073,2.5103126950052737,-11.492037117230417,1.4591238971515819,7009417.015025756,-7.38119518012343,-4.786886694669336,47.53,NONE,0.0,0.0,0.0,NONE,1.8499311868034456E-11,-1.5124934404840713E-11,0.0,2,12.16,10.02,10.87,10.0,17.388,17.388,6.213,1.4255904,0,3629,4.345,12.0,1.245,100,29.5,OK,55,0,0,0,0,0,65,100,0.0,0,0.0,1.3571931E-5,2.69E-43,0.0,-5.9807744E7,61,1.3351382E-6,-1.3351458E-6,1.1326653E-31,False,False,0,None,1.7943594E33,1.0842106E-19,
229626673,14.156,9.295080562775853,62.64872344701808,10,497.35327,497.35852,0.07095166,0.0329931,-0.98473126,0.98783517,0.2565565,-0.013541037,0.03562646,0.25937203,399,51,1452,1506.0,0.026061874,-0.016493216,-0.011011909,0.03274919,0.03084229992072227,0.1018787477147659,-1.9122753311861065,4.040481774004579,-9.486707680646797,350.5132923193532,1.4461177593867773,14.689995407770988,-0.8498497920470728,-11.24333979075732,1.6174602585765225,8.817626961526594,1.4484182328107789,4.0427267182648725,47.79,-0.052612515625014566,,9.2950806,62.6487237,20190821,172130,2019-08-21T17:21:30Z,597.693,1.23,1.99,9.1,6,4,10,0.02,0.0,0.01,0,0,0,0,4,4,9.295072743022308,62.64870935151401,120,9972946,48,60,355,1773,3454,3914,3927,0,15669,23,212,5,0,false,false,false,false,false,false,false,false,false,false,0,0,0,0,49,62,63,49,944,945,944,946,940,940,940,940,0.0,0.0,0.0,0.0,1728.8,1722.6,1723.2,1728.2,0.0,0.0,0.02,0.0,0,0,0,0,-45.0,9.295080943444407,62.648723142023876,0,497.18152,497.0773,0.070726484,0.032601267,-0.9831782,0.9862578,0.20837796,0.014703199,-0.0629427,0.21817273,399,51,1449,1503.0,-1.0802171E-4,2.759245E-4,-0.0027428076,0.0027587672,2.9631574969703835E-4,0.13014044001162675,-1.8591585526330847,3.489384023488931,-16.744980385127857,343.25501961487214,-1.4853978229398968,12.905542984013772,2.5433546944504246,-11.391678199671215,1.5896335865504647,7009417.153603781,30.01548375854984,32.609792244003934,47.82,NONE,0.0,0.0,0.0,NONE,-1.517817605613524E-10,1.0707918163128931E-11,0.0,2,12.16,10.02,10.87,10.0,17.389,17.389,6.213,1.3556477,0,3629,4.345,12.0,1.243,100,29.5,OK,56,0,0,0,0,0,65,100,0.0,0,0.0,4.88637E-5,2.69E-43,0.0,-5.9807744E7,61,1.3351382E-6,-1.3351458E-6,1.7798982E-31,False,False,0,None,3.993654E33,1.0842106E-19,mcID(SN)|298DG13001W644
233524434,15.169,9.295080936381504,62.64872466370187,10,497.32422,497.36832,0.07117853,0.032626916,-0.9861427,0.9892463,0.2501663,0.08665904,0.092177995,0.28033864,396,51,1449,1503.0,0.009931022,7.667445E-4,-0.016430598,0.019213995,0.009960577425923338,0.1249134464143671,-1.9231288331624468,4.075596935706402,-9.482463456919556,350.51753654308044,1.454580275208645,14.996950318883451,-0.8634559426478191,-11.314037990213004,1.753335525125641,8.956282127800177,-6.106079977580358,-3.5117714921262646,48.13,-0.08166525000001457,,9.2950808,62.6487248,20190821,172131,2019-08-21T17:21:31Z,597.729,1.23,1.99,9.12,6,4,10,-0.02,0.0,0.0,0,0,0,0,4,4,9.295072743022308,62.64870935151401,120,9972946,48,60,356,1773,3454,3914,3927,0,15669,23,212,5,0,false,false,false,false,false,false,false,false,false,false,0,0,0,0,49,62,63,49,944,945,944,946,940,940,940,940,0.0,0.0,0.0,0.0,1728.2,1722.6,1722.0,1728.8,0.0,0.0,0.02,0.0,0,0,0,0,-45.0,9.2950810889844,62.64872416993745,0,497.37177,497.07794,0.071595274,0.032504883,-0.98417693,0.98731285,0.13115081,-0.0035657273,0.10059258,0.16532429,396,51,1449,1503.0,4.9512E-5,-0.0011564633,6.674487E-4,0.0013361686,0.0011575226680625031,0.11191173448235713,-1.8666749426660807,3.490471884473265,-16.736082736364963,343.26391726363505,-1.504507165714074,13.145260659210322,2.5308178005227533,-11.481397424943976,1.7020058180115276,7009417.274639364,34.62241201940233,37.216720504856426,48.12,NONE,0.0,0.0,0.0,NONE,7.101114357602787E-12,2.2754326098281945E-12,0.0,2,12.16,10.02,10.87,10.0,17.389,17.389,6.214,1.3018205,0,3629,4.345,12.0,1.245,100,29.5,OK,57,0,0,0,0,0,65,100,0.0,0,0.0,1.1995621E-4,2.69E-43,0.0,-5.9807744E7,62,1.3351382E-6,-1.3351458E-6,2.918883E-31,False,False,0,None,8.967677E33,1.0842106E-19,mcVer|v3.4.1.6
237556749,16.217,9.295081191272967,62.64872574486818,10,497.41406,497.4155,0.07110974,0.033090558,-0.9822888,0.98541504,0.2904822,0.17112893,-0.122999504,0.35887867,393,51,1452,1505.0,-0.0035457322,-0.005999757,-0.021946488,0.023026455,0.006969167936372693,0.10841788644627554,-1.9107438441605085,4.031202199183849,-9.481753824138325,350.5182461758617,1.468843138711056,15.237172014668007,-0.808070387126976,-11.376814450889727,1.8732571254811587,9.077619393918104,4.379590648018435,6.973899133472528,48.44,0.008178499999985434,,9.295081,62.6487259,20190821,172132,2019-08-21T17:21:32Z,597.759,1.23,1.99,9.15,6,4,10,-0.02,0.0,-0.02,0,0,0,0,4,4,9.295072743022308,62.64870935151401,120,9972946,48,60,357,1773,3454,3914,3927,0,15669,23,212,5,0,false,false,false,false,false,false,false,false,false,false,0,0,0,0,49,62,63,49,944,945,944,945,940,940,940,940,0.0,0.0,0.0,0.0,1728.2,1722.0,1722.6,1728.8,0.0,0.0,0.02,0.0,0,0,0,0,-45.0,9.295081252332032,62.648725260838205,0,497.30573,497.07812,0.07026592,0.032592334,-0.98480326,0.98784465,0.19855875,-0.0052672666,-0.1352825,0.24032202,393,51,1452,1505.0,-2.5136716E-4,4.630415E-4,-0.0012753074,0.0013798557,5.268708602024928E-4,0.11549564250842025,-1.8517260686184887,3.4803879771277155,-16.74722944004835,343.25277055995167,-1.5143335189671712,13.432527910857985,2.558434476406673,-11.520483915081924,1.8216676175928037,7009417.399958759,-20.32208187918243,-17.727773393728338,48.46,NONE,0.0,0.0,0.0,NONE,-2.7494059320395903E-11,1.6664197641130215E-11,0.0,2,12.16,10.02,10.87,10.0,17.388,17.388,6.215,1.2627739,0,3628,4.345,12.0,1.249,100,29.5,OK,58,0,0,0,0,0,65,100,0.0,0,0.0,2.367571E-4,2.69E-43,0.0,-5.9807744E7,62,1.3351382E-6,-1.3351458E-6,4.3627443E-31,False,False,0,None,1.9000181E34,1.0842106E-19,
241413494,17.219,9.295081799463691,62.64872693637297,10,497.45367,497.47318,0.07109181,0.0341146,-0.9833569,0.9865134,0.3009888,0.104215056,0.0020819004,0.31852686,393,51,1458,1510.0,0.016811997,-0.007120204,-0.018452097,0.02595805,0.018257616150889378,0.11750714308487097,-1.9252122501491429,4.011604899811916,-9.477176483630004,350.52282351637,1.4047342178640598,15.465362507509356,-0.7779031246596052,-11.441599272736207,2.0093407449921337,9.217258555450153,32.09689596353093,34.691204448985026,48.8,0.047790316406235434,,9.2950816,62.6487271,20190821,172133,2019-08-21T17:21:33Z,597.745,1.23,1.99,9.18,6,4,10,0.03,0.0,0.01,0,0,0,0,4,4,9.295072743022308,62.64870935151401,120,9972949,114,52,358,1773,3454,3914,3927,0,15670,23,3455,17508,0,false,false,false,false,false,false,false,false,false,false,0,0,0,0,49,63,63,49,944,945,944,945,940,940,940,940,0.0,0.0,0.0,0.0,1728.8,1723.2,1722.0,1728.2,0.0,0.0,0.02,0.0,0,0,0,0,-45.0,9.295081860725627,62.64872635804533,0,497.62543,497.07748,0.07133023,0.033323523,-0.9831105,0.9862579,0.28829375,0.06748757,0.08911216,0.30920678,390,51,1452,1504.0,0.0022843415,0.0010235542,0.0037921425,0.0045438115,0.002503173818346885,0.12310233768682999,-1.8551883580199975,3.4696932690399707,-16.71779249075603,343.28220750924396,-1.501478345251219,13.667337037515097,2.5506093163570047,-11.607198412028069,1.947564155608865,7009417.529024684,19.196458805063152,21.790767290517245,48.76,NONE,0.0,0.0,0.0,NONE,4.220611356090691E-11,4.5776350146938156E-11,0.0,2,12.16,10.02,10.87,10.0,17.387,17.387,6.212,1.2366047,0,3628,4.345,12.0,1.252,100,29.5,OK,59,0,0,0,0,0,65,100,0.0,0,0.0,3.1677634E-4,2.69E-43,0.0,-5.9807744E7,62,1.3351382E-6,-1.3351458E-6,6.9757498E-31,False,False,0,None,4.1462316E34,1.0842106E-19,
245282278,18.224,9.295082481573592,62.6487280574329,10,497.49597,497.47,0.07187065,0.032663334,-0.98392326,0.9870852,0.21927334,0.0488907,0.06552917,0.23401959,393,51,1458,1510.0,0.0046865367,-0.008051242,5.607065E-4,0.009332766,0.009315907018359049,0.11941407034814336,-1.9558310817117364,4.00587176568509,-9.479773493668137,350.5202265063319,1.410971255516592,15.700073667333054,-0.7808235031259119,-11.531581775054082,2.1386776552453846,9.35111747011758,10.55911562527437,13.153424110728462,49.03,0.09008767968748543,,9.2950822,62.6487282,20190821,172134,2019-08-21T17:21:34Z,597.709,1.23,1.99,9.18,6,4,10,0.0,0.0,-0.01,0,0,0,0,4,4,9.295072743022308,62.64870935151401,120,9972949,16,52,359,1773,3454,3914,3927,0,15670,23,1,17508,0,false,false,false,false,false,false,false,false,false,false,0,0,0,0,49,63,63,49,944,945,944,945,940,940,940,940,0.0,0.0,0.0,0.0,1728.2,1723.2,1722.0,1727.5,0.0,0.0,0.02,0.0,0,0,0,0,-45.0,9.295082495044351,62.648727443208145,0,497.42197,497.07825,0.07096232,0.032598358,-0.9834768,0.9865723,0.28994095,-0.0038442626,0.10177907,0.30731013,393,51,1458,1510.0,0.0024226052,-0.0034359505,6.466652E-5,0.0042046346,0.00420413734174915,0.12005533349057798,-1.8708056610462676,3.4694997509218273,-16.68340809676337,343.31659190323666,-1.4891293430930175,13.929243393226454,2.515433042619855,-11.596061591360794,2.072478984996916,7009417.657188682,4.031206808513203,6.625515293967297,49.05,NONE,0.0,0.0,0.0,NONE,-1.5797250082529324E-10,3.9953919644836746E-11,0.0,2,12.16,10.02,10.87,10.0,17.388,17.388,6.214,1.2209171,0,3628,4.345,12.0,1.248,100,29.5,OK,60,0,0,0,0,0,65,100,0.0,0,0.0,2.4214387E-4,2.69E-43,0.0,-5.9807744E7,62,1.3351382E-6,-1.3351458E-6,1.1254716E-30,False,False,0,None,9.598904E34,1.0842106E-19,
249134291,19.226,9.295083058803655,62.648729309276426,10,497.50125,497.46066,0.072057724,0.03297416,-0.98185307,0.98504573,0.45562565,0.101406835,0.04244481,0.46869996,396,51,1452,1505.0,0.01569596,-0.0033529662,0.010052128,0.018938078,0.016050093836510983,0.12607865297567405,-1.944243422134409,4.023443519820695,-9.483311916981059,350.51668808301895,1.4285953042775361,15.997808529891016,-0.7558856921811337,-11.408381754362148,2.2809205686068443,9.494306311564806,21.224390398529405,23.818698883983497,49.32,0.09536722070311043,,9.2950831,62.6487294,20190821,172135,2019-08-21T17:21:35Z,597.646,1.23,1.99,9.17,6,4,10,0.0,0.0,0.0,0,0,0,0,4,4,9.295072743022308,62.64870935151401,120,9972949,18,52,360,1772,3443,3980,4003,2933,15947,23,1,16019,0,false,false,false,false,false,false,false,false,false,false,0,0,0,0,49,63,63,49,944,945,944,944,940,940,940,940,0.0,0.0,0.0,0.0,1728.8,1722.0,1722.6,1728.8,0.0,0.0,0.02,0.0,0,0,0,0,-45.0,9.2950835190244,62.64872896219983,0,497.33743,497.07773,0.07124823,0.03220095,-0.9826173,0.9857231,0.24289097,0.11787191,-0.0942868,0.2859717,396,51,1455,1508.0,1.21006175E-4,6.385392E-4,0.0017559801,0.0018723891,6.499037043233928E-4,0.1759719890722855,-1.8488361347109459,3.4870050975022577,-16.662781870770562,343.3372181292294,-1.5486357666135393,14.237981097037386,2.5247528377264183,-11.445686120017097,2.249028850819235,7009417.837118568,16.841309793797798,19.43561827925189,49.37,NONE,0.0,0.0,0.0,NONE,2.345188892076962E-11,1.1711785489969702E-11,0.0,2,12.16,10.02,10.87,10.0,17.388,17.388,6.213,1.2131718,0,3627,4.345,12.0,1.251,100,29.5,OK,61,0,0,0,0,0,65,100,0.0,0,0.0,1.989752E-4,2.69E-43,0.0,-5.9807744E7,62,1.3351382E-6,-1.3351458E-6,1.865709E-30,False,False,0,None,2.4699918E35,1.0842106E-19,
253010312,20.233,9.295084924856752,62.6487308125061,10,497.28195,497.43097,0.07166804,0.03304074,-0.98277694,0.9859404,0.35061744,0.018950988,-0.1267526,0.37330678,399,51,1455,1509.0,0.021256922,-0.012538849,0.027415667,0.036887642,0.024679535900790295,0.16634096089320816,-1.9390157039283733,4.021907318658258,-9.489930426672316,350.51006957332766,1.3824785383686118,16.336596958930457,-0.7098605446271163,-11.334628306619935,2.466170209502046,9.689206541062804,21.22245926719018,23.816767752644274,49.65,-0.12393209570313957,,9.2950848,62.6487312,20190821,172136,2019-08-21T17:21:36Z,597.56,1.23,1.99,9.16,6,4,10,0.0,0.0,0.01,0,0,0,0,4,4,9.295072743022308,62.64870935151401,120,9976599,48,99,361,3437,3437,4388,4400,179,17611,28,212,17613,0,false,false,false,false,false,false,false,false,false,false,0,0,0,0,48,64,63,50,944,945,944,945,940,940,940,940,0.0,0.0,0.0,0.0,1728.2,1722.6,1722.6,1728.2,0.0,0.0,0.02,0.0,0,0,0,0,-45.0,9.295085188977994,62.64873043676589,0,497.28458,497.07788,0.07006149,0.032632485,-0.9815026,0.98454094,0.2501109,0.073501945,-0.010913448,0.2609159,396,51,1449,1503.0,0.0015661764,-3.337339E-4,-8.93931E-5,0.0016038322,0.0016013390920471783,0.18188004512897274,-1.854754981451337,3.4969698474932205,-16.647847405530424,343.3521525944696,-1.5643495225179918,14.487696254521492,2.517655672089995,-11.4433912128027,2.4292617484140453,7009418.023023974,23.33511693818092,25.929425423635013,49.67,NONE,0.0,0.0,0.0,NONE,-1.9191220847437487E-11,3.526920545064962E-11,0.0,2,12.16,10.02,10.87,10.0,17.387,17.387,6.213,1.2112632,0,3627,4.345,12.0,1.255,100,29.5,OK,62,0,0,0,0,0,65,100,0.0,0,0.0,4.8873946E-5,2.69E-43,0.0,-5.9807744E7,62,1.3351382E-6,-1.3351458E-6,3.6224105E-30,False,False,0,None,7.888032E35,1.0842106E-19,
256875009,21.237,9.295085958259284,62.6487321645543,10,497.28986,497.3862,0.070194624,0.031324893,-0.9826897,0.9856914,0.30941233,0.00396228,0.024359323,0.31039503,390,51,1452,1504.0,0.0071400027,-0.008875377,0.03173857,0.033720747,0.01139087127514484,0.14724958435572685,-1.9346507255152703,4.009104350495856,-9.499395406032535,350.50060459396747,1.3584419827199394,16.634227956009273,-0.6794693142183509,-11.524695776909848,2.625001096951664,9.849995568294606,11.827888598416102,14.422197083870195,49.96,-0.11602804296876457,,9.2950859,62.6487324,20190821,172137,2019-08-21T17:21:37Z,597.524,1.23,1.99,9.14,6,4,10,-0.02,0.01,0.0,0,0,0,0,4,4,9.295072743022308,62.64870935151401,120,9976599,48,99,362,3437,3437,4388,4400,179,17611,28,212,17613,0,false,false,false,false,false,false,false,false,false,false,0,0,0,0,49,64,63,48,944,944,944,944,940,940,940,940,0.0,0.0,0.0,0.0,1727.5,1722.6,1722.6,1727.5,0.0,0.0,0.02,0.0,0,0,0,0,-45.0,9.29508616722973,62.64873167690012,0,497.4405,497.07724,0.07083182,0.03215699,-0.9829597,0.98603296,0.30601016,-0.1633427,0.06091971,0.35218498,393,51,1452,1505.0,-2.6069954E-4,-0.0012097285,-0.0011659428,0.001700244,0.0012375004671590763,0.14479109544237845,-1.8650399236055837,3.4893348652062026,-16.666585246396746,343.3334147536033,-1.5886686388017113,14.790627293785466,2.531407385274602,-11.553890724155677,2.575460659185619,7009418.173703134,21.277991227248506,23.8722997127026,49.93,NONE,0.0,0.0,0.0,NONE,-8.739835240758474E-11,3.4733809547133357E-11,0.0,2,12.16,10.02,10.87,10.0,17.386,17.386,6.211,1.2133316,0,3627,4.344,12.0,1.248,100,29.5,OK,63,0,0,0,0,0,65,100,0.0,0,0.0,2.4580397E-5,2.69E-43,0.0,-5.9807744E7,62,1.3351382E-6,-1.3351458E-6,7.06725E-30,False,False,0,None,2.5234968E36,1.0842106E-19,
260788487,22.254,9.295087192204024,62.64873351156735,11,497.61487,497.39316,0.07082939,0.03200998,-0.9816827,0.984755,0.4091644,0.05552684,-0.05880834,0.4170817,399,51,1452,1506.0,0.008290016,-0.0029766648,0.011028049,0.014113921,0.008808228916423081,0.15096681119185035,-1.882038135650549,4.012803834440086,-9.521717674338884,350.4782823256611,1.3073387150573672,17.0208454524381,-0.6576491690543872,-11.173851446466912,2.7860469253150915,10.014234803782546,26.62281456284045,29.217123048294543,50.26,0.20898416406248543,,9.2950869,62.6487337,20190821,172138,2019-08-21T17:21:38Z,597.498,1.07,1.79,9.12,6,5,11,0.01,0.0,0.01,0,0,0,0,4,4,9.295072743022308,62.64870935151401,120,9976599,48,99,363,3437,3437,4388,4400,179,17611,28,212,17613,0,false,false,false,false,false,false,false,false,false,false,0,0,0,0,49,64,64,49,944,945,944,945,940,940,940,940,0.0,0.0,0.0,0.0,1728.8,1722.6,1722.0,1728.2,0.0,0.0,0.02,0.0,0,0,0,0,-45.0,9.295087320165761,62.64873293761578,0,497.28195,497.07715,0.071552195,0.03160635,-0.9820321,0.98514247,0.41147423,0.12326397,0.0759117,0.43619677,399,51,1452,1506.0,-1.1459312E-4,5.695345E-4,0.0018363367,0.0019260409,5.809484417421412E-4,0.148919918581385,-1.8521184454882471,3.500958868961041,-16.680138330175037,343.31986166982495,-1.594109046937083,15.091124382707536,2.522427369906896,-11.371813246923399,2.7263382493020893,7009418.3268334875,21.17637098767292,23.770679473127014,50.24,NONE,0.0,0.0,0.0,NONE,1.3655993219105993E-11,-2.0278120024238922E-11,0.0,2,12.16,10.02,10.87,10.0,17.387,17.387,6.213,1.2176238,0,3626,4.345,12.0,1.25,100,29.5,OK,64,0,0,0,0,0,65,100,0.0,0,0.0,1.2909528E-5,2.69E-43,0.0,-5.9807744E7,62,1.3351382E-6,-1.3351458E-6,1.21052905E-29,False,False,0,None,6.935286E36,1.0842106E-19,
264703187,23.272,9.295087833243183,62.64873451726505,11,497.54617,497.38626,0.06969872,0.032321054,-0.9836096,0.9866055,0.25456545,0.10458411,-0.006835325,0.27529645,399,51,1455,1509.0,0.018452048,-0.007804934,0.005865538,0.020875813,0.020034846692902186,0.09449605452242264,-1.895576747548285,4.012412797596919,-9.542772193166412,350.4572278068336,1.3069096610352346,17.329375865040742,-0.6233078986648063,-11.218270463545627,2.902556501868763,10.133047782732186,17.341382256161932,19.935690741616025,50.59,0.14028909570311043,,9.2950875,62.6487347,20190821,172139,2019-08-21T17:21:39Z,597.487,1.07,1.79,9.09,6,5,11,0.0,0.02,0.0,0,0,0,0,4,4,9.295072743022308,62.64870935151401,120,9976599,48,99,364,3437,3437,4388,4400,179,17611,28,212,17613,0,false,false,false,false,false,false,false,false,false,false,0,0,0,0,49,64,63,49,944,945,944,944,940,940,940,940,0.0,0.0,0.0,0.0,1728.2,1722.0,1723.2,1727.5,0.0,0.0,0.02,0.0,0,0,0,0,-45.0,9.295087938825473,62.64873393987619,0,497.43784,497.07764,0.070211224,0.032593314,-0.9835574,0.98659873,0.28244722,-0.03330269,0.022433257,0.28528714,399,51,1455,1509.0,0.0013472461,0.0012045453,-6.483758E-4,0.0019199981,0.0018072081744453644,0.11205149316066156,-1.8468191354886057,3.4843284774185173,-16.718844109282053,343.28115589071797,-1.6379891503510773,15.37604549395585,2.5200581321216853,-11.372819861335442,2.842179566157521,7009418.449248858,17.655063075797983,20.249371561252076,50.6,NONE,0.0,0.0,0.0,NONE,-1.1725946503569553E-11,1.4857236452194378E-11,0.0,2,12.16,10.02,10.87,10.0,17.385,17.385,6.211,1.2229573,0,3626,4.344,12.0,1.251,100,29.5,OK,65,0,0,0,0,0,65,100,0.0,0,0.0,1.3027806E-5,2.69E-43,0.0,-5.9807744E7,62,1.3351382E-6,-1.3351458E-6,1.9215874E-29,False,False,0,None,1.4554008E37,1.0842106E-19,
268718418,24.315,9.295087715119795,62.64873553682081,11,497.58582,497.3727,0.07050645,0.032674976,-0.98388654,0.98695064,0.2976899,-0.061246533,-0.12855634,0.3299957,396,51,1455,1508.0,0.037540793,-0.009575991,0.00784587,0.03952934,0.03874288124646823,0.07005013776644141,-1.9025485644732738,3.982254309425917,-9.56267241637972,350.4373275836203,1.2368587354577638,17.62934815981662,-0.6219447033523066,-11.320375627186714,3.0104655584533675,10.257105435109818,-6.905338394453883,-4.31102990899979,50.88,0.17993142968748543,,9.2950876,62.6487358,20190821,172140,2019-08-21T17:21:40Z,597.489,1.07,1.79,9.07,6,5,11,-0.01,-0.01,0.0,0,0,0,0,4,4,9.295072743022308,62.64870935151401,120,9976600,19,100,365,3437,3437,4381,4393,58,17542,28,1,17120,0,false,false,false,false,false,false,false,false,false,false,0,0,0,0,49,63,64,49,944,945,944,944,940,940,940,940,0.0,0.0,0.0,0.0,1728.2,1722.6,1722.0,1727.5,0.0,0.0,0.02,0.0,0,0,0,0,-45.0,9.295087618609415,62.648735137439296,0,497.72586,497.07776,0.07016847,0.03233003,-0.9835183,0.98654807,0.40874588,-0.03967351,0.16140983,0.4412486,399,51,1452,1506.0,0.0014766833,-7.6537306E-4,4.8682843E-5,0.001663959,0.0016632466956984842,0.12690295585280997,-1.8562621720946515,3.4839102730974223,-16.715959726898507,343.2840402731015,-1.6616096682597286,15.705737134550759,2.5362257167045255,-11.393331445622064,2.966268125048474,7009418.60542224,-11.75554927707859,-9.161240791624497,50.89,NONE,0.0,0.0,0.0,NONE,-7.093833778562768E-11,1.5593405826548592E-10,0.0,2,12.16,10.02,10.87,10.0,17.384,17.384,6.212,1.2286507,0,3626,4.344,12.0,1.253,100,29.5,OK,66,0,0,0,0,0,65,100,0.0,0,0.0,5.433988E-5,2.69E-43,0.0,-5.9807744E7,62,1.3351382E-6,-1.3351458E-6,2.833063E-29,False,False,0,None,3.0308086E37,1.0842106E-19,
272617840,25.329,9.295088594948401,62.64873653070252,11,497.27402,497.3698,0.07054685,0.032780323,-0.9848266,0.9878942,0.1870995,0.009133014,-0.03677163,0.19089733,399,51,1455,1509.0,0.003534124,-0.011491708,0.0035996903,0.012550185,0.012022869189549543,0.10570037105744506,-1.8921956179900152,3.980454690289359,-9.572590877125238,350.42740912287474,1.210109685886423,17.912477329131846,-0.6160844029761128,-11.226162996647812,3.128811806469121,10.39326050805036,30.33499441942901,32.9293029048831,51.16,-0.13186666601563957,,9.2950885,62.6487367,20190821,172141,2019-08-21T17:21:41Z,597.528,1.07,1.79,9.03,6,5,11,0.0,0.0,0.01,0,0,0,0,4,4,9.295072743022308,62.64870935151401,120,9976601,114,100,366,3437,3437,4380,4393,0,17518,28,3454,697,0,false,false,false,false,false,false,false,false,false,false,0,0,0,0,49,64,65,49,944,945,944,945,940,940,940,940,0.0,0.0,0.0,0.0,1727.5,1722.0,1722.6,1728.8,0.0,0.0,0.02,0.0,0,0,0,0,-45.0,9.295088669582732,62.648735965070216,0,497.36914,497.07812,0.07033377,0.03250387,-0.982681,0.98573077,0.29469237,0.08736696,-0.1334874,0.33510515,399,51,1452,1506.0,8.416578E-4,-0.0014639512,0.001143003,0.0020391168,0.0016886506483596352,0.10344412575124692,-1.8719041424355611,3.483691324683461,-16.71307620091438,343.2869237990856,-1.720047944703033,15.925277759134579,2.543680240081211,-11.438287831900979,3.069111554610565,7009418.730628551,36.26048182810254,38.854790313556634,51.19,NONE,0.0,0.0,0.0,NONE,-1.536754585375533E-11,-6.558599875230256E-12,0.0,2,12.16,10.02,10.87,10.0,17.384,17.384,6.211,1.2341377,0,3625,4.344,12.0,1.249,100,29.5,OK,67,0,0,0,0,0,65,100,0.0,0,0.0,3.3057295E-5,2.69E-43,0.0,-1.05007105E-23,62,1.3351382E-6,-1.3351458E-6,4.110802E-29,False,False,0,None,5.5996325E37,1.0842106E-19,
276532483,26.346,9.295089661568765,62.64873785904709,11,497.42462,497.3342,0.07069711,0.032513402,-0.9821016,0.98517954,0.45128357,0.037191115,0.048843026,0.4554401,402,54,1452,1507.0,0.018358726,-0.007207486,0.010726791,0.022451162,0.019722846656136335,0.13502100493560568,-1.899086371554289,3.9994041356359475,-9.593427757478738,350.40657224252124,1.155549492027233,18.229113398765694,-0.5766932931981366,-11.492624361113325,3.2856192491421905,10.554094530526966,20.736992201934363,23.331300687388456,51.5,0.018737582031235434,,9.2950894,62.6487379,20190821,172142,2019-08-21T17:21:42Z,597.524,1.07,1.79,8.99,6,5,11,0.02,0.02,0.0,0,0,0,0,4,4,9.295072743022308,62.64870935151401,120,10095729,16,100,367,3405,3432,4324,4337,-1420,17368,23,0,17424,0,false,false,false,false,false,false,false,false,false,false,0,0,0,0,50,65,63,49,944,945,944,945,940,940,940,940,0.0,0.0,0.0,0.0,1728.2,1721.4,1722.0,1727.5,0.0,0.0,0.02,0.0,0,0,0,0,-45.0,9.29508971564409,62.64873726879477,0,497.00714,497.07758,0.07053677,0.03254749,-0.9837617,0.98682415,0.38381934,0.02415888,0.0733891,0.3915187,399,51,1452,1506.0,4.4054605E-4,9.981814E-4,-8.8614115E-4,0.0014055935,0.0010910760456866785,0.15077097450643598,-1.8638188170456587,3.4876572367693592,-16.708958019281653,343.2910419807183,-1.7946942945906923,16.20511175464327,2.583204555163121,-11.41286568165824,3.223086288717658,7009418.889816747,-14.261133382408381,-11.666824896954289,51.49,NONE,0.0,0.0,0.0,NONE,4.1259313432248624E-11,-1.2849501795939145E-11,0.0,2,12.16,10.02,10.87,10.0,17.384,17.384,6.21,1.2393728,0,3625,4.344,12.0,1.271,100,29.5,OK,68,0,0,0,0,0,65,100,0.0,0,0.0,1.6652979E-5,2.69E-43,0.0,-1.05007105E-23,62,1.3351382E-6,-1.3351458E-6,7.534278E-29,False,False,0,None,1.5634785E38,1.0842106E-19,
280476062,27.371,9.29509046123922,62.64873877466578,11,497.27402,497.30493,0.06968427,0.032256246,-0.9854261,0.9884134,0.2545574,0.0020434957,-0.07544718,0.26551068,399,51,1455,1509.0,0.035230562,-0.010099014,0.005440994,0.03705114,0.03664945457903705,0.07038624918631556,-1.9071580415609215,3.9839094550292424,-9.598461414461182,350.40153858553884,1.1135568959252653,18.518652913893135,-0.5163030732055615,-11.266224362145364,3.394616014400466,10.688495911893046,135.12375533192295,137.71806381737704,51.79,-0.13186666601563957,,9.2950903,62.6487389,20190821,172143,2019-08-21T17:21:43Z,597.518,1.07,1.79,8.96,6,5,11,0.01,0.01,0.02,0,0,0,0,4,4,9.295072743022308,62.64870935151401,120,10095729,20,100,368,3405,3432,4324,4337,-1420,17368,23,2,17424,0,false,false,false,false,false,false,false,false,false,false,0,0,0,0,48,64,62,49,943,945,944,945,940,940,940,940,0.0,0.0,0.0,0.0,1726.3,1723.2,1723.2,1728.2,0.0,0.0,0.02,0.0,0,0,0,0,-45.0,9.295090644993843,62.6487382173888,0,497.2423,497.0776,0.070503466,0.03191945,-0.98518497,0.9882201,0.28750145,0.12601644,0.007416445,0.313994,399,51,1458,1512.0,6.687826E-5,-3.4231623E-4,-0.0014712614,0.0015120395,3.487880471209487E-4,0.1125108479519695,-1.8760943916498833,3.4892215855200295,-16.682143529072807,343.3178564709272,-1.8180202721077066,16.44520236961432,2.6271553141536326,-11.460999837412436,3.3374945067113324,7009419.029588112,24.674098514282207,27.2684069997363,51.77,NONE,0.0,0.0,0.0,NONE,-8.426659684669017E-11,-7.160920272037857E-12,0.0,2,12.16,10.02,10.87,10.0,17.383,17.383,6.21,1.2448492,0,3625,4.344,12.0,1.272,100,29.5,OK,69,0,0,0,0,0,65,100,0.0,0,0.0,1.2750737E-5,2.69E-43,0.0,-1.05007105E-23,62,1.3351382E-6,-1.3351458E-6,1.0829662E-28,False,False,0,None,3.1640819E38,1.0842106E-19,
284421502,28.397,9.29509136803503,62.648739764499176,11,497.06528,497.27856,0.07115718,0.03192813,-0.98500687,0.98808974,0.41770992,0.009907693,-3.3738065E-4,0.41782755,399,51,1455,1509.0,0.007626612,0.0016560042,4.846556E-5,0.0078044804,0.007804329658548444,0.10865390725005683,-1.8968190502381999,4.007923755462694,-9.606230505811622,350.3937694941884,1.0701845107717896,18.787446526431854,-0.5045101196225792,-11.224186002859836,3.513081689151139,10.811682377309461,15.468908497414333,18.063216982868425,52.1,-0.34060690039063957,,9.2950911,62.6487397,20190821,172144,2019-08-21T17:21:44Z,597.524,1.07,1.79,8.93,6,5,11,0.0,0.0,0.0,0,0,0,0,4,4,9.295072743022308,62.64870935151401,120,10095730,114,100,369,3404,3432,4269,4293,-2891,17416,23,3437,17027,0,false,false,false,false,false,false,false,false,false,false,0,0,0,0,50,64,65,49,944,945,944,945,940,940,940,940,0.0,0.0,0.0,0.0,1727.5,1722.6,1722.6,1727.5,0.0,0.0,0.02,0.0,0,0,0,0,-45.0,9.295091377000809,62.648739060520406,0,497.0362,497.0774,0.07060831,0.0320849,-0.985387,0.98843443,0.32458466,0.013937284,-0.05226282,0.32906058,399,51,1452,1506.0,-7.08468E-4,-0.0010429713,-0.0013215331,0.0018265174,0.0012608394112829343,0.0971740346114371,-1.876751254595186,3.469007646558353,-16.709456672219908,343.2905433277801,-1.8102409764931295,16.73756506467286,2.597132576112374,-11.460542170594536,3.437920917669948,7009419.145278854,-160.52163654555108,-157.92732806009698,52.12,NONE,0.0,0.0,0.0,NONE,7.844004138346588E-11,-1.2381030377835643E-11,0.0,2,12.16,10.02,10.87,10.0,17.383,17.383,6.212,1.2503216,0,3624,4.344,12.0,1.262,100,29.5,OK,70,0,0,0,0,0,65,100,0.0,0,0.0,9.006588E-6,2.69E-43,0.0,-1.05007105E-23,62,1.3351382E-6,-1.3351458E-6,1.7071216E-28,False,False,0,None,NaN,1.0842106E-19,
288280720,29.400,9.295091658349056,62.64874035781949,11,497.4167,497.31345,0.069599465,0.03286682,-0.9853212,0.9883229,0.18090941,-0.07991606,-0.0047082547,0.19783063,399,51,1449,1503.0,0.0039934185,0.0019515062,-0.016373144,0.016965719,0.004444746047359985,0.0629742212138638,-1.8854569209820788,4.0049767177943885,-9.61832109018223,350.38167890981777,1.030127997538547,19.07737314927844,-0.5082916025707224,-11.181310045416213,3.580608811489222,10.891999978131759,-29.91160031760082,-27.317291832146726,52.4,0.010803011718735434,,9.2950912,62.6487405,20190821,172145,2019-08-21T17:21:45Z,597.494,1.07,1.79,8.9,6,5,11,-0.01,-0.01,-0.01,0,0,0,0,4,4,9.295072743022308,62.64870935151401,120,10096069,48,96,370,3278,3432,4297,4307,-1126,17203,26,212,17203,0,false,false,false,false,false,false,false,false,false,false,0,0,0,0,50,63,64,49,943,944,944,944,940,940,940,940,0.0,0.0,0.0,0.0,1728.2,1722.6,1722.0,1727.5,0.0,0.0,0.02,0.0,0,0,0,0,-45.0,9.29509157392227,62.64873982873178,0,497.31894,497.07797,0.07042716,0.032606483,-0.9845819,0.9876359,0.1596615,0.04028486,-0.113420814,0.19994736,399,51,1452,1506.0,7.698884E-4,-4.655289E-4,7.778956E-4,0.0011893556,8.996917707509869E-4,0.08485518499684948,-1.8610617548025614,3.4643290564475824,-16.714669308508732,343.28533069149125,-1.847443912249795,16.970093060555456,2.6037830024023023,-11.418205154580326,3.5228154627221797,7009419.262383339,7.50869915745874,10.103007642912834,52.42,NONE,0.0,0.0,0.0,NONE,-4.3662772588690346E-11,5.92950968320144E-11,0.0,2,12.16,10.02,10.87,10.0,17.382,17.382,6.211,1.2547696,0,3624,4.344,12.0,1.252,100,29.5,OK,71,0,0,0,0,0,65,100,0.0,0,0.0,1.2658304E-5,2.69E-43,0.0,-1.05007105E-23,62,1.3351382E-6,-1.3351458E-6,2.050623E-28,False,False,0,None,-3.057835E-39,1.0842106E-19,
292142223,30.403,9.295091630235206,62.648740938747345,11,497.27402,497.3272,0.07040291,0.032237254,-0.98364764,0.9866907,0.3659216,0.06057981,-0.009407438,0.3710216,399,51,1452,1506.0,0.010419262,-0.004249838,-0.017117957,0.020485276,0.011252650222570588,0.053128588311195935,-1.919691889180508,3.9987088986295793,-9.622558034077507,350.3774419659225,1.0241910125072078,19.29156015313065,-0.5314385559896108,-11.286767945340214,3.642469054413878,10.974885747503409,4.7266219482102585,7.320930433664352,52.66,-0.13186666601563957,,9.2950914,62.6487412,20190821,172146,2019-08-21T17:21:46Z,597.512,1.07,1.79,8.88,6,5,11,0.0,-0.01,0.01,0,0,0,0,4,4,9.295072743022308,62.64870935151401,120,10096069,17,96,371,3278,3432,4297,4307,-1126,17203,26,0,17203,0,false,false,false,false,false,false,false,false,false,false,0,0,0,0,49,64,64,49,944,944,943,944,940,940,940,940,0.0,0.0,0.0,0.0,1727.5,1722.6,1722.6,1727.5,0.0,0.0,0.02,0.0,0,0,0,0,-45.0,9.295091715520334,62.648740409184825,0,497.25815,497.07776,0.070719555,0.031264894,-0.9854892,0.98851794,0.16012372,0.053792525,0.064752996,0.18090382,399,51,1455,1509.0,4.433105E-4,-0.0027495122,-9.286677E-4,0.0029357735,0.0027850209697098272,0.06193037771628626,-1.8901444817137565,3.4488143030709115,-16.71550468959465,343.28449531040536,-1.9065412076235262,17.220495146457782,2.648324085795086,-11.517548620406439,3.58689692614928,7009419.351167529,0.13875509643076311,2.7330635818848568,52.68,NONE,0.0,0.0,0.0,NONE,1.6929794216941405E-10,6.384596205071086E-11,0.0,2,12.16,10.02,10.87,10.0,17.382,17.382,6.209,1.2576807,0,3623,4.344,12.0,1.256,100,29.4,OK,72,0,0,0,0,0,65,100,0.0,0,0.0,1.9105151E-5,2.69E-43,0.0,-1.05007105E-23,62,1.3351382E-6,-1.3351458E-6,2.8039852E-28,False,False,0,None,-6.91923E-39,1.0842106E-19,
