Tick#,offsetTime,IMU_ATTI(0):Longitude,IMU_ATTI(0):Latitude,IMU_ATTI(0):numSats,IMU_ATTI(0):barometer:Raw,IMU_ATTI(0):barometer:Smooth,IMU_ATTI(0):accel:X,IMU_ATTI(0):accel:Y,IMU_ATTI(0):accel:Z,IMU_ATTI(0):accel:Composite,IMU_ATTI(0):gyro:X,IMU_ATTI(0):gyro:Y,IMU_ATTI(0):gyro:Z,IMU_ATTI(0):gyro:Composite,IMU_ATTI(0):mag:X,IMU_ATTI(0):mag:Y,IMU_ATTI(0):mag:Z,IMU_ATTI(0):mag:Mod,IMU_ATTI(0):velN,IMU_ATTI(0):velE,IMU_ATTI(0):velD,IMU_ATTI(0):velComposite,IMU_ATTI(0):velH,IMU_ATTI(0):GPS-H,IMU_ATTI(0):roll,IMU_ATTI(0):pitch,IMU_ATTI(0):yaw,IMU_ATTI(0):yaw360,IMU_ATTI(0):totalGyro:Z,IMU_ATTI(0):totalGyro:X,IMU_ATTI(0):totalGyro:Y,IMU_ATTI(0):magYaw,IMU_ATTI(0):distanceHP,IMU_ATTI(0):distanceTravelled,IMU_ATTI(0):directionOfTravel[mag],IMU_ATTI(0):directionOfTravel[true],IMU_ATTI(0):temperature,General:relativeHeight,General:absoluteHeight,GPS(0):Long,GPS(0):Lat,GPS(0):Date,GPS(0):Time,GPS:dateTimeStamp,GPS(0):heightMSL,GPS(0):hDOP,GPS(0):pDOP,GPS(0):sAcc,GPS(0):numGPS,GPS(0):numGLNAS,GPS(0):numSV,GPS(0):velN,GPS(0):velE,GPS(0):velD,RC:Aileron,RC:Elevator,RC:Rudder,RC:Throttle,Controller:navHealth,Controller:ctrl_level,HP:Longitude,HP:Latitude,HP:rthHeight,OA:avoidObst,OA:emergBrake,OA:radiusLimit,OA:airportLimit,OA:groundForceLanding,OA:horizNearBoundary,OA:vertLowLimit,OA:vertAirportLimit,OA:roofLimit,OA:hitGroundLimit,Motor:Speed:RFront,Motor:Speed:LFront,Motor:Speed:LBack,Motor:Speed:RBack,Motor:EscTemp:RFront,Motor:EscTemp:LFront,Motor:EscTemp:LBack,Motor:EscTemp:RBack,Motor:PPMrecv:RFront,Motor:PPMrecv:LFront,Motor:PPMrecv:LBack,Motor:PPMrecv:RBack,Motor:PPMsend:RFront,Motor:PPMsend:LFront,Motor:PPMsend:LBack,Motor:PPMsend:RBack,Motor:V_out:RFront,Motor:V_out:LFront,Motor:V_out:LBack,Motor:V_out:RBack,Motor:Volts:RFront,Motor:Volts:LFront,Motor:Volts:LBack,Motor:Volts:RBack,Motor:Current:RFront,Motor:Current:LFront,Motor:Current:LBack,Motor:Current:RBack,Motor:Status:RFront,Motor:Status:LFront,Motor:Status:LBack,Motor:Status:RBack,Motor:thrustAngle,IMU_ATTI(1):Longitude,IMU_ATTI(1):Latitude,IMU_ATTI(1):numSats,IMU_ATTI(1):barometer:Raw,IMU_ATTI(1):barometer:Smooth,IMU_ATTI(1):accel:X,IMU_ATTI(1):accel:Y,IMU_ATTI(1):accel:Z,IMU_ATTI(1):accel:Composite,IMU_ATTI(1):gyro:X,IMU_ATTI(1):gyro:Y,IMU_ATTI(1):gyro:Z,IMU_ATTI(1):gyro:Composite,IMU_ATTI(1):mag:X,IMU_ATTI(1):mag:Y,IMU_ATTI(1):mag:Z,IMU_ATTI(1):mag:Mod,IMU_ATTI(1):velN,IMU_ATTI(1):velE,IMU_ATTI(1):velD,IMU_ATTI(1):velComposite,IMU_ATTI(1):velH,IMU_ATTI(1):GPS-H,IMU_ATTI(1):roll,IMU_ATTI(1):pitch,IMU_ATTI(1):yaw,IMU_ATTI(1):yaw360,IMU_ATTI(1):totalGyro:Z,IMU_ATTI(1):totalGyro:X,IMU_ATTI(1):totalGyro:Y,IMU_ATTI(1):magYaw,IMU_ATTI(1):distanceHP,IMU_ATTI(1):distanceTravelled,IMU_ATTI(1):directionOfTravel[mag],IMU_ATTI(1):directionOfTravel[true],IMU_ATTI(1):temperature,IMUEX(0):err,IMUEX(0):rtk_Longitude,IMUEX(0):rtk_Latitude,IMUEX(0):rtk_Alti,IMUEX(1):err,IMUEX(1):rtk_Longitude,IMUEX(1):rtk_Latitude,IMUEX(1):rtk_Alti,BattInfo:Voltage,BattInfo:BatVoltage,BattInfo:AdVoltage,BattInfo:AvgCurrent,BattInfo:R_time,BattInfo:R_CAP_MAH,BattInfo:LowCellVoltage,BattInfo:LowCellVolThreshold,BattInfo:BatCurrent,BattInfo:Remaining%,BattInfo:Temp,BattInfo:status,battery_info:BatDynCnt,battery_info:Vol1Protect,battery_info:Vol2Protect,battery_info:Cap1Protect,battery_info:Cap2Protect,battery_info:Batpresent,battery_info:sopPercentage,battery_info:sopValue,battery_info:sopScale,battery_info:sopFlg,BattInfo:WindHeading:WindDir,battery_info:home_dir,BattInfo:Wind:rangeMin,BattInfo:Wind:rangeMax,battery_info:cap_speed,battery_info:against_wind,battery_info:emergency_land_cap,battery_info:intel_bat_land_cap,battery_info:intel_bat_gh_cap,BattInfo:Smart:SmartGh,BattInfo:Smart:SmartLand,BattInfo:GoHome:CntDown,BattInfo:GoHome:GhCmd,BattInfo:GoHome:CapLevel,BattInfo:GoHome:LandCapLv,Attribute|Value,ConvertDatV3,3.6.6-Tablet
7759891,2.017,,,,,,,,,,,,,,,,,,,,,,,,,,,,,,,,,,,,,,,,,,,,,,,,,,,,,,,,,,,,,,,,,,,,,,,,,,,,,,,,,,,,,,,,,,,,,,,,,,,,,,,,,,,,,,,,,,,,,,,,,,,,,,,,,,,,,,,,,,,,,,,,,,,,,,,,,,,,,,,,,OK,,,,,,,,,,,,,,,,,,,,,,,,,,Firmware Date| Oct 17 2018
1931862834,502.082,,,,,,,,,,,,,,,,,,,,,,,,,,,,,,,,,,,,,,,,,,,,,,,,,,,,,,,,,,,,,,,,,,,,,,,,,,,,,,,,,,,,,,,,,,,,,,,,,,,,,,,,,,,,,,,,,,,,,,,,,,,,,,,,,,,,,,,,,,,,,,,,,,,,,,,,,,,,,,,,,OK,,,,,,,,,,,,,,,,,,,,,,,,,,ACType|MavicEnterprise
1935785771,503.102,,,4,89.33419,89.42653,0.06083629,-0.0060873013,-0.9981354,1.0000062,0.25523663,-0.20452799,-0.29670927,0.4416037,507,-202,1425,1525.0,0.0034450213,-0.0018994132,-0.0030301944,0.0049656844,0.003933947360665202,-0.003933947360665202,0.3736181991471001,3.513107915342121,20.687008524230045,20.687008524230066,-0.08001950949622072,0.25133660628589627,-0.07017654333192196,19.602473457393,,0.0,,,64.99,,,10.4408357,63.4120306,20190820,195640,2019-08-20T19:56:40Z,123.251,1.63,6.2,78.67,3,1,4,-0.01,-0.03,0.0,0,0,0,0,0,0,,,,false,false,false,false,false,false,false,false,false,false,0,0,0,0,55,73,72,55,944,944,944,945,940,940,940,940,0.0,0.0,0.0,0.0,1687.0,1682.8,1682.1,1686.4,0.0,0.0,0.0,0.0,0,0,0,0,-45.0,-1.73640898312214E-11,2.94094353119547E-12,0,89.03297,90.63979,0.06289079,-0.0066144825,-0.9963047,0.9983096,0.23930793,-0.11325614,-0.10296912,0.2840737,507,-199,1431,1531.0,1.6891008E-4,-7.473196E-4,9.849091E-4,0.0012478234,7.661704847671829E-4,-7.661704847671829E-4,0.35384769337622207,3.4775552936315446,20.161751521899255,20.161751521899248,-0.1782739724967021,0.27097406521262185,-0.10615242753067217,19.320765314093148,,2.5705084535831408E-5,,,65.0,NONE,0.0,0.0,0.0,NONE,-1.3348364642832077E-11,-4.553769617267937E-12,0.0,16.977,16.977,6.057,1.4081228,0,3085,4.241,12.0,1.414,90,29.6,OK,483,0,0,0,0,0,65,100,0.0,0,0.0,589232.0,2.69E-43,0.0,-1.05007105E-23,62,1.0914047E-12,-1.091412E-12,9.4E-44,False,False,0,None,0.0,1.0842022E-19,dateTime|2019-8-20 19:56:40 GMT
1939635358,504.103,0.0,0.0,4,89.117516,89.47817,0.06113534,-0.006562417,-0.99612147,0.9980173,0.33547297,-0.26355228,-0.11103331,0.44082913,513,-202,1428,1530.0,0.002666857,-0.0024555034,-0.018788679,0.019135205,0.003625137740826863,-0.003625137740826863,0.3779836622183452,3.5241392345642106,20.68908376755279,20.689083767552802,-0.21356560636581318,0.564360300177133,-0.16237584264481386,19.418698056919688,,0.0,,,65.0,,,10.4408361,63.4120309,20190820,195641,2019-08-20T19:56:41Z,123.254,7.56,7.62,78.23,2,1,3,0.08,-0.05,0.0,0,0,0,0,0,0,,,,false,false,false,false,false,false,false,false,false,false,0,0,0,0,55,72,72,56,945,946,944,945,940,940,940,940,0.0,0.0,0.0,0.0,1685.2,1681.5,1681.5,1685.8,0.0,0.0,0.0,0.0,0,0,0,0,-45.0,-7.328959908085872E-12,-3.5944139156108374E-11,0,89.38704,90.6401,0.060735222,-0.0068333773,-0.99580246,0.9976763,0.32859266,-0.005365824,-0.15792418,0.3646121,507,-202,1428,1528.0,-0.0016153292,-3.283216E-4,-4.839141E-4,0.0017179222,0.0016483578462312305,-0.0016438945467139115,0.3519303614410406,3.4994568344261148,20.1685423081913,20.16854230819132,-0.3322671757695481,0.575947296408978,-0.2101150065889588,19.562217077608086,,4.72618411136171E-5,,,64.99,NONE,0.0,0.0,0.0,NONE,2.2823750578158916E-13,-2.706405310538869E-11,0.0,16.978,16.978,6.058,1.4082963,0,3085,4.241,12.0,1.415,90,29.6,OK,484,0,0,0,0,0,65,100,0.0,0,0.0,589232.0,2.69E-43,0.0,-1.05007105E-23,62,1.0914047E-12,-1.091412E-12,9.4E-44,False,False,0,None,0.0,1.0842022E-19,
1943541392,505.118,0.0,0.0,3,89.44781,89.4424,0.061686333,-0.006304121,-0.9968869,0.9988135,0.4034259,-0.081357956,-0.074304305,0.41820174,504,-202,1431,1530.0,0.0010852782,-0.0022694552,0.013786227,0.014013861,0.0025156025022812565,-0.0025156025022812565,0.37652183993419697,3.5160719117173946,20.689473805160066,20.68947380516005,-0.32056511470509735,0.841744805273524,-0.2588516010368921,19.690354769670062,,0.0,,,64.98,,,10.4408362,63.4120315,20190820,195642,2019-08-20T19:56:42Z,123.206,7.56,7.62,78.42,2,1,3,0.05,-0.05,0.0,0,0,0,0,0,0,,,,false,false,false,false,false,false,false,false,false,false,0,0,0,0,55,72,72,55,944,945,944,946,940,940,940,940,0.0,0.0,0.0,0.0,1686.4,1682.1,1681.5,1685.8,0.0,0.0,0.0,0.0,0,0,0,0,-45.0,-1.4239353668042324E-11,1.9474698517074687E-12,0,89.15187,90.64038,0.061673198,-0.007499652,-0.9977494,0.9996818,0.3033243,-0.0070695025,-0.064617135,0.3102112,504,-202,1434,1533.0,9.996723E-5,-6.470032E-4,-0.0014456022,0.001586938,6.546805090293878E-4,-6.504616213001983E-4,0.3540583804178302,3.4859546608865006,20.167621708737826,20.16762170873784,-0.4554117073918545,0.9020002886156304,-0.3273573193499544,19.660535678289158,,6.537349647329237E-5,,,64.97,NONE,0.0,0.0,0.0,NONE,-5.852187427950445E-11,5.260181691283347E-13,0.0,16.976,16.976,6.057,1.4089662,0,3085,4.241,12.0,1.417,90,29.6,OK,485,0,0,0,0,0,65,100,0.0,0,0.0,589232.0,2.69E-43,0.0,-1.05007105E-23,62,1.0914047E-12,-1.091412E-12,9.4E-44,False,False,0,None,0.0,1.0842022E-19,
1947688642,506.196,0.0,0.0,3,89.17829,89.4385,0.060485207,-0.006598969,-0.99608475,0.99794126,0.45696515,-0.08724465,-0.2463935,0.5264395,504,-202,1428,1527.0,2.3295401E-4,-0.002747674,-0.0026646345,0.0038346131,0.0027575315167829013,-0.0027575315167829013,0.37172578627965513,3.513336053924201,20.68981191952502,20.689811919525027,-0.41821613605723257,1.1682371864697763,-0.4017393879235827,19.686064256174074,,0.0,,,64.98,,,10.4408363,63.4120316,20190820,195643,2019-08-20T19:56:43Z,123.296,7.56,7.62,78.73,2,1,3,0.04,0.0,0.0,0,0,0,0,0,0,,,,false,false,false,false,false,false,false,false,false,false,0,0,0,0,56,71,71,55,944,945,944,945,940,940,940,940,0.0,0.0,0.0,0.0,1687.0,1681.5,1682.1,1685.8,0.0,0.0,0.0,0.0,0,0,0,0,-45.0,-3.523119107156544E-11,1.2149660216668315E-11,0,89.25492,90.64,0.061015222,-0.0062385653,-0.99650985,0.9983955,0.35922858,-0.11590036,-0.30573222,0.48574713,504,-202,1422,1522.0,5.344086E-4,-0.0015495904,1.4315487E-4,0.0016453924,0.0016391530988637615,-0.0016367452935913405,0.34531761534779065,3.4827904347411294,20.16969668513656,20.169696685136557,-0.5377041189208908,1.1715552387737334,-0.4232828344373129,19.66023077063871,,7.60293105894173E-5,,,64.99,NONE,0.0,0.0,0.0,NONE,-3.433706476021655E-11,1.3150454228318478E-11,0.0,16.976,16.976,6.056,1.4098402,0,3084,4.24,12.0,1.409,90,29.7,OK,486,0,0,0,0,0,65,100,0.0,0,0.0,589232.0,2.69E-43,0.0,-1.05007105E-23,62,1.0914047E-12,-1.091412E-12,9.4E-44,False,False,0,None,0.0,1.0842022E-19,
1951602678,507.213,0.0,0.0,3,89.30248,89.402016,0.061021212,-0.0066019255,-0.9983272,1.0002122,0.27381393,-0.1768238,-0.10937853,0.34380865,507,-202,1428,1528.0,2.606021E-5,-0.0034916678,0.006432689,0.007319283,0.0034917650447873873,-0.0034917650447873873,0.37048741706252686,3.5201894389423662,20.6794980638391,20.679498063839105,-0.6312578505486955,1.496300810611498,-0.5202587407586872,19.586590027466276,,0.0,,,64.98,,,10.4408362,63.4120317,20190820,195644,2019-08-20T19:56:44Z,123.307,7.55,7.62,79.08,2,1,3,0.0,-0.03,0.0,0,0,0,0,0,0,,,,false,false,false,false,false,false,false,false,false,false,0,0,0,0,56,73,72,55,944,944,944,945,940,940,940,940,0.0,0.0,0.0,0.0,1686.4,1681.5,1681.5,1686.4,0.0,0.0,0.0,0.0,0,0,0,0,-45.0,-4.923263393513678E-11,2.197040897533975E-11,0,89.117516,90.64041,0.06193768,-0.005870612,-0.9975963,0.9995345,0.32237232,-0.22318907,-0.20285411,0.44146016,507,-202,1428,1528.0,3.4168013E-4,-6.705174E-4,-0.0019298663,0.002071406,7.525549038744295E-4,-7.506854488485392E-4,0.35377964826819747,3.4882684533859774,20.16056114972265,20.16056114972264,-0.7040638697348216,1.5602470433250837,-0.5986007062396917,19.57447520762824,,1.0362636612985861E-4,,,64.98,NONE,0.0,0.0,0.0,NONE,-9.563491364685786E-13,2.4037879990012844E-11,-7.6293945E-6,16.977,16.977,6.059,1.4105339,0,3084,4.24,12.0,1.411,90,29.6,OK,487,0,0,0,0,0,65,100,0.0,0,0.0,589232.0,2.69E-43,0.0,-1.05007105E-23,62,1.0914047E-12,-1.091412E-12,9.4E-44,False,False,0,None,0.0,1.0842022E-19,
1955459545,508.215,0.0,0.0,3,89.21264,89.40753,0.060949076,-0.00836552,-0.996687,0.99858385,0.4063377,-0.06102162,-0.08385078,0.41936252,507,-202,1431,1531.0,0.0020678367,-0.005974703,0.0053831274,0.008303679,0.00632242255900689,-0.00632242255900689,0.3734262869372025,3.5233080038186206,20.683543776716764,20.68354377671676,-0.7694306642728079,1.7831145339784702,-0.6267028457296194,19.58662368545002,,0.0,,,65.02,,,10.4408341,63.4120321,20190820,195645,2019-08-20T19:56:45Z,123.18,7.55,7.62,79.25,2,1,3,0.03,-0.05,0.0,0,0,0,0,0,0,,,,false,false,false,false,false,false,false,false,false,false,0,0,0,0,54,72,73,55,944,944,944,945,940,940,940,940,0.0,0.0,0.0,0.0,1687.6,1681.5,1681.5,1686.4,0.0,0.0,0.0,0.0,0,0,0,0,-45.0,-9.006100342566704E-11,-1.0902327867666455E-11,0,89.25492,90.640366,0.061235916,-0.0068992972,-0.99893147,1.0008304,0.372214,-0.17899172,-0.11977321,0.43003127,507,-202,1425,1525.0,-1.7792512E-4,-0.0013235277,-0.0019248399,0.0023427317,0.00133543356242768,-0.0013296188786662139,0.3659441805674703,3.49513467247928,20.168781552152087,20.168781552152097,-0.8063464044570977,1.861570748914856,-0.7329431841728036,19.599384935872852,,1.2296971496042185E-4,,,65.01,NONE,0.0,0.0,0.0,NONE,-9.998528259492374E-11,1.3898696771549356E-11,-2.2888184E-5,16.976,16.976,6.058,1.4107955,0,3083,4.24,12.0,1.402,90,29.7,OK,488,0,0,0,0,0,65,100,0.0,0,0.0,589232.0,2.69E-43,0.0,-1.05007105E-23,62,1.0914047E-12,-1.091412E-12,9.4E-44,False,False,0,None,0.0,1.0842022E-19,
1959318609,509.218,0.0,0.0,3,88.94577,89.40828,0.060937967,-0.0057621254,-0.99733347,0.99921,0.20616324,-0.09137918,-0.13776694,0.26425967,504,-202,1431,1530.0,8.983507E-4,-0.00376297,0.0027521723,0.0047477814,0.0038687177175314117,-0.0038687177175314117,0.3877365767692792,3.5218076554153925,20.676981810182916,20.676981810182895,-0.8944564351828398,2.1296808779659497,-0.8144187132407188,19.71018548154589,,0.0,,,64.99,,,10.440836,63.4120314,20190820,195647,2019-08-20T19:56:47Z,123.116,7.55,7.62,79.39,2,1,3,-0.01,0.0,0.0,0,0,0,0,0,0,,,,false,false,false,false,false,false,false,false,false,false,0,0,0,0,55,73,72,56,944,944,944,945,940,940,940,940,0.0,0.0,0.0,0.0,1685.8,1681.5,1680.9,1685.8,0.0,0.0,0.0,0.0,0,0,0,0,-45.0,2.9463292041863134E-11,7.219416362994324E-12,0,88.964264,90.64004,0.06076235,-0.007194273,-0.9970661,0.9989417,0.17109486,-0.17258105,-0.15952252,0.2906976,504,-199,1428,1527.0,3.090064E-4,0.0013059329,-6.688029E-4,0.0014994142,0.0013419931858186568,-0.0013285903868242121,0.37067545830569865,3.4764799435264737,20.16192205837419,20.161922058374216,-0.9962464973016928,2.194474057379825,-0.7855920714081467,19.45260355732171,,1.5079360134239727E-4,,,65.03,NONE,0.0,0.0,0.0,NONE,2.0485557987393393E-11,-6.737320188307643E-13,0.0,16.976,16.976,6.058,1.4104974,0,3083,4.24,12.0,1.405,90,29.7,OK,489,0,0,0,0,0,65,100,0.0,0,0.0,589232.0,2.69E-43,0.0,-1.05007105E-23,62,1.0914047E-12,-1.091412E-12,9.4E-44,False,False,0,None,0.0,1.0842022E-19,
1963225918,510.234,0.0,0.0,3,89.12016,89.379005,0.06141052,-0.0068642637,-0.99793345,0.9998448,0.41807342,-0.06110342,-0.12369223,0.44024855,507,-202,1425,1525.0,2.3468847E-4,-4.923821E-4,0.0033361283,0.0033804246,5.454528612077232E-4,-5.454528612077232E-4,0.36449352709455535,3.5167319083279525,20.68166547263747,20.681665472637462,-1.014309655763026,2.4180790016028886,-0.9073717661254682,19.58029612627679,,0.0,,,64.98,,,10.4408349,63.4120319,20190820,195648,2019-08-20T19:56:48Z,123.187,7.55,7.62,79.38,2,1,3,0.01,-0.02,0.0,0,0,0,0,0,0,,,,false,false,false,false,false,false,false,false,false,false,0,0,0,0,56,71,71,55,944,945,944,945,940,940,940,940,0.0,0.0,0.0,0.0,1685.8,1681.5,1682.8,1685.8,0.0,0.0,0.0,0.0,0,0,0,0,-45.0,-2.756052850588175E-11,1.1239847478844866E-11,0,89.03561,90.63998,0.061263483,-0.0061533623,-0.99740523,0.9993039,0.25365382,-0.03457216,-0.21834947,0.3364699,507,-202,1431,1531.0,4.842591E-4,-0.001219277,-3.7451307E-4,0.0013643325,0.0013119235300625785,-0.0013056640037853752,0.32924621237962787,3.4949741111138892,20.168937692513033,20.168937692513055,-1.2244592889550987,2.476473505890558,-0.8666872142242418,19.512832321802577,,1.6310509217670204E-4,,,65.03,NONE,0.0,0.0,0.0,NONE,-6.922158580563725E-12,1.5873617871265898E-11,0.0,16.975,16.975,6.056,1.409985,0,3083,4.24,12.0,1.414,90,29.7,OK,490,0,0,0,0,0,65,100,0.0,0,0.0,589232.0,2.69E-43,0.0,-1.05007105E-23,62,1.0914047E-12,-1.091412E-12,9.4E-44,False,False,0,None,0.0,1.0842022E-19,
1967190706,511.264,0.0,0.0,3,89.29191,89.41518,0.061327677,-0.0061719916,-0.9981304,1.0000317,0.20233291,-0.08372911,-0.21833067,0.3092207,507,-202,1431,1531.0,-7.8603136E-4,-0.0014902726,-0.01940687,0.01947987,0.0016848613027263244,-0.0016848613027263244,0.3641578377204106,3.5209190542146342,20.679889855129836,20.67988985512983,-1.1683413339555255,2.7523064622192237,-0.9806808678646679,19.568525136671877,,0.0,,,64.99,,,10.4408352,63.4120322,20190820,195649,2019-08-20T19:56:49Z,123.295,7.55,7.61,79.34,2,1,3,0.01,-0.02,0.0,0,0,0,0,0,0,,,,false,false,false,false,false,false,false,false,false,false,0,0,0,0,54,71,70,54,944,945,944,945,940,940,940,940,0.0,0.0,0.0,0.0,1686.4,1681.5,1682.8,1685.8,0.0,0.0,0.0,0.0,0,0,0,0,-45.0,-4.316590848352715E-11,-5.911168391674231E-12,0,89.30776,90.64002,0.06091583,-0.0068067345,-0.99746674,0.9993483,0.35490167,-0.25628468,-0.22648117,0.49288008,504,-202,1428,1527.0,-2.7410372E-4,-0.0019385408,-0.0018843515,0.0027173248,0.001957823575127997,-0.001955321327657003,0.32964828485187886,3.4918237688034486,20.167023813378066,20.16702381337808,-1.3854709637227427,2.7278805623530737,-0.9221044096426287,19.611642109057247,,1.7680359898467814E-4,,,65.01,NONE,0.0,0.0,0.0,NONE,-3.803487836865879E-11,1.4831516269050558E-12,-7.6293945E-6,16.974,16.974,6.055,1.4096775,0,3082,4.241,12.0,1.408,90,29.7,OK,491,0,0,0,0,0,65,100,0.0,0,0.0,589232.0,2.69E-43,0.0,-5.9807744E7,62,1.0914047E-12,-1.091412E-12,9.4E-44,False,False,0,None,0.0,1.0842022E-19,
1971113749,512.284,0.0,0.0,3,88.98276,89.401985,0.06257057,-0.006718498,-0.9959993,0.99798536,0.5250898,-0.0803912,-0.24822251,0.5863416,510,-202,1428,1529.0,0.0024413825,-0.0044218716,-0.0077665118,0.009264556,0.005051068832460579,-0.005051068832460579,0.37101594531083903,3.512644580643938,20.677864004092164,20.677864004092157,-1.3202526770261984,3.0720084591659584,-1.072876452972083,19.502389786892063,,0.0,,,64.98,,,10.4408361,63.4120323,20190820,195650,2019-08-20T19:56:50Z,123.286,7.55,7.61,79.25,2,1,3,0.0,-0.01,0.0,0,0,0,0,0,0,,,,false,false,false,false,false,false,false,false,false,false,0,0,0,0,54,71,70,54,944,945,944,945,940,940,940,940,0.0,0.0,0.0,0.0,1686.4,1681.5,1682.8,1685.8,0.0,0.0,0.0,0.0,0,0,0,0,-45.0,-2.183341418655353E-11,9.213945494979236E-12,0,89.36061,90.6396,0.06177328,-0.0073636225,-0.9962147,0.99815524,0.32776305,-0.07035129,-0.30738357,0.45482147,510,-202,1425,1526.0,4.290398E-4,-9.975632E-4,-2.0163537E-4,0.0011044746,0.0010859132173583702,-0.0010830612683935296,0.3661152186115954,3.4957397175988554,20.161897201849662,20.161897201849683,-1.5917512262142304,3.114908474932523,-1.1083683777890523,19.508262549209917,,2.0810417307041192E-4,,,65.0,NONE,0.0,0.0,0.0,NONE,1.2942870518862386E-11,1.6098456653122255E-11,0.0,16.975,16.975,6.057,1.4094659,0,3081,4.24,12.0,1.408,90,29.7,OK,492,0,0,0,0,0,65,100,0.0,0,0.0,589232.0,2.69E-43,0.0,-5.9807744E7,62,1.0914047E-12,-1.091412E-12,9.4E-44,False,False,0,None,0.0,1.0842022E-19,
1975026430,513.301,0.0,0.0,3,89.0541,89.3692,0.061620947,-0.0073554777,-0.997534,0.9994625,0.22737464,-0.22408092,-0.16838863,0.36092412,504,-202,1428,1527.0,0.0047582765,-0.0028379522,0.015610527,0.016564531,0.005540322165582701,-0.005540322165582701,0.36473493184493355,3.5066039084718716,20.679451535355987,20.67945153535601,-1.4749800282084138,3.390226230707455,-1.1411056027113642,19.676076167402545,,0.0,,,65.0,,,10.4408347,63.4120328,20190820,195650,2019-08-20T19:56:50Z,123.282,7.55,7.61,79.16,2,1,3,0.02,-0.03,0.0,0,0,0,0,0,0,,,,false,false,false,false,false,false,false,false,false,false,0,0,0,0,55,72,72,55,944,944,944,945,940,940,940,940,0.0,0.0,0.0,0.0,1686.4,1680.9,1681.5,1685.2,0.0,0.0,0.0,0.0,0,0,0,0,-45.0,-4.154184046044475E-11,1.1790963930911153E-11,0,89.12016,90.6397,0.060945798,-0.007658652,-0.99903816,1.0009247,0.27411097,-0.028171401,-0.15583308,0.3165666,504,-199,1431,1530.0,5.2236463E-4,-0.0018955269,2.20944E-4,0.001978561,0.001966185969184906,-0.0019640125426606614,0.32768052295313616,3.494164608421471,20.158284704150514,20.158284704150503,-1.7501323441273537,3.4076966306746264,-1.215805034144643,19.34262794133325,,2.3455290885959738E-4,,,65.05,NONE,0.0,0.0,0.0,NONE,-3.744193145014434E-11,1.1536843821358033E-11,0.0,16.973,16.973,6.058,1.4092324,0,3081,4.24,12.0,1.409,90,29.7,OK,493,0,0,0,0,0,65,100,0.0,0,0.0,589232.0,2.69E-43,0.0,-5.9807744E7,62,1.0914047E-12,-1.091412E-12,9.4E-44,False,False,0,None,0.0,1.0842022E-19,
1979039937,514.344,0.0,0.0,3,89.30248,89.313515,0.061107505,-0.00653486,-0.9970657,0.9989579,0.28757134,0.0147818355,-0.1111993,0.3086763,510,-202,1431,1532.0,0.0039065033,-0.0017349877,0.016436987,0.016983682,0.00427445318400728,-0.00427445318400728,0.36276809871529886,3.507634330045826,20.682083607615986,20.682083607615994,-1.6831522679021034,3.718368947948888,-1.2498773972022668,19.484558501699244,,0.0,,,64.97,,,10.4408345,63.4120332,20190820,195651,2019-08-20T19:56:51Z,123.322,7.55,7.61,79.07,2,1,3,0.03,-0.03,0.0,0,0,0,0,0,0,,,,false,false,false,false,false,false,false,false,false,false,0,0,0,0,54,71,72,54,944,945,944,945,940,940,940,940,0.0,0.0,0.0,0.0,1686.4,1681.5,1682.1,1687.0,0.0,0.0,0.0,0.0,0,0,0,0,-45.0,3.888665133209382E-12,-6.824641296039917E-12,0,88.98276,90.639725,0.061511163,-0.006890895,-0.9968501,0.9987698,0.22711684,-0.11392277,-0.08029229,0.26647198,513,-202,1431,1533.0,-2.9940973E-4,1.7226268E-4,-6.7529525E-4,7.5851456E-4,3.454281653059289E-4,-3.4019441305810095E-4,0.3427386115908759,3.487225996331221,20.164041110023323,20.164041110023334,-1.912932633316446,3.7209473288429002,-1.3093696890453963,19.366741338553087,,2.470541812948729E-4,,,65.0,NONE,0.0,0.0,0.0,NONE,-1.629139969836077E-11,2.0502159456068484E-12,0.0,16.974,16.974,6.056,1.4088631,0,3081,4.24,12.0,1.4,90,29.7,OK,494,0,0,0,0,0,65,100,0.0,0,0.0,589232.0,2.69E-43,0.0,-5.9807744E7,62,1.0914047E-12,-1.091412E-12,9.4E-44,False,False,0,None,0.0,1.0842022E-19,
1982937216,515.357,0.0,0.0,3,89.18358,89.34117,0.061851915,-0.006638924,-0.9995858,1.0015196,0.30375752,-0.10377649,-0.096484624,0.33518276,513,-202,1428,1530.0,0.0037078871,-0.0035162647,-0.006972633,0.00864466,0.005110043465505829,-0.005110043465505829,0.3751476968550455,3.5154374321817583,20.687041217429933,20.687041217429908,-1.849124904538549,4.087463746670784,-1.3479491477311842,19.4190134644156,,0.0,,,64.99,,,10.4408344,63.4120333,20190820,195653,2019-08-20T19:56:53Z,123.314,7.54,7.61,78.88,2,1,3,0.0,-0.03,0.0,0,0,0,0,0,0,,,,false,false,false,false,false,false,false,false,false,false,0,0,0,0,55,72,73,55,944,945,944,944,940,940,940,940,0.0,0.0,0.0,0.0,1687.0,1681.5,1680.9,1686.4,0.0,0.0,0.0,0.0,0,0,0,0,-45.0,3.0600035086669675E-11,-8.582017803146765E-11,0,89.167725,90.639336,0.061129782,-0.006271741,-0.99805635,0.9999463,0.3699903,-0.117752165,-0.24625435,0.4597821,513,-202,1428,1530.0,-0.0013149724,4.90003E-4,9.780732E-4,0.0017105212,0.0014033016197709434,-0.0013941471007776092,0.3689195854251161,3.490429240158365,20.16398818467056,20.163988184670586,-2.092299665744823,3.960163195138193,-1.3945265070282915,19.42400933680597,,2.7023005565216337E-4,,,64.97,NONE,0.0,0.0,0.0,NONE,-4.393297474430673E-11,-7.262815477064312E-12,0.0,16.972,16.972,6.056,1.4082555,0,3080,4.24,12.0,1.408,90,29.7,OK,495,0,0,0,0,0,65,100,0.0,0,0.0,589232.0,2.69E-43,0.0,-5.9807744E7,62,1.0914047E-12,-1.091412E-12,9.4E-44,False,False,0,None,0.0,1.0842022E-19,
1986856733,516.375,0.0,0.0,3,89.02504,89.33858,0.061006818,-0.0077424888,-0.9971965,0.9990909,0.41671282,-0.14384614,-0.10942344,0.45421886,504,-202,1428,1527.0,0.0019421838,-0.0048098695,9.7524165E-4,0.0052780695,0.005187188290175994,-0.005187188290175994,0.3833335576071157,3.5047420376177785,20.687870394209575,20.687870394209597,-1.9733444302832606,4.331163448138212,-1.415592633738275,19.717443667454177,,0.0,,,64.99,,,10.4408353,63.4120332,20190820,195653,2019-08-20T19:56:53Z,123.319,7.54,7.61,78.85,2,1,3,0.01,-0.02,0.0,0,0,0,0,0,0,,,,false,false,false,false,false,false,false,false,false,false,0,0,0,0,54,72,72,55,944,945,944,945,940,940,940,940,0.0,0.0,0.0,0.0,1685.8,1681.5,1682.8,1686.4,0.0,0.0,0.0,0.0,0,0,0,0,-45.0,4.1142784303043935E-11,3.5905184530005974E-11,0,89.064674,90.640144,0.061896283,-0.007371203,-0.9975762,0.9995218,0.2700445,0.08414261,-0.024348611,0.28389588,504,-202,1428,1527.0,0.0016237751,0.0018376014,-0.0017757063,0.0030276321,0.0024522284465406767,-0.002438891465258042,0.3889510670599503,3.4561012652821166,20.160660372768398,20.160660372768405,-2.2011432321377558,4.162953401048812,-1.4761704917548295,19.766063804737936,,2.926133559730809E-4,,,65.04,NONE,0.0,0.0,0.0,NONE,2.3921277554642463E-11,2.928498966103872E-11,0.0,16.973,16.973,6.055,1.4076042,0,3080,4.24,12.0,1.404,90,29.7,OK,496,0,0,0,0,0,65,100,0.0,0,0.0,589232.0,2.69E-43,0.0,-5.9807744E7,62,1.0914047E-12,-1.091412E-12,9.4E-44,False,False,0,None,0.0,1.0842022E-19,
1990713053,517.377,0.0,0.0,3,89.23114,89.327324,0.06080809,-0.0072169886,-0.99664456,0.99852395,0.1948007,-0.17882805,-0.08742554,0.27851394,507,-202,1428,1528.0,0.0023263765,-0.0036741996,-0.0021523256,0.0048522446,0.00434876659458658,-0.00434876659458658,0.3851231537367648,3.5139415068139903,20.692543003003784,20.692543003003777,-2.116076633156101,4.673264626172973,-1.531976449021982,19.622542196239547,,0.0,,,64.99,,,10.4408355,63.4120333,20190820,195655,2019-08-20T19:56:55Z,123.21,7.54,7.61,126.18,2,1,3,0.0,-0.01,0.0,0,0,0,0,0,0,,,,false,false,false,false,false,false,false,false,false,false,0,0,0,0,55,72,73,55,944,945,944,945,940,940,940,940,0.0,0.0,0.0,0.0,1684.6,1681.5,1682.1,1685.8,0.0,0.0,0.0,0.0,0,0,0,0,-45.0,-2.2161260500867727E-11,-1.172011357140126E-11,0,89.38704,90.639565,0.061256055,-0.0070709824,-0.999356,1.0012566,0.3423195,-0.08714557,-0.08581886,0.3635132,507,-202,1428,1528.0,-5.191006E-4,-9.84164E-4,-0.0012758106,0.0016928487,0.0011126742974174205,-0.0011038852918683433,0.3597201392404727,3.4898121936145103,20.166091587432028,20.16609158743205,-2.3567825049840887,4.488708231980239,-1.5685711163482672,19.586060030922923,,3.1459017417199E-4,,,64.98,NONE,0.0,0.0,0.0,NONE,-3.532426386897164E-11,-8.256550596133587E-12,0.0,16.972,16.972,6.054,1.4070579,0,3079,4.239,12.0,1.408,90,29.7,OK,497,0,0,0,0,0,65,100,0.0,0,0.0,589232.0,2.69E-43,0.0,-5.9807744E7,62,1.0914047E-12,-1.091412E-12,9.4E-44,False,False,0,None,0.0,1.0842022E-19,
1994610470,518.390,0.0,0.0,3,88.91934,89.3323,0.062061097,-0.0063632564,-0.997806,0.9997544,0.3001333,0.03109047,-0.05460857,0.306641,513,-202,1428,1530.0,0.0018936556,-0.0019451363,0.0030434206,0.0040782224,0.002714679966557688,-0.002714679966557688,0.3761981548212624,3.5125267713915145,20.68601502717308,20.686015027173084,-2.2784918821374007,4.934798080980196,-1.61827010358645,19.423364308148948,,0.0,,,65.01,,,10.440833,63.4120341,20190820,195656,2019-08-20T19:56:56Z,123.14,7.54,7.61,126.16,2,1,3,-0.01,-0.03,0.0,0,0,0,0,0,0,,,,false,false,false,false,false,false,false,false,false,false,0,0,0,0,55,71,72,55,944,946,944,945,940,940,940,940,0.0,0.0,0.0,0.0,1685.2,1680.9,1680.9,1685.8,0.0,0.0,0.0,0.0,0,0,0,0,-45.0,-1.096350493282832E-11,3.463301534402689E-12,0,88.85329,90.63934,0.06119221,-0.006736122,-0.998488,1.000384,0.29349583,-0.07487914,0.0036099418,0.30291867,504,-202,1428,1527.0,1.4238851E-4,-4.7089576E-4,3.1289598E-4,5.830276E-4,4.919525460122458E-4,-4.898815033249895E-4,0.35401675526815773,3.4834076778880467,20.158000097050152,20.15800009705015,-2.5068690521119374,4.786046264643018,-1.7022153686471628,19.67038718348481,,3.356854882536034E-4,,,64.97,NONE,0.0,0.0,0.0,NONE,1.9027635363862315E-12,1.556799399576682E-11,0.0,16.972,16.972,6.054,1.4070642,0,3079,4.239,12.0,1.426,90,29.7,OK,498,0,0,0,0,0,65,100,0.0,0,0.0,589232.0,2.69E-43,0.0,-5.9807744E7,62,1.0914047E-12,-1.091412E-12,9.4E-44,False,False,0,None,0.0,1.0842022E-19,
1998486609,519.398,0.0,0.0,3,88.94048,89.32046,0.061575767,-0.0055726217,-0.9979065,0.99982,0.25548416,-0.062370885,-0.17363712,0.31513828,510,-202,1425,1526.0,0.0032038288,-0.0016056688,2.749352E-4,0.0035942008,0.003583670035227653,-0.003583670035227653,0.3757068720795634,3.5111460778143475,20.68546177485102,20.685461774851035,-2.4094891509758107,5.256554677389416,-1.7160240027907405,19.517371659700448,,0.0,,,65.0,,,10.4408326,63.4120345,20190820,195657,2019-08-20T19:56:57Z,123.358,7.54,7.6,126.12,2,1,3,0.01,-0.02,0.0,0,0,0,0,0,0,,,,false,false,false,false,false,false,false,false,false,false,0,0,0,0,54,71,72,55,944,944,944,945,940,940,940,940,0.0,0.0,0.0,0.0,1685.8,1681.5,1680.9,1685.8,0.0,0.0,0.0,0.0,0,0,0,0,-45.0,-1.8082266725617357E-11,8.474330484705353E-12,0,89.0541,90.63964,0.062356208,-0.0077515794,-0.9960244,0.99800456,0.261256,-0.18956384,-0.20434558,0.38202915,504,-202,1428,1527.0,4.146297E-4,-8.226073E-4,4.180169E-4,0.0010116021,9.211952132333836E-4,-9.202342988174806E-4,0.35631033757284264,3.485049069801764,20.159306831654217,20.15930683165419,-2.6372744445999445,5.009032217549221,-1.773765998105545,19.67409326884978,,3.423953195280885E-4,,,65.03,NONE,0.0,0.0,0.0,NONE,-1.2587572958441645E-11,1.808122096508244E-11,0.0,16.972,16.972,6.056,1.4084287,0,3079,4.239,12.0,1.436,90,29.7,OK,499,0,0,0,0,0,65,100,0.0,0,0.0,589232.0,2.69E-43,0.0,-5.9807744E7,62,1.0914047E-12,-1.091412E-12,9.4E-44,False,False,0,None,0.0,1.0842022E-19,
2002518679,520.446,0.0,0.0,3,89.10959,89.2858,0.061509173,-0.006551211,-0.998401,1.0003154,0.27144065,0.008991728,-0.11643649,0.29549676,510,-202,1425,1526.0,0.0029497817,-0.0023316161,0.0062374566,0.0072830976,0.00376000609689366,-0.00376000609689366,0.37763761444864136,3.5045922021514118,20.69018124361454,20.690181243614518,-2.564392930889855,5.546320772700542,-1.8239653693277564,19.52629280932809,,0.0,,,65.02,,,10.4408308,63.412035,20190820,195658,2019-08-20T19:56:58Z,123.372,7.54,7.6,126.04,2,1,3,0.0,-0.04,0.0,0,0,0,0,0,0,,,,false,false,false,false,false,false,false,false,false,false,0,0,0,0,56,72,72,55,944,945,944,945,940,940,940,940,0.0,0.0,0.0,0.0,1685.8,1681.5,1681.5,1685.8,0.0,0.0,0.0,0.0,0,0,0,0,-45.0,-1.1106774294786558E-11,2.1807270142803858E-11,0,89.088455,90.63947,0.0604221,-0.006844642,-0.99723476,0.99908704,0.44729927,-0.15302096,-0.24301754,0.5315539,510,-205,1425,1527.0,9.586062E-4,-5.2561145E-4,-7.008761E-4,0.0012986226,0.0010932489420343926,-0.0010916522539480705,0.36169715593684304,3.4768112218859613,20.16018882496972,20.160188824969737,-2.8338192248128187,5.4114321193788015,-1.9118590976532486,19.768861902893775,,3.6391424884130147E-4,,,64.99,NONE,0.0,0.0,0.0,NONE,-8.870151314041377E-12,2.322453877859696E-11,0.0,16.969,16.969,6.056,1.4113379,0,3078,4.239,12.0,1.437,90,29.7,OK,500,0,0,0,0,0,65,100,0.0,0,0.0,589232.0,2.69E-43,0.0,-3.3654391E38,62,1.0914047E-12,-1.091412E-12,9.4E-44,False,False,0,None,0.0,1.0842022E-19,
2006425972,521.461,0.0,0.0,3,89.03297,89.30122,0.061341356,-0.0071719713,-0.9972293,0.99913985,0.23805536,-0.12494609,-0.23533688,0.35730284,510,-202,1425,1526.0,0.0041474267,-0.0038044294,0.0038064406,0.0067943963,0.005628039631832055,-0.005628039631832055,0.3656539359322751,3.5125106267538118,20.69192025869399,20.691920258693983,-2.6651703987875877,5.817930772254229,-1.9606593361791775,19.494974789729554,,0.0,,,65.01,,,10.4408285,63.4120356,20190820,195659,2019-08-20T19:56:59Z,123.301,7.54,7.6,126.08,2,1,3,0.01,-0.05,0.0,0,0,0,0,0,0,,,,false,false,false,false,false,false,false,false,false,false,0,0,0,0,54,72,71,54,945,945,944,945,940,940,940,940,0.0,0.0,0.0,0.0,1685.2,1680.3,1680.9,1684.6,0.0,0.0,0.0,0.0,0,0,0,0,-45.0,-1.1767434291475534E-11,4.596907290535754E-12,0,89.0726,90.63952,0.061802756,-0.0067419284,-0.997431,0.99936664,0.28189152,-0.19504438,-0.13643132,0.36894262,507,-202,1428,1528.0,2.1739319E-4,-5.3708965E-4,4.926468E-4,7.605432E-4,5.794178769970209E-4,-5.775319712956147E-4,0.36023033015927847,3.492432941960758,20.1617610050168,20.161761005016785,-3.0024909240417657,5.752764234558906,-2.020568950572698,19.58520842486693,,3.9354651946449105E-4,,,65.02,NONE,0.0,0.0,0.0,NONE,-2.2778782823786373E-11,4.255988954049425E-12,-7.6293945E-6,16.969,16.969,6.055,1.4151849,0,3078,4.239,12.0,1.434,90,29.7,OK,501,0,0,0,0,0,65,100,0.0,0,0.0,589232.0,2.69E-43,0.0,-3.3654391E38,62,1.0914047E-12,-1.091412E-12,9.4E-44,False,False,0,None,0.0,1.0842022E-19,
2010281808,522.463,0.0,0.0,4,89.17565,89.306015,0.062213127,-0.0061384845,-0.9965015,0.99846053,0.25801668,-0.109594665,-0.024248926,0.28137448,507,-202,1428,1528.0,0.0052478877,-0.004459621,-0.008203747,0.010711209,0.006886838487201822,-0.006886838487201822,0.36463931521731385,3.508303297119718,20.696110266568898,20.696110266568894,-2.8153960087866334,6.087582014505858,-2.0998216508781833,19.582881245913782,,0.0,,,64.98,,,10.4408404,63.4120332,20190820,195700,2019-08-20T19:57:00Z,122.98,7.53,7.6,102.91,2,1,3,-0.02,0.07,0.0,0,0,0,0,0,0,,,,false,false,false,false,false,false,false,false,false,false,0,0,0,0,55,72,72,55,945,945,944,945,940,940,940,940,0.0,0.0,0.0,0.0,1686.4,1681.5,1680.9,1685.8,0.0,0.0,0.0,0.0,0,0,0,0,-45.0,-1.3689021540054947E-11,3.103350333933541E-11,0,89.24435,90.63935,0.061542753,-0.0068175113,-0.99619776,0.99812025,0.3817865,-0.21640389,-0.026251359,0.439637,513,-202,1428,1530.0,0.001388307,-6.181357E-4,5.2482256E-4,0.0016077707,0.0015196999224487172,-0.0015167587709103512,0.33994068013948403,3.479500925438455,20.16769765963046,20.16769765963045,-3.093142012813686,6.078730156465991,-2.11044225633667,19.37034604257378,,4.144751577928527E-4,,,64.97,NONE,0.0,0.0,0.0,NONE,2.0750527876794547E-12,2.4207816281011897E-11,0.0,16.969,16.969,6.056,1.4190831,0,3078,4.239,12.0,1.427,90,29.7,OK,502,0,0,0,0,0,65,100,0.0,0,0.0,589232.0,2.69E-43,0.0,-3.3654391E38,62,1.0914047E-12,-1.091412E-12,9.4E-44,False,False,0,None,0.0,1.0842022E-19,
2014136766,523.465,0.0,0.0,3,89.10695,89.32091,0.061533067,-0.007857744,-0.99860877,1.0005336,0.4227634,-0.14525351,-0.13668932,0.46745208,507,-202,1431,1531.0,0.005412462,-0.0044279946,-0.00564798,0.008988969,0.006992988067337934,-0.006992988067337934,0.37506481929580143,3.5165392079195885,20.689308496176594,20.68930849617658,-2.9424056054443715,6.393364117544563,-2.2158254780432896,19.595162399830425,,0.0,,,64.99,,,10.4408397,63.4120331,20190820,195701,2019-08-20T19:57:01Z,123.142,7.53,7.6,85.69,2,1,3,-0.03,0.04,0.0,0,0,0,0,0,0,,,,false,false,false,false,false,false,false,false,false,false,0,0,0,0,55,71,72,54,945,945,944,946,940,940,940,940,0.0,0.0,0.0,0.0,1685.2,1680.9,1681.5,1685.8,0.0,0.0,0.0,0.0,0,0,0,0,-45.0,9.876435574631916E-12,-1.675192703661824E-11,0,89.28398,90.63973,0.060590442,-0.0064914525,-0.9971834,0.9990436,0.3243128,-0.14925323,-0.23779859,0.42895627,510,-202,1428,1529.0,-7.746589E-4,4.402881E-4,-0.0015062572,0.0017500744,8.910387480871325E-4,-8.851254162584791E-4,0.3652638071122646,3.497564192553407,20.15681709791914,20.156817097919145,-3.2931990532613837,6.369484941035425,-2.2324427627849794,19.501206642881776,,4.573248703348299E-4,,,65.05,NONE,0.0,0.0,0.0,NONE,2.859896994360022E-12,-1.4318570124061584E-11,0.0,16.968,16.968,6.056,1.4225408,0,3077,4.239,12.0,1.436,90,29.7,OK,503,0,0,0,0,0,65,100,0.0,0,0.0,589232.0,2.69E-43,0.0,-3.3654391E38,62,1.0914047E-12,-1.091412E-12,9.4E-44,False,False,0,None,0.0,1.0842022E-19,
2018034448,524.478,0.0,0.0,3,89.093735,89.319534,0.061682496,-0.0065149134,-0.9960752,0.9980045,0.36430737,-0.0452299,-0.18747272,0.41220337,510,-202,1425,1526.0,0.0054715537,-0.0072981967,-0.006077222,0.010960574,0.00912148957815447,-0.00912148957815447,0.3780682514777415,3.5330357117730706,20.694906206382853,20.694906206382825,-3.145556904702276,6.756008768796472,-2.3292426400851713,19.506340678203248,,0.0,,,64.97,,,10.4408389,63.4120333,20190820,195702,2019-08-20T19:57:02Z,123.194,7.53,7.6,76.35,2,1,3,-0.03,0.04,0.0,0,0,0,0,0,0,,,,false,false,false,false,false,false,false,false,false,false,0,0,0,0,54,71,72,55,945,944,944,946,940,940,940,940,0.0,0.0,0.0,0.0,1685.8,1680.3,1680.9,1685.2,0.0,0.0,0.0,0.0,0,0,0,0,-45.0,-2.5712667465250342E-11,-3.1862269540670973E-11,0,88.91934,90.639275,0.061016086,-0.0066952743,-0.997557,0.9994437,0.26200068,-0.06350815,-0.11174575,0.29183,510,-202,1422,1524.0,-0.0014391306,-0.0011489689,-7.7622663E-4,0.001998438,0.0018415283131241304,-0.0018372842013063104,0.36920307797271484,3.514819759460588,20.16049246177459,20.160492461774595,-3.459866049110574,6.669447558801467,-2.3292159880076144,19.504746750723623,,4.6998686459815884E-4,,,65.01,NONE,0.0,0.0,0.0,NONE,-2.6802351227050975E-11,-2.3676830743629582E-11,0.0,16.967,16.967,6.054,1.4249961,0,3077,4.238,12.0,1.403,90,29.7,OK,504,0,0,0,0,0,65,100,0.0,0,0.0,589232.0,2.69E-43,0.0,-3.3654391E38,62,1.0914047E-12,-1.091412E-12,9.4E-44,False,False,0,None,0.0,1.0842022E-19,
2022047950,525.521,0.0,0.0,3,89.14922,89.29716,0.06175014,-0.006958141,-0.9993494,1.0012796,0.3450156,-0.03629261,-0.19904599,0.39996526,513,-202,1428,1530.0,0.0020886809,-0.007614641,-6.335892E-4,0.007921287,0.007895906864543402,-0.007895906864543402,0.3761300343840269,3.5293868367718852,20.695088005566227,20.69508800556622,-3.2838198760149266,7.044692378719341,-2.446662383079477,19.410944507800597,,0.0,,,64.95,,,10.4408374,63.4120339,20190820,195703,2019-08-20T19:57:03Z,123.087,7.53,7.6,70.17,2,1,3,0.01,0.05,0.0,0,0,0,0,0,0,,,,false,false,false,false,false,false,false,false,false,false,0,0,0,0,54,71,72,55,945,945,944,946,940,940,940,940,0.0,0.0,0.0,0.0,1685.8,1680.3,1682.8,1684.6,0.0,0.0,0.0,0.0,0,0,0,0,-45.0,-7.42830727674059E-12,-1.7085655761431423E-11,0,89.069954,90.63947,0.060105886,-0.0072643384,-0.9982669,1.0001011,0.26255724,-0.05914551,-0.2005801,0.33565888,510,-202,1428,1529.0,-7.837778E-4,-3.4993901E-4,-0.0011959005,0.001472054,8.583501301573293E-4,-8.5584405482333E-4,0.35123354593317596,3.486841658163247,20.1602713884952,20.160271388495175,-3.647512382828038,6.947922960833934,-2.5002479188749125,19.47914534245752,,4.83041684481641E-4,,,64.97,NONE,0.0,0.0,0.0,NONE,-1.870135769358301E-11,5.73914058169119E-12,-7.6293945E-6,16.969,16.969,6.053,1.4256473,0,3076,4.238,12.0,1.412,90,29.7,OK,505,0,0,0,0,0,65,100,0.0,0,0.0,589232.0,2.69E-43,0.0,-3.3654391E38,62,1.0914047E-12,-1.091412E-12,9.4E-44,False,False,0,None,0.0,1.0842022E-19,
2026024743,526.555,0.0,0.0,3,89.10431,89.27213,0.060653318,-0.0068121254,-0.9985462,1.0004097,0.31440178,-0.06938158,-0.15104592,0.35563627,507,-202,1428,1528.0,-0.0022184611,-0.005293522,0.008084037,0.009914364,0.005739594570708971,-0.005739594570708971,0.38257464793339074,3.5478047221008366,20.68240161836623,20.682401618366214,-3.412746411732705,7.357410581119087,-2.565693319578439,19.59198991269523,,0.0,,,64.99,,,10.4408367,63.412034,20190820,195704,2019-08-20T19:57:04Z,123.152,7.53,7.59,66.19,2,1,3,0.0,0.04,0.0,0,0,0,0,0,0,,,,false,false,false,false,false,false,false,false,false,false,0,0,0,0,55,72,73,55,945,945,944,946,940,940,940,940,0.0,0.0,0.0,0.0,1685.2,1681.5,1681.5,1684.6,0.0,0.0,0.0,0.0,0,0,0,0,-45.0,-1.866161874671909E-12,-2.9181982130972046E-11,0,89.03032,90.63903,0.061395478,-0.0072493968,-0.99759346,0.9995072,0.23008138,-0.23546138,-0.1439448,0.35930434,510,-202,1428,1529.0,-0.0012946515,-8.507821E-5,-6.5231527E-4,0.001452197,0.0012974439843234586,-0.001296011609051705,0.3662808646325952,3.500013578176564,20.14207134053357,20.142071340533562,-3.803461839765262,7.249239564465987,-2.6070647493654193,19.501575415108068,,4.940120125768623E-4,,,64.98,NONE,0.0,0.0,0.0,NONE,-5.142272052712691E-12,-3.183821702065949E-11,0.0,16.969,16.969,6.054,1.4246672,0,3076,4.238,12.0,1.406,90,29.7,OK,506,0,0,0,0,0,65,100,0.0,0,0.0,589232.0,2.69E-43,0.0,-3.3654391E38,62,1.0914047E-12,-1.091412E-12,9.4E-44,False,False,0,None,0.0,1.0842022E-19,
2029938424,527.572,0.0,0.0,3,88.988045,89.28182,0.06133871,-0.0060501136,-0.99732155,0.9992243,0.208998,-0.04847093,-0.17159809,0.27472806,516,-202,1428,1531.0,-0.0064630313,-0.0041010017,-0.001170669,0.007743349,0.007654344294325226,-0.007654344294325226,0.381724380862465,3.555014216245724,20.680772836961758,20.68077283696175,-3.570985638299509,7.682395938194663,-2.6740836471195433,19.31504927842923,,0.0,,,64.98,,,10.4408374,63.4120336,20190820,195705,2019-08-20T19:57:05Z,123.339,7.53,7.59,63.13,2,1,3,-0.01,0.03,0.0,0,0,0,0,0,0,,,,false,false,false,false,false,false,false,false,false,false,0,0,0,0,55,72,73,55,945,945,944,946,940,940,940,940,0.0,0.0,0.0,0.0,1685.2,1681.5,1681.5,1684.6,0.0,0.0,0.0,0.0,0,0,0,0,-45.0,8.474591925917694E-12,-7.852625114510686E-12,0,88.81101,90.63906,0.06182291,-0.006992122,-0.9976229,0.99956113,0.4224837,-0.16770288,-0.115418814,0.46897575,504,-202,1428,1527.0,-3.386245E-4,3.7827357E-4,-6.261146E-4,8.0608745E-4,5.076981870781642E-4,-5.05106875101551E-4,0.3739629682325303,3.492489749311137,20.137785626846696,20.13778562684672,-3.957339684468906,7.546485566171619,-2.6858408908434317,19.70648707322443,,5.09765116262621E-4,,,64.96,NONE,0.0,0.0,0.0,NONE,-5.604760194743312E-12,-9.520092253539648E-12,0.0,16.969,16.969,6.057,1.4226594,0,3076,4.238,12.0,1.406,90,29.7,OK,507,0,0,0,0,0,65,100,0.0,0,0.0,589232.0,2.69E-43,0.0,-3.3654391E38,62,1.0914047E-12,-1.091412E-12,9.4E-44,False,False,0,None,0.0,1.0842022E-19,
2033814607,528.579,0.0,0.0,4,89.12544,89.25095,0.061639104,-0.0069105756,-0.99804384,0.9999693,0.35706908,0.14072864,-0.17437413,0.42155573,507,-202,1425,1525.0,-0.009419145,-0.0023246368,0.009508706,0.013584539,0.009701764022221811,-0.009701764022221811,0.37225447707444687,3.560130558374669,20.687253457131177,20.68725345713119,-3.7459850485844983,8.009417551976153,-2.6952199835658033,19.564813122335902,,0.0,,,65.01,,,10.4408389,63.4120325,20190820,195706,2019-08-20T19:57:06Z,123.366,2.91,6.28,60.58,3,1,4,-0.03,0.04,0.0,0,0,0,0,0,0,,,,false,false,false,false,false,false,false,false,false,false,0,0,0,0,55,72,72,55,944,946,945,945,940,940,940,940,0.0,0.0,0.0,0.0,1686.4,1681.5,1680.9,1684.6,0.0,0.0,0.0,0.0,0,0,0,0,-45.0,-3.307117014489524E-11,1.2655547473469075E-11,0,89.112236,90.639145,0.06065089,-0.0064403513,-0.9986269,1.0004878,0.20494251,-0.0969355,-0.16355312,0.27954882,510,-202,1431,1532.0,5.378613E-4,-0.0014714582,-0.0012172989,0.0019840114,0.0015666793057677077,-0.0015615653018547558,0.3280436433619298,3.495800067876797,20.145996002534094,20.145996002534105,-4.118187652209594,7.8261067080166065,-2.7681555646396485,19.419004750533748,,5.204116481426384E-4,,,64.98,NONE,0.0,0.0,0.0,NONE,-3.893841654392683E-11,2.851478612317213E-11,0.0,16.969,16.969,6.055,1.4200331,0,3075,4.239,12.0,1.406,90,29.8,OK,508,0,0,0,0,0,65,100,0.0,0,0.0,589232.0,2.69E-43,0.0,-3.3654391E38,62,1.0914047E-12,-1.091412E-12,9.4E-44,False,False,0,None,0.0,1.0842022E-19,
2037664105,529.580,0.0,0.0,4,88.94048,89.282875,0.064038485,-0.005351427,-0.9942977,0.99637216,0.42377272,0.13167398,0.06333367,0.44825497,504,-202,1425,1524.0,-0.009756239,-1.1235487E-4,-0.015061657,0.01794576,0.009756886029184087,-0.009756886029184087,0.38448191134339554,3.5571483286405208,20.680404543740256,20.68040454374028,-4.001589669606009,8.31765963334105,-2.726290968150789,19.68469552411429,,0.0,,,65.01,,,10.4408368,63.412033,20190820,195707,2019-08-20T19:57:07Z,123.599,2.91,6.28,58.89,3,1,4,0.0,0.01,0.0,0,0,0,0,0,0,,,,false,false,false,false,false,false,false,false,false,false,0,0,0,0,55,72,73,54,944,945,945,945,940,940,940,940,0.0,0.0,0.0,0.0,1686.4,1680.9,1680.3,1685.2,0.0,0.0,0.0,0.0,0,0,0,0,-45.0,-3.9030443579448375E-12,4.751418592088518E-11,0,88.90349,90.63902,0.05782508,0.0042452,-1.0045371,1.006209,0.4571235,0.50760233,0.16848941,0.70356995,507,-202,1428,1528.0,0.0019404136,3.3568038E-5,4.900929E-4,0.0020016301,0.0019407039776845009,-0.0019356522821149073,0.35742253261077356,3.4657962124045394,20.13075799965848,20.1307579996585,-4.2763116048122445,8.146489600964093,-2.838894276540153,19.598973028623874,,5.453382080343623E-4,,,65.01,NONE,0.0,0.0,0.0,NONE,-5.339659586487063E-12,4.3295060068616855E-11,0.0,16.967,16.967,6.053,1.4172615,0,3075,4.239,12.0,1.408,90,29.8,OK,509,0,0,0,0,0,65,100,0.0,0,0.0,589232.0,2.69E-43,0.0,-3.3654391E38,62,1.0914047E-12,-1.091412E-12,9.4E-44,False,False,0,None,0.0,1.0842022E-19,
2041513718,530.580,0.0,0.0,0,89.28663,89.28292,0.07380801,-0.0076717115,-0.9768949,0.9797092,0.26258156,-0.35235983,0.19439493,0.4805163,516,-202,1431,1534.0,-0.008191024,-0.0037734802,-0.005286969,0.010453902,0.009018426808006694,-0.009018426808006694,0.36797702157150985,3.5211305201263934,20.675785564106913,20.67578556410689,-4.193256976892047,8.781486340334052,-2.930709971545651,19.306569920918086,,0.0,,,64.99,,,10.440839,63.4120327,20190820,195708,2019-08-20T19:57:08Z,123.693,99.99,99.99,58.52,0,0,0,0.02,0.02,0.0,0,0,0,0,0,0,,,,false,false,false,false,false,false,false,false,false,false,0,0,0,0,54,71,72,54,945,945,944,945,940,940,940,940,0.0,0.0,0.0,0.0,1686.4,1680.9,1680.9,1685.2,0.0,0.0,0.0,0.0,0,0,0,0,-45.0,-8.359401266623096E-11,5.1843639635813644E-11,0,89.13073,90.639496,0.058203015,0.0016303053,-0.99284714,0.994553,-1.1380211,-1.4111092,1.5036254,2.3552518,513,-202,1428,1530.0,0.0022447857,-0.0035918176,3.9632845E-4,0.0042540915,0.004235589204815435,-0.004226719315888919,0.3202169010522885,3.3134757285403404,20.160239929100893,20.160239929100896,-4.33963166282177,8.361594568523586,-3.2066440452566063,19.44983669761201,,5.823140722318196E-4,,,64.97,NONE,0.0,0.0,0.0,NONE,-1.2516095141164085E-10,1.6988399917132663E-11,-7.6293945E-6,16.965,16.965,6.055,1.4147196,0,3074,4.238,12.0,1.409,90,29.8,OK,510,0,0,0,0,0,65,100,0.0,0,0.0,589232.0,2.69E-43,0.0,-1.05007105E-23,62,1.0914047E-12,-1.091412E-12,9.4E-44,False,False,0,None,0.0,1.0842022E-19,
2045454866,531.605,0.0,0.0,0,89.34476,89.26733,0.060694065,-0.014617364,-0.9994604,1.0014083,0.057354886,-0.27826825,-0.90658724,0.95006484,513,-199,1431,1533.0,-0.00833051,-0.0033053304,0.0029521245,0.009435976,0.008962288026150761,-0.008962288026150761,0.41089994462135093,3.5581639983054707,20.6352399118313,20.63523991183132,-4.456493503473702,9.186981403094533,-3.4875723390379516,19.205167627066153,,0.0,,,65.01,,,10.4408395,63.412033,20190820,195709,2019-08-20T19:57:09Z,123.693,99.99,99.99,58.52,0,0,0,0.02,0.02,0.0,0,0,0,0,0,0,,,,false,false,false,false,false,false,false,false,false,false,0,0,0,0,54,72,71,55,945,945,944,945,940,940,940,940,0.0,0.0,0.0,0.0,1685.8,1681.5,1680.9,1684.6,0.0,0.0,0.0,0.0,0,0,0,0,-45.0,-9.637322146239054E-11,-9.062571478721695E-12,0,89.093735,90.63987,0.060180157,-0.008856027,-0.996368,0.99822307,0.31624886,-0.06277619,0.013217023,0.32269007,513,-199,1431,1533.0,-4.1710216E-4,-0.0043467307,-0.0014913215,0.004614334,0.004366696723365476,-0.004359940870900338,0.35836350967348074,3.5040804688157383,20.119300189762985,20.11930018976301,-4.201588883327024,8.635331626711567,-4.672619263134934,19.132152653841498,,6.102854733429656E-4,,,64.97,NONE,0.0,0.0,0.0,NONE,-8.856138105823882E-11,-5.144102135246401E-12,0.0,16.965,16.965,6.054,1.4147196,0,3074,4.238,12.0,1.409,90,29.8,OK,510,0,0,0,0,0,65,100,0.0,0,0.0,589232.0,2.69E-43,0.0,-1.05007105E-23,62,1.0914047E-12,-1.091412E-12,9.4E-44,False,False,0,None,0.0,1.0842022E-19,
2049366675,532.621,0.0,0.0,0,89.04089,89.28409,0.060981195,-0.007064047,-0.9981521,1.000038,0.4145452,-0.34781635,-0.20975325,0.58036226,504,-199,1431,1530.0,-0.010721942,-0.0038097077,-0.007001153,0.013360018,0.011378660708298084,-0.011378660708298084,0.4046325996055961,3.5634487062961115,20.628060105773006,20.628060105772988,-4.668245635029589,9.526416556610567,-3.656444089126519,19.457486831560455,,0.0,,,65.0,,,10.4408399,63.4120332,20190820,195710,2019-08-20T19:57:10Z,123.693,99.99,99.99,58.52,0,0,0,0.02,0.02,0.0,0,0,0,0,0,0,,,,false,false,false,false,false,false,false,false,false,false,0,0,0,0,55,72,71,54,945,945,944,945,940,940,940,940,0.0,0.0,0.0,0.0,1685.2,1680.9,1680.9,1685.2,0.0,0.0,0.0,0.0,0,0,0,0,-45.0,-7.064225315761985E-11,-2.0133005548259797E-11,0,88.882355,90.64086,0.061543193,-0.0067591695,-0.9970278,0.9989483,0.4206231,0.02934878,0.11126298,0.43607864,504,-199,1431,1530.0,-8.544959E-4,-0.0032523547,-0.0031407177,0.0046013133,0.003362733128174693,-0.0033596694510574358,0.35812116067597694,3.5076429947309693,20.101295411206653,20.10129541120665,-4.47648132169884,8.886285652355067,-4.862481295238918,19.39846992802163,,6.500537687195339E-4,,,64.99,NONE,0.0,0.0,0.0,NONE,-9.804539451753615E-11,-3.768716257930742E-11,-7.6293945E-6,16.965,16.965,6.053,1.4125896,0,3074,4.238,12.0,1.408,90,29.8,OK,511,0,0,0,0,0,65,100,0.0,0,0.0,589232.0,2.69E-43,0.0,-1.05007105E-23,62,1.0914047E-12,-1.091412E-12,9.4E-44,False,False,0,None,0.0,1.0842022E-19,
2053288401,533.641,0.0,0.0,0,88.93784,89.2723,0.056092747,-0.010501999,-0.9992632,1.0008914,0.40466562,-0.6295141,-0.11680896,0.757421,513,-196,1434,1535.0,-0.009893531,-0.00394609,-0.0068421825,0.012659741,0.010651458951545695,-0.010651458951545695,0.390048776815801,3.5436512342856252,20.609494967198238,20.60949496719826,-4.85271109782082,9.802426891150342,-3.8583219241657543,18.91169106961838,,0.0,,,64.99,,,10.4408403,63.4120334,20190820,195711,2019-08-20T19:57:11Z,123.692,99.99,99.99,58.53,0,0,0,0.02,0.02,0.0,0,0,0,0,0,0,,,,false,false,false,false,false,false,false,false,false,false,0,0,0,0,56,72,72,55,944,945,944,944,940,940,940,940,0.0,0.0,0.0,0.0,1685.8,1680.3,1680.9,1684.6,0.0,0.0,0.0,0.0,0,0,0,0,-45.0,-2.5117890444383235E-11,1.651885287367068E-11,0,89.16508,90.643196,0.06235211,-0.00627492,-0.9970302,0.9989977,0.9495848,-0.53124905,0.728987,1.309717,510,-199,1434,1534.0,7.330893E-4,-0.0011166419,-0.006807067,0.006936892,0.0013357802986738508,-0.001329404173722491,0.35435897063534966,3.4780408450160842,20.09243108911753,20.092431089117554,-4.5449554414559055,9.315641690123702,-5.082710835795194,19.227695718881414,,6.73765340209024E-4,,,65.03,NONE,0.0,0.0,0.0,NONE,-3.0717160388603164E-11,2.7986676414387287E-11,-1.5258789E-5,16.965,16.965,6.053,1.4108146,0,3073,4.237,12.0,1.405,90,29.8,OK,512,0,0,0,0,0,65,100,0.0,0,0.0,589232.0,2.69E-43,0.0,-1.05007105E-23,62,1.0914047E-12,-1.091412E-12,9.4E-44,False,False,0,None,0.0,1.0842022E-19,
2057202420,534.658,0.0,0.0,0,89.01711,89.23961,0.059701942,-0.0038627288,-1.002607,1.0043904,0.46868268,-0.03931838,-0.023716617,0.4709266,510,-202,1431,1532.0,-0.010443876,-0.0042777197,0.01811856,0.021346092,0.011285983488864762,-0.011285983488864762,0.3956298630608701,3.541260915475929,20.60616043552554,20.606160435525567,-5.191184556821537,10.11045263274081,-4.092854261681615,19.52996638931708,,0.0,,,64.97,,,10.4408407,63.4120337,20190820,195712,2019-08-20T19:57:12Z,123.692,99.99,99.99,58.54,0,0,0,0.02,0.02,0.0,0,0,0,0,0,0,,,,false,false,false,false,false,false,false,false,false,false,0,0,0,0,55,71,71,54,944,945,944,945,940,940,940,940,0.0,0.0,0.0,0.0,1685.8,1680.9,1680.9,1685.2,0.0,0.0,0.0,0.0,0,0,0,0,-45.0,-9.752355934967895E-11,1.0139706093489827E-11,0,88.964264,90.64361,0.06393742,-0.0057711545,-0.9942476,0.99631804,0.2816476,-0.41918254,-0.4317244,0.6643985,513,-199,1431,1533.0,4.9496756E-4,-0.00427747,-0.0047632395,0.0064210743,0.004306012421577049,-0.0042980670386961305,0.3458015675944466,3.4717369567755796,20.084489087808755,20.084489087808777,-4.6353228205964205,9.696520777408386,-5.039094317832364,19.12864386952143,,6.993488727981429E-4,,,64.98,NONE,0.0,0.0,0.0,NONE,-9.241475167865837E-11,2.7290199073859492E-11,-7.6293945E-6,16.966,16.966,6.055,1.4077722,0,3072,4.238,12.0,1.404,90,29.8,OK,514,0,0,0,0,0,65,100,0.0,0,0.0,589232.0,2.69E-43,0.0,-1.05007105E-23,62,1.0914047E-12,-1.091412E-12,9.4E-44,False,False,0,None,0.0,1.0842022E-19,
2061145966,535.683,0.0,0.0,0,88.829506,89.20473,0.05927822,-0.010047254,-0.997992,0.9998014,0.17628513,0.24546804,-0.293381,0.42119285,507,-205,1434,1534.0,-0.007213277,-0.0032280493,0.008056307,0.0112852,0.007902636364290215,-0.007902636364290215,0.4017914508536839,3.5518916608244058,20.62323729151237,20.623237291512396,-5.3340073522770375,10.474488857744378,-4.086388817428862,19.87831828413209,,0.0,,,64.94,,,10.4408411,63.4120339,20190820,195713,2019-08-20T19:57:13Z,123.692,99.99,99.99,58.55,0,0,0,0.02,0.02,0.0,0,0,0,0,0,0,,,,false,false,false,false,false,false,false,false,false,false,0,0,0,0,55,72,71,56,945,945,944,946,940,940,940,940,0.0,0.0,0.0,0.0,1684.6,1680.9,1681.5,1684.0,0.0,0.0,0.0,0.0,0,0,0,0,-45.0,-1.0265563524317594E-10,7.307364925101653E-11,0,89.011826,90.642265,0.0579906,0.0033813687,-1.0017018,1.0033847,0.53967386,-0.33024585,-0.34387147,0.7201096,504,-202,1428,1527.0,0.0030986066,-0.004513357,-9.120886E-5,0.005475406,0.005474646304163273,-0.005467795785724779,0.34342828336034453,3.4817258572821435,20.08386886232401,20.08386886232404,-4.887648730576588,9.800154411473246,-5.314215468599158,19.648856281967724,,7.186916496948822E-4,,,64.98,NONE,0.0,0.0,0.0,NONE,-7.624779764979637E-11,6.615070634690146E-11,0.0,16.966,16.966,6.056,1.4065549,0,3072,4.238,12.0,1.406,90,29.8,OK,515,0,0,0,0,0,65,100,0.0,0,0.0,589232.0,2.69E-43,0.0,-1.05007105E-23,62,1.0914047E-12,-1.091412E-12,9.4E-44,False,False,0,None,0.0,1.0842022E-19,
2065055963,536.699,0.0,0.0,0,89.0541,89.227356,0.06137165,-0.010310731,-0.99612063,0.9980627,0.5328598,-0.21586558,-0.42521235,0.7150826,513,-205,1431,1533.0,-0.0047495104,-0.004684829,-0.009344598,0.011481593,0.00667124243833415,-0.00667124243833415,0.40057113242068526,3.536014211947877,20.642978268681023,20.64297826868102,-5.509272495117002,10.78081603732388,-3.9890428126364665,19.708454818957716,,0.0,,,65.03,,,10.4408415,63.4120341,20190820,195714,2019-08-20T19:57:14Z,123.692,99.99,99.99,58.57,0,0,0,0.02,0.02,0.0,0,0,0,0,0,0,,,,false,false,false,false,false,false,false,false,false,false,0,0,0,0,56,70,70,54,945,945,944,945,940,940,940,940,0.0,0.0,0.0,0.0,1684.6,1681.5,1680.3,1684.6,0.0,0.0,0.0,0.0,0,0,0,0,-45.0,-7.884860716334904E-11,8.313387744486903E-11,0,89.191505,90.64284,0.06091897,-0.010560742,-0.9988747,1.0007863,0.17419805,-0.7192206,-0.2164313,0.77101606,513,-205,1431,1533.0,0.0037257404,-0.003621556,-0.0016735616,0.0054587196,0.005195845411297816,-0.005193017326779296,0.3513519406178198,3.4760323573425174,20.11284805019241,20.112848050192383,-4.979885802777493,10.091448697142296,-5.4943362601129815,19.6483203695439,,7.375106306931758E-4,,,64.99,NONE,0.0,0.0,0.0,NONE,-9.036087557901944E-11,7.469667150839721E-11,-7.6293945E-6,16.964,16.964,6.053,1.4065549,0,3072,4.237,12.0,1.406,90,29.8,OK,515,0,0,0,0,0,65,100,0.0,0,0.0,589232.0,2.69E-43,0.0,-1.05007105E-23,62,1.0914047E-12,-1.091412E-12,9.4E-44,False,False,0,None,0.0,1.0842022E-19,
2068953097,537.712,0.0,0.0,0,89.15715,89.23698,0.061979752,-0.009756345,-0.99792606,0.9998965,0.19718185,-0.3360404,-0.25530514,0.465816,510,-199,1431,1532.0,-0.0031905987,-0.005695167,-0.010923703,0.0127256485,0.006528004839827822,-0.006528004839827822,0.40846695840484265,3.547549412871999,20.635516019205927,20.63551601920591,-5.533426247559658,11.160604864039964,-4.06468331917222,19.296804934373558,,0.0,,,65.05,,,10.4408419,63.4120343,20190820,195715,2019-08-20T19:57:15Z,123.692,99.99,99.99,58.59,0,0,0,0.02,0.02,0.0,0,0,0,0,0,0,,,,false,false,false,false,false,false,false,false,false,false,0,0,0,0,56,72,71,55,945,945,943,946,940,940,940,940,0.0,0.0,0.0,0.0,1684.6,1680.3,1681.5,1685.2,0.0,0.0,0.0,0.0,0,0,0,0,-45.0,-7.065767811554624E-11,6.634312650492673E-11,0,89.05939,90.6434,0.04810717,-0.0034899684,-1.0135005,1.0146476,0.11958656,1.834114,-0.1361191,1.8430419,504,-199,1434,1532.0,0.0026436641,-0.0031332173,-0.0056406744,0.006973035,0.00409951345103534,-0.004097462447590887,0.3532180399456412,3.5243514394112485,20.095620499158297,20.095620499158315,-5.237988729645389,10.351240410394105,-5.765264793609885,19.371513546232485,,7.593554371331471E-4,,,65.02,NONE,0.0,0.0,0.0,NONE,-6.10233363991115E-11,1.0153928454420733E-10,-7.6293945E-6,16.964,16.964,6.053,1.4057094,0,3072,4.238,12.0,1.407,90,29.8,OK,516,0,0,0,0,0,65,100,0.0,0,0.0,589232.0,2.69E-43,0.0,-1.05007105E-23,62,1.0914047E-12,-1.091412E-12,9.4E-44,False,False,0,None,0.0,1.0842022E-19,
2072872814,538.730,0.0,0.0,0,89.05939,89.23375,0.06292287,-0.0144943055,-0.99391645,0.9960117,0.26682052,-0.65627533,-0.3481793,0.7893791,518,-196,1437,1540.0,-0.006543395,-3.674822E-4,-0.0049677766,0.008223738,0.006553705967939764,-0.006553705967939764,0.4511335581538248,3.4182026409653,20.650409180809074,20.65040918080905,-5.804624897965081,11.453613425446875,-4.3286626023722885,18.9825727760883,,0.0,,,65.0,,,10.4408423,63.4120346,20190820,195716,2019-08-20T19:57:16Z,123.692,99.99,99.99,58.62,0,0,0,0.02,0.02,0.0,0,0,0,0,0,0,,,,false,false,false,false,false,false,false,false,false,false,0,0,0,0,54,72,72,55,945,944,943,946,940,940,940,940,0.0,0.0,0.0,0.0,1684.6,1680.9,1680.9,1684.0,0.0,0.0,0.0,0.0,0,0,0,0,-45.0,1.1812924920586426E-11,7.452934961405395E-11,0,88.86385,90.64372,0.04899842,0.0016411915,-1.0041417,1.0053377,0.19112937,0.59126425,0.6525023,0.90104556,518,-193,1431,1534.0,0.0030626035,5.9670437E-4,-0.0015781309,0.003496583,0.003120191805746489,-0.003111145740511232,0.4025500094400487,3.3472170830646135,20.105976690241523,20.105976690241505,-5.317515633410381,10.591512545727488,-5.7083386984869655,18.67960862782386,,7.985567720164533E-4,,,65.0,NONE,0.0,0.0,0.0,NONE,2.1017719994227864E-11,9.775780998409895E-11,-7.6293945E-6,16.964,16.964,6.053,1.4052305,0,3071,4.238,12.0,1.406,90,29.8,OK,517,0,0,0,0,0,65,100,0.0,0,0.0,589232.0,2.69E-43,0.0,-1.05007105E-23,62,1.0914047E-12,-1.091412E-12,9.4E-44,False,False,0,None,0.0,1.0842022E-19,
2076728814,539.733,0.0,0.0,0,89.28398,89.21253,0.04487256,-0.02625883,-1.0101186,1.0114558,1.7873076,0.6271276,-0.0065308213,1.894149,538,-190,1428,1537.0,-0.0048732483,-0.0012902399,0.006694926,0.008380651,0.005041157436934923,-0.005041157436934923,0.26129729612641195,3.0685277761903134,20.585271821748865,20.585271821748847,-6.190953393865789,11.444676413123196,-5.291046942033349,17.757470208736947,,0.0,,,64.98,,,10.4408427,63.4120348,20190820,195717,2019-08-20T19:57:17Z,123.692,99.99,99.99,58.65,0,0,0,0.02,0.02,0.0,0,0,0,0,0,0,,,,false,false,false,false,false,false,false,false,false,false,0,0,0,0,55,70,71,55,945,945,944,946,940,940,940,940,0.0,0.0,0.0,0.0,1684.6,1680.9,1680.3,1684.6,0.0,0.0,0.0,0.0,0,0,0,0,-45.0,4.7180587914128935E-11,1.707519814393779E-11,0,88.882355,90.639404,0.058171596,-0.013899522,-1.010739,1.012507,0.6391826,2.2046337,0.06643465,2.2963836,541,-193,1431,1541.0,7.802236E-4,0.0018814693,-0.002704651,0.0033858253,0.0020368297777544255,-0.0020293438923493787,0.3114312901744862,3.196915707507925,20.092466676231407,20.092466676231425,-5.47382918677074,10.64766719608425,-5.515604197968138,17.946221801973643,,8.682348989340745E-4,,,64.99,NONE,0.0,0.0,0.0,NONE,-1.04335651557768E-11,1.116246110782415E-10,7.6293945E-6,16.964,16.964,6.055,1.4049046,0,3071,4.238,12.0,1.401,90,29.8,OK,518,0,0,0,0,0,65,100,0.0,0,0.0,589232.0,2.69E-43,0.0,-1.05007105E-23,62,1.0914047E-12,-1.091412E-12,9.4E-44,False,False,0,None,0.0,1.0842022E-19,
2080626269,540.745,0.0,0.0,0,89.04353,89.17972,0.0589883,-0.012224093,-1.0035998,1.0054061,0.015818909,1.8460296,0.382529,1.8853128,516,-205,1425,1529.0,-0.011683913,8.8744564E-5,0.0038101184,0.01228978,0.01168424959276607,-0.01168424959276607,0.3479414870349725,3.583123778567808,20.65447217704955,20.65447217704957,-6.349526154138083,11.90482277893588,-5.276972293539323,19.480862631365387,,0.0,,,65.01,,,10.440843,63.4120349,20190820,195718,2019-08-20T19:57:18Z,123.692,99.99,99.99,58.68,0,0,0,0.0,0.0,0.0,0,0,0,0,0,0,,,,false,false,false,false,false,false,false,false,false,false,0,0,0,0,55,72,71,54,945,944,944,946,940,940,940,940,0.0,0.0,0.0,0.0,1685.2,1679.7,1680.3,1685.2,0.0,0.0,0.0,0.0,0,0,0,0,-45.0,-1.8421407255099687E-10,5.964188509834322E-11,0,88.805725,90.64372,0.055815067,-0.0042632185,-1.008235,1.0097878,0.12768902,1.6320797,-0.060031414,1.6381674,521,-202,1428,1533.0,7.60289E-4,-0.0026894042,-0.0069321617,0.007474343,0.0027948048628119613,-0.002768977199926526,0.3157470446622691,3.4199782418649374,20.115494063861107,20.115494063861092,-5.508370700816241,11.062081809096712,-5.458701021608224,19.125372621586564,,9.936632099484194E-4,,,65.01,NONE,0.0,0.0,0.0,NONE,-6.368375432897821E-11,1.2306524474824961E-11,-1.5258789E-5,16.965,16.965,6.055,1.404161,0,3070,4.237,12.0,1.385,90,29.8,OK,519,0,0,0,0,0,65,100,0.0,0,0.0,589232.0,2.69E-43,0.0,-3.3654391E38,62,1.0914047E-12,-1.091412E-12,9.4E-44,False,False,0,None,0.0,1.0842022E-19,
