Tick#,offsetTime,IMU_ATTI(0):Longitude,IMU_ATTI(0):Latitude,IMU_ATTI(0):numSats,IMU_ATTI(0):barometer:Raw,IMU_ATTI(0):barometer:Smooth,IMU_ATTI(0):accel:X,IMU_ATTI(0):accel:Y,IMU_ATTI(0):accel:Z,IMU_ATTI(0):accel:Composite,IMU_ATTI(0):gyro:X,IMU_ATTI(0):gyro:Y,IMU_ATTI(0):gyro:Z,IMU_ATTI(0):gyro:Composite,IMU_ATTI(0):mag:X,IMU_ATTI(0):mag:Y,IMU_ATTI(0):mag:Z,IMU_ATTI(0):mag:Mod,IMU_ATTI(0):velN,IMU_ATTI(0):velE,IMU_ATTI(0):velD,IMU_ATTI(0):velComposite,IMU_ATTI(0):velH,IMU_ATTI(0):GPS-H,IMU_ATTI(0):roll,IMU_ATTI(0):pitch,IMU_ATTI(0):yaw,IMU_ATTI(0):yaw360,IMU_ATTI(0):totalGyro:Z,IMU_ATTI(0):totalGyro:X,IMU_ATTI(0):totalGyro:Y,IMU_ATTI(0):magYaw,IMU_ATTI(0):distanceHP,IMU_ATTI(0):distanceTravelled,IMU_ATTI(0):directionOfTravel[mag],IMU_ATTI(0):directionOfTravel[true],IMU_ATTI(0):temperature,General:relativeHeight,General:absoluteHeight,GPS(0):Long,GPS(0):Lat,GPS(0):Date,GPS(0):Time,GPS:dateTimeStamp,GPS(0):heightMSL,GPS(0):hDOP,GPS(0):pDOP,GPS(0):sAcc,GPS(0):numGPS,GPS(0):numGLNAS,GPS(0):numSV,GPS(0):velN,GPS(0):velE,GPS(0):velD,RC:Aileron,RC:Elevator,RC:Rudder,RC:Throttle,Controller:navHealth,Controller:ctrl_level,HP:Longitude,HP:Latitude,HP:rthHeight,BatBlackBox:tick,BatBlackBox:id,BatBlackBox:rsoc,BatBlackBox:index,BatBlackBox:rm,BatBlackBox:fcc,BatBlackBox:cell_min,BatBlackBox:cell_max,BatBlackBox:current,BatBlackBox:voltage,BatBlackBox:temp,BatBlackBox:flag,BatBlackBox:reserve,BatBlackBox:user_data,OA:avoidObst,OA:emergBrake,OA:radiusLimit,OA:airportLimit,OA:groundForceLanding,OA:horizNearBoundary,OA:vertLowLimit,OA:vertAirportLimit,OA:roofLimit,OA:hitGroundLimit,Motor:Speed:RFront,Motor:Speed:LFront,Motor:Speed:LBack,Motor:Speed:RBack,Motor:EscTemp:RFront,Motor:EscTemp:LFront,Motor:EscTemp:LBack,Motor:EscTemp:RBack,Motor:PPMrecv:RFront,Motor:PPMrecv:LFront,Motor:PPMrecv:LBack,Motor:PPMrecv:RBack,Motor:PPMsend:RFront,Motor:PPMsend:LFront,Motor:PPMsend:LBack,Motor:PPMsend:RBack,Motor:V_out:RFront,Motor:V_out:LFront,Motor:V_out:LBack,Motor:V_out:RBack,Motor:Volts:RFront,Motor:Volts:LFront,Motor:Volts:LBack,Motor:Volts:RBack,Motor:Current:RFront,Motor:Current:LFront,Motor:Current:LBack,Motor:Current:RBack,Motor:Status:RFront,Motor:Status:LFront,Motor:Status:LBack,Motor:Status:RBack,Motor:thrustAngle,IMU_ATTI(1):Longitude,IMU_ATTI(1):Latitude,IMU_ATTI(1):numSats,IMU_ATTI(1):barometer:Raw,IMU_ATTI(1):barometer:Smooth,IMU_ATTI(1):accel:X,IMU_ATTI(1):accel:Y,IMU_ATTI(1):accel:Z,IMU_ATTI(1):accel:Composite,IMU_ATTI(1):gyro:X,IMU_ATTI(1):gyro:Y,IMU_ATTI(1):gyro:Z,IMU_ATTI(1):gyro:Composite,IMU_ATTI(1):mag:X,IMU_ATTI(1):mag:Y,IMU_ATTI(1):mag:Z,IMU_ATTI(1):mag:Mod,IMU_ATTI(1):velN,IMU_ATTI(1):velE,IMU_ATTI(1):velD,IMU_ATTI(1):velComposite,IMU_ATTI(1):velH,IMU_ATTI(1):GPS-H,IMU_ATTI(1):roll,IMU_ATTI(1):pitch,IMU_ATTI(1):yaw,IMU_ATTI(1):yaw360,IMU_ATTI(1):totalGyro:Z,IMU_ATTI(1):totalGyro:X,IMU_ATTI(1):totalGyro:Y,IMU_ATTI(1):magYaw,IMU_ATTI(1):distanceHP,IMU_ATTI(1):distanceTravelled,IMU_ATTI(1):directionOfTravel[mag],IMU_ATTI(1):directionOfTravel[true],IMU_ATTI(1):temperature,IMUEX(0):err,IMUEX(0):rtk_Longitude,IMUEX(0):rtk_Latitude,IMUEX(0):rtk_Alti,IMUEX(1):err,IMUEX(1):rtk_Longitude,IMUEX(1):rtk_Latitude,IMUEX(1):rtk_Alti,MotorCtrl:Status,MotorCtrl:PWM:RFront,MotorCtrl:PWM:LFront,MotorCtrl:PWM:LBack,MotorCtrl:PWM:RBack,BattInfo:Voltage,BattInfo:BatVoltage,BattInfo:AdVoltage,BattInfo:AvgCurrent,BattInfo:R_time,BattInfo:R_CAP_MAH,BattInfo:LowCellVoltage,BattInfo:LowCellVolThreshold,BattInfo:BatCurrent,BattInfo:Remaining%,BattInfo:Temp,BattInfo:status,battery_info:BatDynCnt,battery_info:Vol1Protect,battery_info:Vol2Protect,battery_info:Cap1Protect,battery_info:Cap2Protect,battery_info:Batpresent,battery_info:sopPercentage,battery_info:sopValue,battery_info:sopScale,battery_info:sopFlg,BattInfo:WindHeading:WindDir,battery_info:home_dir,BattInfo:Wind:rangeMin,BattInfo:Wind:rangeMax,battery_info:cap_speed,battery_info:against_wind,battery_info:emergency_land_cap,battery_info:intel_bat_land_cap,battery_info:intel_bat_gh_cap,BattInfo:Smart:SmartGh,BattInfo:Smart:SmartLand,BattInfo:GoHome:CntDown,BattInfo:GoHome:GhCmd,BattInfo:GoHome:CapLevel,BattInfo:GoHome:LandCapLv,Attribute|Value,ConvertDatV3,3.6.6-Tablet
50003270,.000,13.62316010420215,66.28316770754031,16,-25.27643,-25.7692,-0.028195197,0.008204503,-0.98248833,0.9829271,0.11743176,-0.027283618,0.08215465,0.14589037,-19,223,1508,1524.0,-0.00826711,0.0062855342,0.09825586,0.09880317,0.01038523254155137,-0.01038523254155137,-0.5638622667455281,-1.5510914437254453,-104.03766738431864,255.96233261568136,0.2054074717669332,0.6940454979785751,-0.003900148425431128,-104.10273404904785,0.41599501410587936,0.4867447312440048,-43.51290627279696,-38.44841898254344,47.42,,,13.6231593,66.2831677,20190520,81937,2019-05-20T08:19:37Z,17.32,0.71,1.4,19.54,8,8,16,0.0,0.02,0.02,0,0,737,-315,5,5,13.623164940791087,66.28316451197128,50,,,,,,,,,,,,,,,false,false,false,false,false,false,false,false,false,false,0,0,0,0,52,64,65,51,945,944,944,945,940,940,940,940,0.0,0.0,0.0,0.0,1707.9,1703.6,1703.0,1708.5,0.0,0.0,0.0,0.0,0,0,0,0,-45.0,13.623159726796633,66.28316735229699,0,-25.4244,-25.459944,-0.027961757,0.00844959,-0.982228,0.9826622,0.1584273,-0.15561202,0.19075565,0.2927491,-19,223,1508,1524.0,-0.0017218194,0.0017740689,0.0011095784,0.0027098241,0.0024722424348909687,-0.0024722424348909687,-0.47738699674288676,-1.6290309973262036,-102.8397894166311,257.1602105833689,0.27077983481085854,0.46120640239896676,-0.04070042108411733,-104.70238321060226,0.39259075423602624,7448886.165000698,-44.72303841148174,-39.658551121228214,47.39,NONE,0.0,0.0,0.0,NONE,2.1897560219799602E-11,-1.0497547705210287E-11,1.9073486E-6,,,,,,17.185,17.185,6.144,1.5873917,0,3386,4.291,12.0,1.31,96,25.7,OK,11,0,0,0,0,0,65,100,0.0,0,0.0,8.353371E-16,9.0E-44,0.0,-5.019596E-14,67,5.5879354E-9,-5.587965E-9,1.9972113E-35,False,False,0,None,5.900525E29,1.0842106E-19,Firmware Date| Oct 17 2018
54012716,1.042,13.623158756594883,66.28316879442897,17,-25.257404,-25.777552,-0.030469293,0.0054313364,-0.9841295,0.98461604,-0.2826515,-0.040345278,0.1658912,0.3302113,-19,220,1526,1541.0,-0.008817851,0.006648546,0.09482365,0.09546456,0.011043443827552254,0.11855984746816532,-0.5384979843651422,-1.525278556300964,-104.05013084160142,255.9498691583986,0.0658538912592913,1.0080996458363225,0.02648571902714472,-104.25980057947008,0.5506848390008349,0.6299881816426254,-157.7899944327123,-152.72550714245878,47.74,0.5115646726074203,,13.6231579,66.2831686,20190520,81938,2019-05-20T08:19:38Z,17.523,0.7,1.33,18.63,8,9,17,-0.01,0.0,0.03,0,0,0,0,5,5,13.623164940791087,66.28316451197128,50,,,,,,,,,,,,,,,false,false,false,false,false,false,false,false,false,false,586,558,541,571,54,69,69,55,1311,1320,1316,1314,1302,1302,1302,1302,0.1,0.1,0.1,0.1,1679.1,1674.1,1673.5,1679.7,7.8,7.28,7.89,7.39,0,0,0,0,-118.88658176691072,13.623158496983356,66.28316823272743,0,-25.257404,-25.458199,-0.026885042,0.0041919593,-0.98208517,0.982462,0.6507166,0.2028336,-0.61438775,0.9176306,-19,220,1529,1544.0,-0.001323403,-0.0021424417,-0.002052094,0.0032484676,0.0025182239392301355,0.10524420686836546,-0.4639382633888597,-1.6398577347681695,-103.21976683363532,256.78023316636467,0.41410021889028187,0.6187450443599501,0.1869101920140796,-105.09909733601907,0.5042109786959795,7448886.290265831,-56.644089117314095,-51.57960182706057,47.73,NONE,0.0,0.0,0.0,NONE,-1.4319736179429222E-10,-1.6502421074962232E-12,-1.9073486E-6,1,22.5,22.5,22.5,22.5,17.099,17.099,6.033,1.5831592,0,3386,4.29,12.0,3.239,96,25.7,OK,12,0,0,0,0,0,65,100,0.0,0,0.0,4.3426634E-15,9.0E-44,0.0,-5.019596E-14,67,5.5879354E-9,-5.587965E-9,2.5270382E-35,False,False,0,None,9.918221E29,1.0842106E-19,ACType|MavicEnterprise
57888781,2.049,13.6231572505591,66.28316956303419,17,-25.257404,-25.782402,-0.027902978,0.011370485,-0.9862117,0.98667186,-1.0419587,-3.8063295,-0.933305,4.0552287,-19,217,1514,1529.0,-0.011513206,0.00943975,0.08250956,0.083842054,0.014888344127664927,0.09313253248303438,-0.50293078679204,-1.5574277493106032,-104.0531650486107,255.9468349513893,2.0304393271415826,1.0198974039821576,0.10637865067403612,-104.62440425142655,0.6585965162223272,0.7398802493765717,-35.16932106817912,-30.104833777925602,48.01,0.5115646726074203,,13.6231567,66.2831693,20190520,81939,2019-05-20T08:19:39Z,17.758,0.7,1.33,17.87,8,9,17,-0.02,0.0,0.03,0,0,0,0,5,5,13.623164940791087,66.28316451197128,50,,,,,,,,,,,,,,,false,false,false,false,false,false,false,false,false,false,2082,2077,2073,2077,56,70,70,55,1206,1210,1205,1207,1201,1202,1200,1200,0.0,0.0,0.0,0.0,1701.7,1696.8,1697.5,1701.7,0.73,0.29,0.74,0.24,0,0,0,0,-135.0,13.623157071784764,66.28316911006858,0,-25.257404,-25.498684,-0.028551925,0.0061881877,-0.98288065,0.98331475,-2.1560152,0.5444014,1.0671717,2.4665015,-19,217,1514,1529.0,-0.005230021,-8.6160505E-4,0.03385643,0.034268837,0.005300517560937222,0.11038035935505355,-0.4845980311586755,-1.6298121414782456,-103.1955964138921,256.8044035861079,0.4384393921771524,0.16733333678598108,0.6627852725665604,-105.09891499774761,0.6207029613752947,7448886.409909411,-39.61712995896059,-34.552642668707065,47.99,NONE,0.0,0.0,0.0,NONE,-1.319053797338254E-10,-1.0390878109201847E-10,6.67572E-5,2,10.15,10.2,10.06,10.0,17.059,17.059,6.119,1.6948063,0,3385,4.291,12.0,4.239,96,25.8,OK,13,0,0,0,0,0,65,100,0.0,0,0.0,3.895335E-16,9.0E-44,0.0,-5.019596E-14,67,5.5879354E-9,-5.587965E-9,3.1158874E-35,False,False,0,None,1.2742272E30,1.0842106E-19,dateTime|2019-5-20 8:19:34 GMT
61830156,3.074,13.623155873536541,66.28316983565485,17,-25.037834,-25.672235,-0.01839737,0.010937118,-1.1395162,1.1397172,3.3529098,15.770808,-4.6317306,16.77538,-36,229,1517,1534.0,-0.06900179,-0.07790838,-0.6828399,0.69072515,0.10407191278369729,-0.037060447267561206,0.6239466332160568,0.37742958522612985,-103.18831891004858,256.81168108995143,1.1049329397376737,0.14886704803876719,2.180216162902348,-96.97416346988393,0.031848269341315114,0.8319556702978799,-99.31270467908722,-94.2482173888337,48.4,0.7311348325195297,,13.6231552,66.2831697,20190520,81940,2019-05-20T08:19:40Z,17.975,0.7,1.33,17.26,8,9,17,-0.06,-0.06,-0.03,0,0,0,10000,5,5,13.623156585101267,66.28316984675392,50,,,,,,,,,,,,,,,false,false,false,false,false,false,true,false,false,false,5895,6075,4965,5193,53,70,70,53,1578,1584,1506,1508,1558,1572,1518,1506,0.0,0.0,0.0,0.0,1645.9,1639.8,1641.1,1646.6,6.13,5.12,4.7,3.85,0,0,0,0,-178.48258587498785,13.62315613164386,66.28316929327025,0,-25.257404,-25.6273,-0.02402978,-0.016283631,-1.284413,1.2847409,-1.3729882,14.435273,-6.842143,16.033625,46,207,1511,1525.0,-0.05323384,-0.071733326,-0.2776852,0.29169947,0.08932811026400407,-0.0437164383084806,-0.6183718899974566,-2.871799345978996,-101.77625583308446,258.22374416691554,3.690922955426438,1.2322714268279578,0.21203403430655318,-97.56234520157372,0.06479999365879756,7448886.461411589,-85.19862292443099,-80.13413563417747,48.35,NONE,0.0,0.0,0.0,NONE,-4.0950988795222106E-9,-1.1585410669467891E-9,-0.0019321442,2,46.8,48.53,43.63,41.75,17.019,17.019,5.944,1.9145417,0,3384,4.257,12.0,2.438,96,25.8,OK,14,0,0,0,0,0,65,100,0.0,0,0.0,-123204.0,8.8E-44,0.0,-5.019596E-14,67,6.6341954E-9,-6.111152E-9,1.0674639E-35,False,False,0,None,2.0085577E29,1.2212579E-19,geoDeclination|506 degrees
65744031,4.091,13.623156836072663,66.2831703412061,17,-24.552162,-25.47077,-0.042261254,0.00451398,-0.9554206,0.95636547,-5.598427,0.34229034,-24.549526,25.182112,-30,229,1511,1528.0,0.07325843,0.07830101,0.24010515,0.2629607,0.1072280088094368,-0.03762046537287214,0.5189037325193182,-2.5203528148548537,-111.78443466640799,248.215565333592,-8.173892349988392,-0.7539540207470249,-0.049583298872846654,-114.14287335427132,0.05611465336892781,0.9657079896785042,-1.867100467537215,3.1973868227163083,48.67,1.2168068295898422,,13.6231557,66.2831703,20190520,81941,2019-05-20T08:19:41Z,18.471,0.7,1.33,16.27,8,9,17,0.08,0.07,-0.28,0,0,-4772,0,5,5,13.623156585101267,66.28316984675392,50,,,,,,,,,,,,,,,false,false,false,false,false,false,true,false,false,false,4841,5393,4575,5167,54,69,69,54,1483,1497,1457,1466,1484,1473,1463,1446,0.0,0.0,0.0,0.0,1663.7,1659.4,1660.7,1665.6,4.3,3.19,3.81,2.8,0,0,0,0,-175.352029308613,13.62315694299297,66.28317004343633,0,-24.705338,-24.985548,-0.04159715,0.022061672,-0.9553692,0.9565288,-5.4888706,6.049475,-22.938467,24.349478,-22,238,1505,1523.0,0.04716311,0.076956406,-0.033896737,0.09641388,0.09025877998234376,-8.310840571063433E-4,0.6568347787226742,-2.5957036805177145,-109.73482793344705,250.26517206655296,-3.90663185794049,0.2814598018939625,-0.6692698646743455,-112.23919717635397,0.027101828864886966,7448886.686610585,21.82227211236819,26.886759402621713,48.69,NONE,0.0,0.0,0.0,NONE,5.655197153415961E-9,1.696005353892408E-10,-2.593994E-4,2,40.96,49.06,35.27,47.47,16.982,16.982,5.993,2.2255518,0,3382,4.257,12.0,7.012,96,25.9,OK,15,0,0,0,0,0,65,100,0.0,0,0.0,595.9219,2.69E-43,0.0,-5.019596E-14,67,1.0364829E-8,-7.2479067E-9,1.1676013E-35,False,False,0,None,2.4831336E29,1.519076E-19,geoInclination|7640 degrees
69592132,5.091,13.623156612763868,66.28317167242976,17,-24.7829,-25.624037,-0.054867867,-0.008987639,-0.9910318,0.9925902,-3.673444,3.586581,-5.007067,7.171365,-30,198,1517,1530.0,0.062004372,0.033190683,0.22670086,0.23735932,0.07032896882148258,0.07801743194311435,-0.08594404825767098,-3.332096150829863,-113.6406417370251,246.3593582629749,-10.561374684191748,-1.8696994544010246,0.10373237802526211,-120.52840229886225,0.20300966119056363,1.1264811437003024,-27.77054065614376,-22.706053365890234,49.03,0.9860691434326156,,13.6231556,66.2831712,20190520,81942,2019-05-20T08:19:42Z,18.562,0.7,1.33,15.84,8,9,17,0.13,0.01,-0.09,0,0,0,0,5,5,13.623156585101267,66.28316984675392,50,,,,,,,,,,,,,,,false,false,false,false,false,false,true,false,false,false,5115,5255,5007,4977,54,68,68,54,1485,1511,1479,1474,1481,1488,1469,1476,0.0,0.0,0.0,0.0,1661.9,1655.8,1656.4,1661.9,3.69,3.73,3.92,2.96,0,0,0,0,156.23061114004625,13.623156497657876,66.28317093361927,0,-24.745207,-25.015785,-0.052812517,-0.007912717,-0.98508066,0.9865271,4.126663,5.6322017,5.5938573,8.946635,-25,192,1511,1523.0,0.041051447,0.042066447,0.0062185996,0.059105653,0.0587776081040979,0.042179685548157965,-0.12079685238835598,-3.463779089324516,-112.48499148829835,247.51500851170164,-6.878038926466165,-0.09208637218280913,-0.30515390314714264,-120.77114714590529,0.12091717487945551,7448886.803924467,4.8745728269092075,9.93906011716273,48.95,NONE,0.0,0.0,0.0,NONE,6.442948135987752E-9,2.403053528304358E-9,5.531311E-5,2,46.03,46.83,42.17,43.56,16.788,16.788,5.972,2.7092538,0,3381,4.203,12.0,6.593,96,25.9,OK,16,0,0,0,0,0,65,100,0.0,0,0.0,160120.0,2.69E-43,0.0,-5.019596E-14,67,1.0094254E-8,-7.1801494E-9,1.6415507E-35,False,False,0,None,4.2147023E29,1.5013081E-19,geoIntensity|5254341 nanoTesla
73654276,6.147,13.623154977471206,66.28317145384698,17,-24.387207,-25.39505,-0.059361544,-0.0072843656,-1.1182742,1.1198723,-6.9078927,-8.439599,-9.995239,14.7936,-50,201,1508,1522.0,0.02782795,0.00897275,-1.301527,1.3018553,0.02923876044989801,0.04376306399318204,0.16954905188236538,-2.421644890204027,-113.5567682103916,246.4432317896084,-8.04020734977934,-0.6398527563950285,-0.03350241222734296,-120.0496878006857,0.19262286403301807,1.2376341624946674,-132.9154713400231,-127.85098404976956,49.23,1.3817619687499985,,13.6231544,66.2831714,20190520,81943,2019-05-20T08:19:43Z,18.697,0.7,1.33,15.09,8,9,17,-0.03,0.01,-0.05,0,0,0,5242,5,5,13.623156585101267,66.28316984675392,50,1746081,114,13,152,440,3643,3688,3698,-2385,14832,31,3606,14857,0,false,false,false,false,false,false,true,false,false,false,6396,6450,6053,6117,54,70,69,54,1626,1634,1601,1601,1618,1645,1601,1582,0.0,0.0,0.0,0.0,1622.6,1615.9,1617.1,1622.6,6.14,5.41,5.9,5.52,0,0,0,0,-179.15249111362397,13.623154505815753,66.28317096720978,0,-24.408623,-24.731792,-0.05487686,-0.0042057442,-0.8044749,0.80635536,0.1269617,-7.8882847,-1.6799107,8.066179,-45,204,1517,1531.0,-0.008741199,-0.0074783014,-1.4067072,1.4067543,0.01150363247117356,0.0729517393510368,0.23773721542105142,-2.7968371340948996,-112.46460120340409,247.53539879659593,-4.53083411165615,4.3634888312576345,4.071870695635284,-121.04599360971064,0.15546856846112742,7448886.935337469,-104.00446024569474,-98.93997295544122,49.26,NONE,0.0,0.0,0.0,NONE,-4.3597520832546967E-10,-1.8365582950840837E-10,-8.544922E-4,2,37.08,37.83,34.81,37.43,16.71,16.71,5.838,3.3482013,0,3379,4.186,12.0,7.007,96,25.9,OK,17,0,0,0,0,0,65,100,0.0,0,0.0,1.1413306E-9,9.0E-44,0.0,-5.019596E-14,67,1.1977136E-8,-7.8512725E-9,1.7091784E-35,False,False,0,None,4.5353094E29,1.6246573E-19,
77539881,7.157,13.62315334017324,66.2831710206646,17,-23.13444,-23.962307,-0.05643171,-0.007720711,-0.6635014,0.66594166,-0.7499933,-65.78768,-3.9299004,65.909225,55,207,1517,1532.0,0.014005112,0.0020048507,-1.8926468,1.8926997,0.014147883164923889,0.07264613963198914,0.3169980430001532,-10.51315236343398,-113.4789578267419,246.52104217325808,-7.19081390212846,0.8010503694526283,-6.349960802566791,-138.30174162638824,0.19519445517767675,1.3449432837393174,-156.69522604118922,-151.6307387509357,49.51,2.6345295316162094,,13.6231525,66.2831707,20190520,81944,2019-05-20T08:19:44Z,20.341,0.7,1.33,14.53,8,9,17,-0.36,0.14,-1.14,0,9977,0,0,5,5,13.623156585101267,66.28316984675392,50,1746152,48,12,153,412,3643,3697,3700,-1170,14816,31,212,14811,0,false,false,false,false,false,false,true,false,false,false,4514,4850,4737,4779,55,70,70,54,1354,1403,1467,1480,1347,1359,1470,1467,0.0,0.0,0.0,0.0,1674.1,1672.9,1671.1,1674.8,0.6,0.75,2.6,2.7,0,0,0,0,62.66072865799396,13.6231526298559,66.28317039920141,0,-22.902779,-23.321325,-0.046027448,-0.0076376763,-0.6229855,0.62473017,2.8366287,-59.334755,2.2261343,59.444218,186,217,1508,1534.0,-0.07426838,-0.10991304,-1.7309752,1.7360506,0.13265243870772125,-0.028659917816177258,0.3324429216609469,-14.560230374797767,-112.48972043619526,247.51027956380474,-12.651276065405225,-0.8919645327408461,-4.376139480712679,-133.7555312135294,0.18725873783040553,7448887.047959608,-122.39787068963929,-117.33338339938577,49.51,NONE,0.0,0.0,0.0,NONE,-1.5671807103234735E-9,-7.446710038582079E-10,-0.0053577423,2,36.05,36.99,34.61,35.98,16.602,16.602,5.943,4.0937285,0,3376,4.182,12.0,9.503,95,25.9,OK,18,0,0,0,0,0,65,100,0.0,0,0.0,1.5388642E-28,9.0E-44,0.0,-1.05007105E-23,63,4.8926267E-8,-1.5957204E-8,2.3086805E-35,False,False,0,None,8.415284E29,3.0661437E-19,
81389497,8.157,13.62312724705299,66.28316634939787,17,-21.82124,-23.038742,-0.13670377,0.0018375292,-1.4973559,1.5035844,-1.650796,7.3342648,-5.776797,9.480926,352,217,1479,1535.0,-0.7941859,-2.7811368,-1.8539071,3.4354656,2.8923092446034286,-1.6155691446617968,0.21321725592516763,-15.87308617520094,-113.27540399774419,246.7245960022558,-9.756499332835707,-0.32849819253091134,-13.049395847347618,-107.37013181455953,1.3685448921721004,2.625799579335466,-115.14679729533557,-110.08231000508205,49.87,3.9477295285644516,,13.6231267,66.2831659,20190520,81945,2019-05-20T08:19:45Z,21.147,0.7,1.33,14.03,8,9,17,-1.09,-2.25,-1.0,0,10000,0,9991,5,5,13.623156585101267,66.28316984675392,50,1746152,17,12,154,412,3643,3697,3700,-1170,14816,31,0,14811,0,false,false,false,false,false,false,true,false,false,false,6700,6807,6605,6675,56,70,69,55,1671,1683,1659,1666,1667,1678,1650,1657,0.0,0.0,0.0,0.0,1607.3,1601.2,1600.0,1605.5,6.66,6.02,6.62,5.78,0,0,0,0,170.74245097125268,13.623129995065554,66.28316625198575,0,-21.909557,-22.633785,-0.13160363,0.0030661952,-1.4924487,1.498243,-6.1594477,13.087386,-0.48117977,14.472388,370,220,1479,1540.0,-0.7924439,-2.5913205,-1.7232368,3.211301,2.709780311407197,-1.59791841985121,0.2819667693474016,-15.867452122484893,-107.99480610471466,252.00519389528534,-12.004626047221686,-2.206370525794906,-4.724102041736414,-102.91222832173085,1.2546044431655985,7448888.1744594,-127.50071197603302,-122.4362246857795,49.85,NONE,0.0,0.0,0.0,NONE,-1.0327682283793937E-7,-1.4633830750412621E-8,-0.0017738342,2,68.93,69.57,66.01,67.54,16.46,16.46,5.945,4.0937285,0,3376,4.182,12.0,9.503,95,25.9,OK,18,0,0,0,0,0,65,100,0.0,0,0.0,-11.194092,8.8E-44,0.0,-1.05007105E-23,63,8.558527E-8,-2.1873921E-8,4.2656678E-35,False,False,0,None,2.364156E30,3.8411127E-19,
85239166,9.158,13.623047751837296,66.28315274090197,17,-19.180355,-20.24346,-0.13165115,-0.0013972274,-0.7708254,0.7819883,6.01054,-1.198175,2.4656227,6.606172,418,235,1476,1551.0,-2.2057757,-4.0525956,-2.5361567,5.26508,4.6139979052131705,-0.7519733969332041,0.6358620586417587,-17.98320688547234,-117.70898493475836,242.29101506524165,-7.651239661118097,2.287956428484787,-16.238878823689166,-105.07825794869744,5.225952777466555,6.510239274946067,-107.82344099165545,-102.75895370140192,50.16,6.588613927978514,,13.6230461,66.2831529,20190520,81946,2019-05-20T08:19:46Z,24.145,0.7,1.33,13.61,8,9,17,-1.83,-4.11,-2.24,0,10000,0,6990,5,5,13.623156585101267,66.28316984675392,50,1746176,48,12,155,412,3643,3714,3716,0,14863,31,212,4,0,false,false,false,false,false,false,true,false,false,false,4962,5423,5425,5515,54,71,71,54,1427,1452,1458,1488,1424,1436,1447,1471,0.0,0.0,0.0,0.0,1671.7,1666.8,1667.4,1671.7,1.03,0.81,1.98,1.56,0,0,0,0,33.761478930024055,13.623041556277812,66.28315119740857,0,-18.96067,-19.488825,-0.122311786,0.004051406,-0.63870203,0.6503206,-0.1398382,-3.8262908,0.41492707,3.8512623,398,232,1482,1551.0,-2.0711875,-4.1419783,-2.486185,5.2561316,4.630961313658173,-0.3381293331663482,0.5226186373074192,-17.639177352078793,-115.84090601391692,244.15909398608306,-12.04902125697247,-1.469133017114538,-6.574532763460112,-107.8639691392096,5.546821864934479,7448892.473052771,-118.51232076800562,-113.4478334777521,50.15,NONE,0.0,0.0,0.0,NONE,-2.2279297373189582E-7,-4.616450502296521E-8,-0.0067443848,2,38.74,39.1,39.66,44.07,16.46,16.46,5.945,4.0937285,0,3376,4.182,12.0,9.503,95,25.9,OK,18,0,0,0,0,0,65,100,0.0,0,0.0,-11.194092,8.8E-44,0.0,-1.05007105E-23,63,8.558527E-8,-2.1873921E-8,4.2656678E-35,False,False,0,None,2.364156E30,3.8411127E-19,
89093053,10.159,13.62293664273099,66.28313583995508,17,-18.446611,-18.961422,-0.22690712,0.0058401898,-1.4309729,1.4488631,1.6125603,19.80919,4.672358,20.416546,392,217,1470,1536.0,-2.0862086,-5.655617,-0.82787305,6.084706,6.028123430614752,-0.7238654145793886,1.1969947287419154,-16.246033334817145,-117.14596081068314,242.85403918931686,-8.691545056350074,1.7799546089885334,-13.057896094855018,-100.96443077492458,10.538581386871302,11.824992081634145,-115.5834998843781,-110.51901259412458,50.45,7.322357595581053,,13.6229344,66.2831355,20190520,81947,2019-05-20T08:19:47Z,25.782,0.7,1.33,13.27,8,9,17,-1.82,-5.61,-1.67,0,10000,0,3038,5,5,13.623156585101267,66.28316984675392,50,1746176,48,12,156,412,3643,3714,3716,0,14863,31,212,4,0,false,false,false,false,false,false,false,false,false,false,6224,6320,6642,6782,55,71,70,56,1622,1627,1648,1667,1616,1625,1640,1655,0.0,0.0,0.0,0.0,1611.6,1604.9,1604.9,1610.4,5.69,5.12,6.5,6.17,0,0,0,0,-2.8624052261117185,13.62294129325816,66.28313566478877,0,-18.572153,-18.474888,-0.22691073,0.009874373,-1.415163,1.4332733,-3.69611,29.787336,-3.282796,30.194757,418,213,1464,1537.0,-2.4166563,-5.3709035,-0.7593689,5.9383054,5.889552820713854,-1.091935035342714,0.11878323801523985,-16.794379244418625,-114.40421995455262,245.59578004544738,-14.736333224004573,-5.801923720180888,-1.9223115935173194,-96.24069526032318,10.351844207252904,7448897.278977872,-115.7042696002109,-110.63978230995738,50.46,NONE,0.0,0.0,0.0,NONE,-2.802482256752399E-7,-5.088385732540054E-8,-0.0017433167,2,62.58,62.78,64.63,67.4,16.453,16.453,5.852,6.6221194,0,3369,4.103,12.0,7.968,95,26.1,OK,21,0,0,0,0,0,65,100,0.0,0,0.0,-1.5582338E-23,8.8E-44,0.0,-1.05007105E-23,63,8.167233E-6,-2.1281907E-7,3.2791234E-27,False,False,0,None,-4.6789267E-36,3.0486968E-18,
93007516,11.177,13.62278514029207,66.28311159707154,17,-15.433932,-16.313396,-0.1216798,0.015443786,-0.54714626,0.56072587,43.59776,-67.89091,-4.5123024,80.81028,387,297,1461,1540.0,-2.7403302,-6.2346454,-1.7835293,7.039971,6.810302099845653,0.3577316359780802,4.485431084792153,-18.48675383548989,-115.17676831692853,244.82323168307147,-7.371869930965414,5.6944180455451106,-18.172668773832875,-119.33327577032918,17.830698599413072,19.12021716427502,-118.32552748806984,-113.26104019781631,50.78,10.335036695617674,,13.6227974,66.2831138,20190520,81948,2019-05-20T08:19:48Z,28.536,0.7,1.33,12.97,8,9,17,-2.69,-6.24,-2.47,5145,10000,0,5762,5,5,13.623156585101267,66.28316984675392,50,1746176,48,12,157,412,3643,3714,3716,0,14863,31,212,4,0,false,false,false,false,false,false,false,false,false,false,4840,4932,5161,5253,54,72,72,55,1443,1464,1468,1483,1429,1460,1470,1472,0.0,0.0,0.0,0.0,1659.4,1652.1,1654.6,1658.2,2.87,2.59,2.72,2.78,0,0,0,0,0.0,13.622789051988592,66.28311221987451,0,-15.55621,-15.830824,-0.16401127,0.002229154,-0.5943481,0.61656654,24.948673,-10.614418,2.1017852,27.19411,390,269,1473,1547.0,-2.5685644,-6.3404098,-1.9881796,7.123986,6.8409295388540885,0.32564759482367034,3.555652280286985,-17.391078363897314,-109.44023608383256,250.55976391616744,-15.193452692068862,-1.831908910251403,2.9529470723328357,-112.18611454384023,17.642544184158357,7448904.571119656,-116.55792940035842,-111.4934421101049,50.76,NONE,0.0,0.0,0.0,NONE,-3.55253940760834E-7,-5.6212526472999625E-8,-0.006040573,2,38.41,39.32,39.63,42.09,16.482,16.482,5.96,7.4598775,0,3363,4.164,12.0,12.069,95,26.0,OK,22,0,0,0,0,0,65,100,0.0,0,0.0,-2.3883225E-23,8.8E-44,0.0,-1.05007105E-23,63,1.0275468E-4,-7.5901715E-7,1.8458814E-22,False,False,0,None,-8.4444505E-32,9.600749E-18,
96855997,12.177,13.622612546606478,66.28308738655822,17,-13.205923,-15.568125,-0.27993044,-0.040912446,-1.153203,1.1873971,-10.372366,-17.559267,-52.940388,56.732693,753,275,1331,1553.0,-3.065329,-9.858544,-1.1741382,10.390656,10.324104576908422,-2.1506133558184697,3.6030070140096173,-33.43396217727439,-119.99026557757577,240.00973442242423,-11.498966564866324,-3.207216569209837,-28.9170855141795,-120.63999873250971,26.002176569587974,27.296286953266954,-113.59953453086774,-108.53504724061422,51.06,12.563045919555663,,13.6226319,66.2830905,20190520,81949,2019-05-20T08:19:49Z,29.422,0.7,1.33,12.59,8,9,17,-2.55,-8.85,-1.38,0,10000,-4295,6255,5,5,13.623156585101267,66.28316984675392,50,1746176,48,12,158,412,3643,3714,3716,0,14863,31,212,4,0,false,false,false,false,false,false,false,false,false,false,6694,7340,7025,7857,56,72,71,56,1684,1727,1672,1749,1685,1735,1669,1739,0.0,0.0,0.0,0.0,1590.8,1592.0,1589.5,1592.0,5.86,5.92,5.4,6.59,0,0,0,0,-12.371323454410287,13.622660146775196,66.28309396215545,0,-13.921446,-15.076653,-0.27261528,0.01300766,-1.5225053,1.5467743,-9.091692,6.4147077,3.4277122,11.642876,768,272,1307,1540.0,-2.5617194,-8.635568,-0.38518715,9.015753,9.007521135790842,-2.8965226102122292,1.0542052977091843,-32.266998587333774,-108.34488876763194,251.65511123236806,-15.487620981514278,-3.245225900155612,-12.985768014482991,-101.60669639785061,23.752292336230514,7448910.684663746,-112.37009532253614,-107.30560803228262,51.03,NONE,0.0,0.0,0.0,NONE,-4.483535509340864E-7,-5.60540277104462E-8,-2.4223328E-4,2,71.59,77.94,71.48,80.52,16.476,16.476,5.669,8.214727,0,3361,4.13,12.0,8.566,95,26.1,OK,23,0,0,0,0,0,65,100,0.0,0,0.0,-1.473674E-22,8.8E-44,0.0,-1.05007105E-23,63,2.8651208E-4,-1.2748427E-6,2.956696E-20,False,False,0,None,-8.371247E-30,1.463006E-17,
100705305,13.177,13.62237621329896,66.28304323254989,16,-9.397477,-13.533884,-0.25301355,-0.28762817,-1.1118164,1.1759598,-4.7306323,8.633663,78.73833,79.35139,725,-119,1369,1553.0,-7.248567,-9.836929,-1.8477905,12.358044,12.219120263931199,-0.5694424651918144,-3.9101022030209545,-35.492981749428296,-170.77524533279464,189.22475466720536,-47.22351286715938,-34.27592203926204,-33.438568364966805,173.0269258876026,37.634419114494776,38.99119743577454,-128.4375657078243,-123.37307841757078,51.39,16.37149185003662,,13.6225413,66.2830788,20190520,81949,2019-05-20T08:19:49Z,30.107,0.7,1.33,12.42,8,9,17,-3.59,-10.41,-1.53,0,10000,2016,5693,5,5,13.623156585101267,66.28316984675392,50,1746179,16,12,159,412,3643,3714,3716,0,14867,31,1,17553,0,false,false,false,false,false,false,false,false,false,false,7279,6660,7754,5703,56,72,72,56,1686,1581,1739,1473,1679,1549,1724,1467,0.0,0.0,0.0,0.0,1617.7,1607.9,1610.4,1617.1,6.48,2.94,7.99,0.4,0,0,0,0,108.60283049257691,13.622378450091208,66.28304565288964,0,-9.385624,-12.833789,-0.23015796,-0.31615585,-1.2128023,1.2742907,-17.994045,11.32857,46.20159,50.859703,745,-94,1363,1556.0,-7.1792736,-10.693752,-1.9789395,13.03129,12.880151995597238,0.810292319262528,-2.493807045474885,-36.325283520698854,-166.71433616583488,193.28566383416512,-49.35945549972298,-47.81410118633811,-16.591880712415232,170.59131087395886,37.44156288320372,7448924.439342913,-127.74590201959529,-122.68141472934177,51.38,NONE,0.0,0.0,0.0,NONE,-6.153826216792126E-7,-1.4734417279825488E-7,-0.005051613,2,70.27,53.07,74.86,43.94,16.563,16.563,5.8,9.0137205,0,3356,4.119,12.0,19.336,95,26.1,OK,24,0,0,0,0,0,65,100,0.0,0,0.0,-1.6843304E-23,8.8E-44,0.0,-1.05007105E-23,63,0.0021478534,-3.4329867E-6,5.482762E-20,False,False,0,None,-1.457929E-29,3.8058252E-17,
104631300,14.198,13.622141099552818,66.28297142150468,17,-9.866689,-12.602944,-0.32751584,0.20020854,-0.8878702,0.9672971,6.1371694,2.7686043,-6.040522,9.045326,839,241,1283,1551.0,-8.018928,-11.126878,-0.10889673,13.715775,13.715342174437868,-0.7750854053737886,-0.17148837831438277,-34.828290123042635,-104.1787807967817,255.8212192032183,5.660940090399915,-0.33506654820845094,-43.54359474749463,-100.1023184310842,50.49295829424166,52.205709187279005,-130.93321155640925,-125.86872426615574,51.73,15.902280271667479,,13.6222542,66.283008,20190520,81951,2019-05-20T08:19:51Z,32.834,0.7,1.33,12.07,8,9,17,-8.17,-10.06,-1.94,0,10000,0,0,5,5,13.623156585101267,66.28316984675392,50,1746180,18,12,160,400,3648,3747,3748,2383,14976,31,1,15108,0,false,false,false,false,false,false,false,false,false,false,6245,6474,6572,6880,57,71,72,57,1609,1631,1630,1656,1603,1620,1625,1650,0.0,0.0,0.0,0.0,1611.0,1607.3,1607.3,1611.0,5.24,4.64,5.14,4.87,0,0,0,0,-6.151380693414183,13.622148913394778,66.28297317179026,0,-9.830362,-11.973381,-0.32808235,0.20837954,-0.8903909,0.9715225,13.002309,3.8046105,0.7807897,13.569994,842,226,1274,1543.0,-8.218801,-11.062602,-0.18980165,13.78281,13.781503549609187,-0.9901160949660746,-1.0659655583120065,-34.843727167967394,-99.73043237620416,260.26956762379587,-7.253348928728911,-10.883512824783242,-27.409778337061635,-97.82681824817831,50.093576508404766,7448937.496961925,-132.54751280596957,-127.48302551571605,51.72,NONE,0.0,0.0,0.0,NONE,-5.819837567515154E-7,-1.9383735900437852E-7,-0.001824379,2,60.99,62.23,62.73,66.66,16.058,16.058,5.754,9.0137205,0,3356,4.119,12.0,19.336,95,26.1,OK,24,0,0,0,0,0,65,100,0.0,0,0.0,-2.4427725E-29,8.8E-44,0.0,-1.05007105E-23,63,0.006431818,-6.0015896E-6,1.5377043E-19,False,False,0,None,-3.5883927E-29,5.925208E-17,
108567135,15.220,13.621910525136036,66.28291112328495,17,-12.930855,-12.39105,-0.07972825,0.045386218,-1.3348947,1.3380435,10.831765,2.885987,3.9058487,11.870624,-852,503,1126,1498.0,-4.1730213,-7.7578917,-0.22930448,8.812013,8.809028969985453,3.215970438441314,12.621160780439242,33.600260209215904,-108.68633840545836,251.31366159454166,0.5781175628370625,5.530916346007097,19.725840934570382,-99.45246814049835,62.71709140652676,64.5134873391122,-124.02971826198082,-118.9652309717273,51.96,12.838114202636717,,13.6219259,66.2829144,20190520,81952,2019-05-20T08:19:52Z,33.89,0.7,1.33,11.75,8,9,17,-5.53,-9.19,-0.96,0,0,0,0,5,5,13.623156585101267,66.28316984675392,50,1751167,114,99,161,3624,3622,4382,4390,194,17569,26,3643,17559,0,false,false,false,false,false,false,false,false,false,false,4207,3998,4135,4529,57,72,72,56,1483,1388,1407,1445,1482,1495,1361,1344,0.0,0.0,0.0,0.0,1640.5,1637.3,1637.3,1641.1,4.46,2.04,4.95,4.73,0,0,0,0,-52.721825800131,13.62193645609132,66.28291608834654,0,-13.64065,-12.652901,-0.14448401,0.07436592,-1.4064631,1.4158194,-0.38895175,23.772335,-1.6691941,23.834038,-809,507,1156,1499.0,-5.2156467,-8.703822,-0.057680313,10.147059,10.146895857573073,1.0243637386453894,12.157924708964611,30.678258867397115,-103.69716721354654,256.30283278645345,-8.333688311897703,-3.136705333551489,32.91371866964991,-104.39372054262812,61.43331023562395,7448948.929425939,-125.6548374194674,-120.59035012921387,51.98,NONE,0.0,0.0,0.0,NONE,-4.928657047649459E-7,-1.1897876183357905E-7,-1.1730194E-4,2,43.81,43.66,34.92,35.93,16.42,16.42,5.904,9.999965,0,3352,3.987,12.0,12.409,95,26.3,OK,25,0,0,0,0,0,65,100,0.0,0,0.0,-1.1067477E-31,8.8E-44,0.0,-1.05007105E-23,63,0.0032731295,-4.1501203E-6,6.328959E-19,False,False,0,None,-1.2710213E-28,4.5254644E-17,
112518169,16.247,13.621817554252239,66.28289128386054,16,-8.392554,-12.101036,-0.06574999,0.038399655,-1.1662146,1.1686976,-19.379536,-106.29122,1.265334,108.05087,-761,402,1239,1508.0,-0.22695807,-0.87593204,-0.2918942,0.9507729,0.9048573876342776,3.6791112388752785,5.52794881890314,21.758028747162296,-103.80131641858753,256.19868358141247,-3.341437401218045,-5.454546189422688,11.304301269447992,-129.9622168578433,67.42389122486358,69.22959169323185,-111.70370404104624,-106.63921675079271,52.2,17.37641471685791,,13.6218436,66.2828953,20190520,81953,2019-05-20T08:19:53Z,34.416,0.71,1.4,11.69,8,8,16,-2.8,-4.8,-0.88,0,0,0,0,5,5,13.623156585101267,66.28316984675392,50,1751251,48,99,162,3619,3619,4384,4394,175,17586,26,212,17589,0,false,false,false,false,false,false,false,false,false,false,5854,5599,5522,5556,56,74,73,57,1570,1529,1501,1509,1560,1524,1485,1498,0.0,0.0,0.0,0.0,1637.3,1631.8,1632.5,1636.1,4.88,3.55,3.37,2.98,0,0,0,0,-142.37975692829474,13.621818608435584,66.28288923050843,0,-8.244807,-12.506642,-0.06574734,0.036743343,-1.1996403,1.2020023,-40.80454,-112.51066,-11.372785,120.22063,-844,429,1168,1503.0,-0.5917241,-1.0957099,-0.17786577,1.2579165,1.2452781184295256,4.65429362220892,6.794252035960218,24.35648902176412,-101.5679508374144,258.4320491625856,-13.147266518887196,-11.92559175243981,24.407565729548978,-133.13282970523267,67.4872805890278,7448954.990778809,-117.20706241332456,-112.14257512307104,52.22,NONE,0.0,0.0,0.0,NONE,-4.2342952599596745E-8,-9.252380416868452E-9,-5.7029724E-4,2,54.9,49.63,45.25,47.7,16.512,16.512,5.837,11.31592,0,3348,4.086,12.0,8.031,95,26.4,OK,27,0,0,0,0,0,65,100,0.0,0,0.0,-6.69366E-32,8.8E-44,0.0,-1.05007105E-23,63,0.0038195848,-4.683768E-6,1.0713448E-18,False,False,0,None,-1.976189E-28,4.875035E-17,
116410342,17.259,13.621827180220485,66.28289224023919,17,-7.977824,-11.592015,-0.020846065,0.009360372,-0.9724399,0.97270834,-2.7681196,-9.894105,-4.821027,11.348925,20,204,1526,1539.0,0.25056952,0.4849912,-0.12438966,0.55988777,0.5458951619003917,-0.10750148632346879,-1.5898977796834555,-2.5104024015796287,-102.27680686450879,257.7231931354912,-3.4623656524240416,-11.76800763291853,-17.65407754331221,-100.71213845706288,66.99271635395024,69.82860476274988,69.10181938182741,74.16630667208094,52.62,17.791144788879393,,13.6218278,66.2828922,20190520,81954,2019-05-20T08:19:54Z,35.18,0.7,1.33,11.62,8,9,17,0.39,0.63,-0.57,0,0,0,0,5,5,13.623156585101267,66.28316984675392,50,1751251,48,99,162,3619,3619,4384,4394,175,17586,26,212,17589,0,false,false,false,false,false,false,false,false,false,false,5398,5477,4641,4881,57,73,72,56,1526,1533,1442,1473,1518,1526,1444,1468,0.0,0.0,0.0,0.0,1638.0,1633.7,1635.5,1638.6,4.36,3.81,3.17,2.99,0,0,0,0,-173.21400797554966,13.621829541419702,66.28289247597152,0,-8.044175,-11.843669,-0.019324437,0.0137563525,-0.97269773,0.97298694,2.954307,-2.8705747,8.036831,9.03099,29,204,1523,1536.0,0.20536487,0.29823884,0.040930875,0.36441252,0.36210653639321716,0.2386766541306063,-1.4894921394121647,-3.9667535281397552,-100.10767171412606,259.89232828587393,-11.033674704346009,-20.171846697095525,-4.398800742445696,-107.33789533800011,66.88691763561954,7448955.644925016,52.11452224814545,57.17900953839897,52.65,NONE,0.0,0.0,0.0,NONE,1.439830770587386E-8,3.769487962665312E-9,-9.536743E-7,2,50.71,50.0,40.16,44.11,16.445,16.445,5.892,11.31592,0,3348,4.124,12.0,8.031,95,26.4,OK,27,0,0,0,0,0,65,100,0.0,0,0.0,-8.047378E-32,8.8E-44,0.0,2.5102509E-8,64,0.0073589087,-6.4543287E-6,8.2968547E-19,False,False,0,None,-1.6834785E-28,6.518131E-17,
120271612,18.262,13.62184022525454,66.28289484184131,17,-7.8854084,-11.069308,-0.033572853,0.004936504,-0.9446584,0.9452677,5.652022,-4.2305593,-13.902852,15.592699,-28,109,1535,1539.0,-0.05150871,0.097859554,-0.032035343,0.115134284,0.11058769870785264,0.5383427312018433,0.02450391722717336,-5.551057432529437,-131.98569219597118,228.01430780402882,-33.728672239113,-13.425898816904855,-19.908410586312385,-148.43598204402872,66.34161069972475,70.49611347126748,51.62012138461358,56.68460867486711,53.07,17.88356059851074,,13.6218385,66.2828944,20190520,81955,2019-05-20T08:19:55Z,35.47,0.7,1.33,11.49,8,9,17,0.02,0.24,-0.36,0,0,0,0,5,5,13.623156585101267,66.28316984675392,50,1751251,48,99,163,3619,3619,4384,4394,175,17586,26,212,17589,0,false,false,false,false,false,false,false,false,false,false,5649,4784,5408,4149,57,73,73,58,1537,1475,1507,1431,1528,1458,1486,1433,0.0,0.0,0.0,0.0,1644.1,1639.2,1638.6,1644.1,3.92,3.02,3.78,3.06,0,0,0,0,155.78313397167358,13.621840897836595,66.28289500102008,0,-7.884316,-11.589693,-0.03353829,0.0100897765,-0.94538236,0.94603086,3.6421957,6.500944,-13.977624,15.839881,-22,105,1532,1535.0,-0.050996758,-0.009624117,0.08058926,0.09585364,0.0518969451671649,0.526417732309826,0.039442931490489865,-6.563394680375811,-129.64477779268313,230.35522220731687,-42.47312829938191,-19.909274942745668,-5.1716264023472185,-152.17907089087436,66.30675714234887,7448956.237437732,76.18485565371991,81.24934294397343,53.08,NONE,0.0,0.0,0.0,NONE,0.0,-2.861383915328808E-9,5.41687E-4,2,51.14,42.29,45.38,39.39,16.549,16.549,5.896,11.3209915,0,3345,4.097,12.0,7.329,95,26.4,OK,28,0,0,0,0,0,65,100,0.0,0,0.0,-8.317008E-32,8.8E-44,0.0,2.5102509E-8,64,0.010051727,-7.222437E-6,7.504217E-19,False,False,0,None,-1.5173246E-28,7.524237E-17,
124120208,19.263,13.621836410956954,66.28289516242332,17,-8.050398,-10.588686,-0.04081281,0.008972722,-0.95670426,0.9576164,1.032461,7.82955,-1.3556854,8.012846,-45,167,1529,1538.0,-0.106958605,-0.32626277,0.29241812,0.45099434,0.34334755227280384,-0.169109278443044,-0.7716873633228132,-3.189448118832548,-118.65839007430233,241.34160992569767,-22.43949364626887,-14.837019973308397,-18.113150616698015,-124.69639145864089,66.4766611648277,70.83793100762384,-36.25284922378106,-31.18836193352754,53.36,17.718571127075194,,13.6218365,66.2828947,20190520,81956,2019-05-20T08:19:56Z,35.621,0.7,1.33,11.25,8,9,17,-0.15,-0.3,-0.06,0,0,0,0,5,5,13.623156585101267,66.28316984675392,50,1751251,48,99,164,3619,3619,4384,4394,175,17586,26,212,17589,0,false,false,false,false,false,false,false,false,false,false,5103,5141,4858,4966,56,74,73,57,1499,1498,1475,1474,1498,1481,1449,1469,0.0,0.0,0.0,0.0,1644.7,1639.2,1638.6,1643.5,3.76,3.3,3.69,3.09,0,0,0,0,-170.53767779197437,13.621837278982584,66.28289492575061,0,-8.250747,-11.261068,-0.043945383,0.010256891,-0.9554384,0.95650345,-3.496785,-7.896661,4.331477,9.661596,-45,173,1529,1539.0,-0.10372116,-0.3149479,0.28957117,0.44022918,0.33158748367193913,-0.1695559029391371,-0.8698929533784219,-4.01948437666622,-116.8229058345876,243.1770941654124,-28.52353142236141,-12.83611172258569,-7.538352184973081,-127.74272934711402,66.45428399616736,7448956.4480470335,-101.50856946383156,-96.44408217357804,53.39,NONE,0.0,0.0,0.0,NONE,-4.7965962184050746E-8,-7.915924008467325E-9,0.0017375946,2,47.7,45.1,41.53,44.4,16.538,16.538,5.907,11.015562,0,3343,4.097,12.0,7.225,95,26.4,OK,29,0,0,0,0,0,65,100,0.0,0,0.0,-9.125748E-32,8.8E-44,0.0,2.5102509E-8,64,0.012680531,-8.099075E-6,7.1630217E-19,False,False,0,None,-1.4458341E-28,8.364832E-17,
127969262,20.263,13.621827789894676,66.28289320370482,17,-8.276975,-10.441561,-0.0414017,0.016957015,-0.98064893,0.98166895,-7.77138,-11.949898,-8.713466,16.706852,-70,152,1526,1535.0,-0.13398126,-0.39593142,0.39431298,0.5746263,0.4179864505335406,0.024696275683832203,-1.0356764356139936,-2.1345496648523046,-118.55660604954618,241.4433939504538,-23.86162109233473,-16.250411278678406,-17.87012129145713,-125.20292439628379,66.91920206268361,71.28914556602452,-126.49228730549042,-121.4278000152369,53.62,17.491994321960448,,13.6218281,66.2828932,20190520,81957,2019-05-20T08:19:57Z,35.29,0.7,1.33,11.15,8,9,17,-0.13,-0.38,0.25,0,0,0,0,5,5,13.623156585101267,66.28316984675392,50,1751251,48,99,165,3619,3619,4384,4394,175,17586,26,212,17589,0,false,false,false,false,false,false,false,false,false,false,5200,5132,4972,4991,58,74,73,58,1504,1500,1483,1484,1503,1484,1463,1478,0.0,0.0,0.0,0.0,1642.3,1638.0,1638.0,1642.3,3.98,3.15,3.68,3.28,0,0,0,0,-166.7335191534163,13.621830788713096,66.28289354432519,0,-8.372182,-11.209121,-0.039535686,0.0136321625,-0.97373146,0.9746291,1.8329654,1.0201768,2.200081,3.0398815,-62,152,1526,1534.0,-0.1252597,-0.36717358,0.39417034,0.5530612,0.3879515908264826,-0.05965276971048078,-1.1463297412669666,-2.810643552591336,-116.64965660312286,243.35034339687712,-27.555516843180726,-13.006771853273543,-7.332216583197909,-126.81264755599965,66.78268599295437,7448956.782753038,-106.46961182009406,-101.40512452984053,53.56,NONE,0.0,0.0,0.0,NONE,-5.929716956539169E-8,-8.635553364878365E-9,0.003045082,2,48.03,45.68,43.63,45.33,16.568,16.568,5.899,10.508338,0,3341,4.125,12.0,6.781,94,26.4,OK,30,0,0,0,0,0,65,100,0.0,0,0.0,-9.3788274E-32,8.8E-44,0.0,2.5102509E-8,64,0.013991356,-8.739126E-6,7.354795E-19,False,False,0,None,-1.4860475E-28,8.7841135E-17,
131859038,21.274,13.621817842135007,66.28289116971312,17,-8.823357,-10.632079,-0.08239642,0.011416684,-1.2426866,1.2454675,-6.8121557,-30.07712,-4.9378605,31.231731,679,204,1390,1560.0,-0.51110554,-1.1049508,0.40541667,1.2831632,1.2174338056049139,-0.7237330943742164,0.024249585874234703,-32.35266411635472,-118.23640220291745,241.76359779708255,-23.421652704406476,-16.116499755436724,-48.48094638471571,-129.93279318186083,67.41828821889378,71.78994350355316,-123.6836588397546,-118.61917154950108,53.91,16.94561237158203,,13.6218213,66.2828919,20190520,81958,2019-05-20T08:19:58Z,34.927,0.7,1.33,11.09,8,9,17,-0.11,-0.39,0.38,0,9998,0,0,5,5,13.623156585101267,66.28316984675392,50,1751252,19,100,166,3619,3619,4380,4389,125,17586,26,1,17112,0,false,false,false,false,false,false,false,false,false,false,6000,5837,4723,4752,57,73,73,57,1570,1638,1478,1529,1542,1547,1572,1591,0.0,0.0,0.0,0.0,1617.1,1614.7,1614.1,1617.7,7.35,8.63,1.74,2.26,0,0,0,0,-175.35281298531922,13.621818359147259,66.28289084303668,0,-8.886962,-11.423346,-0.06918469,0.011906735,-1.2047471,1.2067907,2.7002146,-58.106552,-1.1078317,58.179806,581,198,1431,1557.0,-0.3932499,-0.85851306,0.44317713,1.0431185,0.9442934896560397,-0.31925843145827093,-0.4093362439305368,-31.061506326628134,-116.51422661818593,243.48577338181406,-25.305764866333966,-8.58673208152496,-37.75623386017759,-139.04338964840625,67.41446218557657,7448957.417635048,-114.43416178534085,-109.36967449508732,53.88,NONE,0.0,0.0,0.0,NONE,-1.6017050955894105E-8,-3.084126268817452E-9,9.689331E-4,2,41.01,39.61,53.24,54.06,16.549,16.549,5.864,9.894766,0,3340,4.138,12.0,6.893,94,26.4,OK,31,0,0,0,0,0,65,100,0.0,0,0.0,-9.3216514E-32,8.8E-44,0.0,2.5102509E-8,64,0.011741161,-7.6403985E-6,7.966644E-19,False,False,0,None,-1.6142683E-28,8.064644E-17,
135714946,22.276,13.621739420278907,66.28287467297618,17,-9.319286,-10.639784,-0.164089,0.014828944,-1.0776465,1.0901684,-6.2293487,-3.4407022,-11.644161,13.646601,796,201,1322,1556.0,-2.7033513,-5.7244544,0.26198786,6.3360972,6.330678316385744,-2.3809713624848623,-1.0399438641190983,-34.279380057737214,-113.57475816136841,246.4252418386316,-21.18710076142008,-17.27725557073692,-51.332977385948226,-110.62640011366011,71.37638649526528,75.75293734014902,-118.62331949725916,-113.55883220700564,54.17,16.44968265356445,,13.6217626,66.2828801,20190520,81959,2019-05-20T08:19:59Z,34.393,0.7,1.33,10.86,8,9,17,-2.07,-4.38,0.39,0,10000,0,0,5,5,13.623156585101267,66.28316984675392,50,1751253,114,100,167,3619,3619,4379,4387,0,17512,26,3622,677,0,false,false,false,false,false,false,false,false,false,false,5733,5927,5963,6201,58,75,74,58,1571,1586,1568,1594,1560,1573,1564,1585,0.0,0.0,0.0,0.0,1621.4,1616.5,1617.1,1621.4,4.92,4.27,4.88,4.44,0,0,0,0,-4.989362569642196,13.621744534303653,66.28287576779165,0,-9.239226,-11.495414,-0.1703619,0.013574072,-1.107319,1.1204298,-8.363139,-3.7269304,-10.78852,14.150063,796,201,1322,1556.0,-2.5576954,-5.5860834,0.3086375,6.151536,6.143788384349669,-2.4487091312527958,-1.4167786738885004,-33.82964278546797,-112.10661013867418,247.89338986132583,-27.89160138774644,-12.018823479843565,-44.37195536652642,-107.07589792930305,71.11729863323161,7448961.124254632,-118.61839486402027,-113.55390757376675,54.15,NONE,0.0,0.0,0.0,NONE,-3.076464746623811E-7,-5.671365637431211E-8,7.8105927E-4,2,55.5,56.31,55.42,58.79,16.541,16.541,5.84,9.270711,0,3338,4.138,12.0,7.533,94,26.5,OK,32,0,0,0,0,0,65,100,0.0,0,0.0,-8.2982E-32,8.8E-44,0.0,2.5102509E-8,64,0.01142931,-7.558761E-6,9.417752E-19,False,False,0,None,-1.8404187E-28,7.964863E-17,
139767179,23.329,13.621566347186288,66.28284549834673,17,-8.739262,-10.825659,-0.2937959,0.031637665,-1.0176445,1.059678,2.2865543,1.1244903,3.711993,4.5024104,793,204,1334,1565.0,-4.070541,-9.500203,0.16029277,10.336772,10.335529299148384,-2.366163479581381,-0.7411605696960879,-34.30765824192309,-113.25535514569432,246.74464485430568,-19.574585541738184,-16.86674557750861,-51.65047477030341,-113.30528016376437,79.74477150183732,84.14965514494651,-118.25565488975255,-113.19116759949902,54.45,17.029707372802733,,13.6215635,66.2828452,20190520,82000,2019-05-20T08:20:00Z,34.169,0.7,1.33,10.61,8,9,17,-3.95,-9.22,0.3,0,10000,0,0,5,5,13.623156585101267,66.28316984675392,50,1823543,16,100,168,3604,3617,4327,4344,-1392,17254,23,0,16709,0,false,false,false,false,false,false,false,false,false,false,6153,6194,6608,6762,59,75,75,59,1612,1613,1651,1671,1605,1617,1645,1650,0.0,0.0,0.0,0.0,1603.0,1599.3,1599.3,1604.3,5.59,4.88,5.96,5.58,0,0,0,0,-6.303306056040128,13.621573504351506,66.282846355946,0,-8.855127,-11.845355,-0.29156303,0.032117676,-1.0083358,1.0501341,-0.9481609,3.3881886,6.296125,7.2124906,796,204,1337,1569.0,-3.9932423,-9.417427,0.24014556,10.231891,10.229072233697787,-2.3298465460071744,-1.00025698689385,-34.2103485039789,-112.01900245523933,247.98099754476067,-32.477726880902324,-15.194191526945795,-44.064492802290104,-111.88601501032657,79.41617059717551,7448969.445035905,-117.32838595979797,-112.26389866954445,54.39,NONE,0.0,0.0,0.0,NONE,-4.844299024519118E-7,-8.385397168390898E-8,6.084442E-4,2,63.62,63.85,65.58,68.15,16.414,16.414,5.794,8.762445,1370,3335,4.135,12.0,9.745,94,26.5,OK,33,0,0,0,0,0,65,100,0.0,0,0.0,-2.1982083E-31,8.8E-44,0.0,2.5102509E-8,64,0.008540392,-6.8534005E-6,1.9481896E-18,False,False,0,None,-3.5468542E-28,7.04092E-17,
143621073,24.331,13.621320004734217,66.28280441330396,17,-9.018299,-10.52335,-0.38474125,0.019328896,-0.96518016,1.0392171,-0.6611144,1.4746195,-0.15837075,1.6237783,793,180,1345,1571.0,-5.149627,-12.202845,-0.18560642,13.246227,13.244926776964395,-1.3368133470545214,-1.3543950169529624,-34.4233948861932,-113.33647306411888,246.66352693588112,-18.462316564583713,-16.38336259279066,-51.7905218339026,-116.06800511358519,91.64190174780627,96.07699756180686,-117.78626233685183,-112.72177504659831,54.71,16.750669897216795,,13.6213172,66.2828036,20190520,82001,2019-05-20T08:20:01Z,34.029,0.71,1.34,10.52,7,9,16,-5.03,-12.01,0.13,0,10000,0,0,5,5,13.623156585101267,66.28316984675392,50,1823543,16,100,168,3604,3617,4327,4344,-1392,17254,23,0,16709,0,false,false,false,false,false,false,false,false,false,false,6610,6747,7309,7416,58,75,74,58,1658,1675,1708,1716,1651,1664,1701,1710,0.0,0.0,0.0,0.0,1590.2,1587.0,1586.4,1590.2,5.96,5.22,6.47,5.76,0,0,0,0,1.256285028956313,13.62130237128228,66.28280070066288,0,-9.15305,-12.061419,-0.3934496,0.017007302,-0.9513086,1.0296018,8.024212,-2.9592264,1.0308467,8.614386,793,186,1331,1560.0,-5.166852,-12.375552,0.0025142217,13.410841,13.410841220126548,-0.2857558319644724,-1.5518205420279318,-34.291889727551215,-112.2873515170694,247.7126484829306,-31.597146078022444,-12.821485562211208,-44.4248079890881,-112.42937613678059,92.53184486404236,7448982.5915523525,-117.64205341657781,-112.57756612632429,54.73,NONE,0.0,0.0,0.0,NONE,-6.77314560879877E-7,-1.1380427160841237E-7,7.724762E-5,2,66.69,67.86,72.42,73.98,16.214,16.214,5.708,8.509154,1409,3332,4.086,12.0,11.646,94,26.5,OK,34,0,0,0,0,0,65,100,0.0,0,1.20537E-33,-2.2031555E-30,2.1037766E-35,9.9394935E-36,2.510285E-8,64,0.006107688,-5.843381E-6,1.0344022E-17,False,False,0,None,-1.5247695E-27,5.717854E-17,
147477955,25.333,13.621022967140497,66.28275460485605,16,-9.959902,-10.588979,-0.4552843,0.024690963,-0.8889929,0.9991005,2.2507164,-3.1202152,0.50958276,3.8808687,799,189,1319,1553.0,-5.7994595,-13.883871,-0.07574409,15.0466385,15.04644806475051,-0.6874170316241965,-1.2126715954553609,-34.898117987643396,-113.07725252882959,246.9227474711704,-18.097166883322817,-16.86124932187514,-51.70298697479263,-114.0646293783853,106.00938844609439,110.47099418611676,-117.33152482200714,-112.26703753175362,55.05,15.809067190307616,,13.6210233,66.2827546,20190520,82002,2019-05-20T08:20:02Z,34.13,0.71,1.34,10.42,7,9,16,-5.73,-13.73,-0.03,0,10000,0,0,5,5,13.623156585101267,66.28316984675392,50,1823544,114,100,170,3603,3617,4285,4307,-2951,17325,23,3619,17413,0,false,false,false,false,false,false,false,false,false,false,6720,6904,7549,7664,58,75,75,58,1673,1691,1732,1738,1673,1680,1716,1731,0.0,0.0,0.0,0.0,1582.2,1579.1,1577.9,1582.8,5.95,5.48,6.77,6.02,0,0,0,0,2.486423373197738,13.621005594392132,66.28275117536815,0,-9.971443,-12.051044,-0.45132026,0.03074678,-0.8821549,0.99137914,-2.1669781,0.8194793,0.6855926,2.4160666,802,186,1319,1554.0,-5.8322234,-13.970928,-0.0023731317,15.139407,15.139407523290005,-0.8031768459714801,-1.4312378334039568,-34.694962452549596,-112.17082999567337,247.8291700043266,-31.394478197099623,-11.597219055007509,-46.10266395268673,-112.0157499950243,106.87490955081849,7448996.962241997,-117.59525986213069,-112.53077257187716,55.02,NONE,0.0,0.0,0.0,NONE,-7.558648544107042E-7,-1.2686040754768717E-7,-5.054474E-5,2,70.09,70.01,74.05,76.49,16.103,16.103,5.703,8.603881,1392,3329,4.048,12.0,13.805,94,26.6,OK,35,0,0,0,0,0,65,100,0.0,0,1.222313E-33,-1.0659204E-29,2.768087E-35,9.9394935E-36,2.510285E-8,64,0.0061484575,-5.8631717E-6,4.1964775E-17,False,False,0,None,-5.5154196E-27,5.7437734E-17,
151375621,26.346,13.62066872530672,66.28269535015626,17,-10.297461,-10.909702,-0.49267533,0.027267538,-0.86844635,0.99883515,-0.1240817,0.44022593,-1.9050264,1.9591633,805,173,1334,1567.0,-6.2803082,-15.13764,0.009443104,16.388731,16.388728553002043,0.5502882765833377,-1.4950984099020193,-35.092428492795946,-113.22061872363416,246.77938127636583,-18.41479016544123,-16.80193555477084,-51.50087319033849,-116.89756855341552,123.14475322792629,127.6300677114847,-117.86737260309003,-112.80288531283651,55.37,15.471508443969725,,13.6206998,66.2827001,20190520,82003,2019-05-20T08:20:03Z,34.092,0.7,1.33,10.43,8,9,17,-6.25,-14.92,-0.08,0,10000,0,0,5,5,13.623156585101267,66.28316984675392,50,1825135,48,10,171,283,3569,3666,3670,-1194,14681,44,212,14675,0,false,false,false,false,false,false,false,false,false,false,7056,7259,7897,8036,59,76,76,59,1713,1720,1752,1766,1703,1711,1742,1752,0.0,0.0,0.0,0.0,1571.7,1567.5,1566.2,1571.1,6.47,5.74,6.93,6.4,0,0,0,0,2.2651540530206944,13.620681327675127,66.28269658232594,0,-10.721157,-12.063816,-0.49501675,0.027428813,-0.8890335,1.0179266,1.1990283,0.119250804,1.5671403,1.9768202,805,173,1328,1562.0,-6.2795243,-15.117137,-0.018536966,16.369503,16.369491932044845,-0.8489224938085016,-1.783666056461151,-34.827112754207555,-112.26142983007864,247.73857016992136,-30.75888867985743,-11.67399223974405,-47.083716206268875,-113.72767743889759,122.57682003624778,7449012.684701013,-117.6734385017096,-112.60895121145607,55.34,NONE,0.0,0.0,0.0,NONE,-8.376515157442004E-7,-1.4029349248530113E-7,-2.193451E-5,2,73.08,73.69,77.65,79.29,16.032,16.032,5.657,9.051248,1322,3325,4.017,12.0,14.41,94,26.6,OK,36,0,0,0,0,0,65,100,0.0,0,8.176185E-34,-3.7607056E-29,2.768087E-35,9.9394935E-36,2.510285E-8,64,0.006067157,-5.8235905E-6,1.9337851E-16,False,False,0,None,-2.2154764E-26,5.691935E-17,
155223943,27.346,13.6203251773082,66.28263699349775,17,-13.818474,-11.400269,-0.56115794,0.017117552,-0.9471266,1.1010177,5.851256,37.838245,7.5793424,39.030968,570,152,1467,1581.0,-6.6015277,-15.596754,-0.15641837,16.937042,16.936319795712887,-0.25970850201924733,-2.1538906919985257,-22.626164290815264,-113.25042931801329,246.7495706819867,-17.91668050747932,-16.370263688648496,-39.06257707180588,-99.77137146080125,139.81034879925642,144.30968690892985,-118.28911819477536,-113.22463090452183,55.6,11.95049518408203,,13.6203561,66.2826419,20190520,82004,2019-05-20T08:20:04Z,34.117,0.7,1.33,10.35,8,9,17,-6.63,-15.68,-0.18,0,5393,0,0,5,5,13.623156585101267,66.28316984675392,50,1825135,17,10,172,283,3569,3667,3670,-1086,14681,44,0,14681,0,false,false,false,false,false,false,false,false,false,false,5585,5811,7014,7019,60,77,77,60,1491,1538,1654,1641,1478,1514,1652,1628,0.0,0.0,0.0,0.0,1620.8,1615.3,1614.7,1617.7,2.52,2.38,4.76,4.06,0,0,0,0,4.790612870051916,13.620334029779052,66.28263766679983,0,-13.437542,-12.0113535,-0.56966794,0.036113653,-0.9637983,1.1201487,8.474135,43.17866,2.3185987,44.063404,622,149,1443,1578.0,-6.6520157,-15.652685,-0.28928185,17.009983,17.007523610890562,-0.1522606429939941,-2.4399292053594768,-23.752211074153582,-112.43697562750295,247.56302437249707,-30.70732485438258,-11.054045893422387,-36.63535949363545,-92.40122061129873,139.4200409099796,7449029.543197065,-118.18829484775283,-113.1238075574993,55.59,NONE,0.0,0.0,0.0,NONE,-8.712173243319764E-7,-1.4735271520354822E-7,-6.389618E-5,2,56.49,57.54,72.21,72.31,15.939,15.939,5.641,9.785023,1221,3321,4.002,12.0,15.83,94,26.7,OK,37,0,0,0,0,0,65,100,0.0,0,1.0080531E-33,-9.6323845E-29,2.768087E-35,9.9394935E-36,3.4745956E-12,64,0.0062618256,-5.9185854E-6,9.959823E-16,False,False,0,None,-9.595704E-26,5.816449E-17,
159073388,28.347,13.620013383656556,66.2825830606311,17,-13.680296,-12.077895,-0.22459202,0.03724569,-1.3395761,1.3587837,-7.828161,9.260137,-5.169898,13.181732,-889,136,1257,1545.0,-4.5597873,-10.892194,0.26422226,11.8110695,11.808113696618339,3.364955979673365,-0.2315257470972252,32.82856856692241,-111.99548232354354,248.00451767645646,-17.618076546794928,-15.337448776929783,15.323877288283176,-115.0290631651825,154.9835000037392,159.49011689248036,-117.69536191875464,-112.63087462850112,55.89,12.088673055786131,,13.6200325,66.2825863,20190520,82005,2019-05-20T08:20:05Z,34.676,0.7,1.33,10.3,8,9,17,-5.58,-12.84,-0.5,0,0,0,0,5,5,13.623156585101267,66.28316984675392,50,1831789,48,10,173,286,3572,3714,3717,0,14866,27,212,5,0,false,false,false,false,false,false,false,false,false,false,3231,3590,3792,3946,59,77,76,59,1428,1390,1422,1443,1452,1435,1317,1372,0.0,0.0,0.0,0.0,1631.2,1625.7,1627.0,1630.0,3.88,4.03,6.43,4.87,0,0,0,0,12.601560016195549,13.620020653187096,66.2825834557083,0,-13.924456,-12.411154,-0.27080363,0.0373781,-1.3594803,1.3866934,-24.044506,19.351995,6.1845503,31.478352,-878,139,1271,1551.0,-4.884835,-11.390865,-0.04424669,12.394168,12.394088665081053,2.8562064780488843,-0.22552294030970915,31.33690477117554,-111.68203423856181,248.3179657614382,-29.068585273487056,-7.8762992331895685,26.967971848824313,-121.77629498854085,154.67012210673238,7449044.800519694,-118.30074923093969,-113.23626194068616,55.89,NONE,0.0,0.0,0.0,NONE,-6.856579447464528E-7,-1.1849900066214321E-7,-2.374649E-4,2,42.64,39.78,22.32,31.09,16.025,16.025,5.922,10.697662,1115,3316,3.974,12.0,15.08,94,26.7,OK,38,0,0,0,0,0,65,100,0.0,0,1.1711263E-33,-1.7684582E-28,2.768087E-35,9.9394935E-36,3.4745956E-12,64,0.005233288,-5.4163697E-6,5.033654E-15,False,False,0,None,-3.975291E-25,5.354879E-17,
163069393,29.385,13.61984718388218,66.28255489422996,17,-9.571934,-12.322989,-0.059426136,0.015548906,-1.3005654,1.3020152,18.318546,-5.764526,9.907567,21.60923,-1010,130,1144,1531.0,-1.6448681,-3.5239735,0.13265471,3.891218,3.8889562252815035,3.877917564169002,0.6348118632529892,37.642986069768995,-112.75779024993655,247.24220975006347,-15.24607578995428,-10.445873784990933,22.0711521783296,-130.50816350931862,163.0448240839022,167.55662669394502,-118.1662354925418,-113.10174820228828,56.23,16.197035253662108,,13.6198575,66.2825565,20190520,82006,2019-05-20T08:20:06Z,35.447,0.7,1.33,10.26,8,9,17,-2.24,-4.89,-0.55,0,-9981,0,0,5,5,13.623156585101267,66.28316984675392,50,1831789,48,10,174,286,3572,3714,3717,0,14866,27,212,5,0,false,false,false,false,false,false,false,false,false,false,5052,4564,4998,5374,59,76,76,59,1530,1464,1500,1556,1531,1409,1470,1556,0.0,0.0,0.0,0.0,1627.0,1623.9,1622.6,1625.7,4.8,3.86,4.41,3.56,0,0,0,0,-48.81407483429035,13.619851397178252,66.28255486879652,0,-9.948552,-12.366069,-0.046699084,1.7999625E-4,-1.2824088,1.2832588,-12.949071,-17.066101,-19.076889,28.6855,-1010,130,1150,1536.0,-1.807426,-3.8246372,-0.09333201,4.231235,4.2302054396356965,3.675447793542731,0.1926245357612575,37.166138290837885,-112.42514424182345,247.57485575817657,-29.689335450811434,-7.14836510658575,31.5719038451939,-131.05237009750314,162.87496407036747,7449053.011741108,-118.82387089528424,-113.75938360503072,56.2,NONE,0.0,0.0,0.0,NONE,-1.792522800377446E-7,-3.454221956889953E-8,-2.1457672E-4,2,51.5,36.99,43.89,53.87,16.398,16.398,5.868,11.471974,1039,3311,4.071,12.0,6.211,94,26.8,OK,39,0,0,0,0,0,65,100,0.0,0,3.439188E-33,-2.5727805E-28,6.002551E-35,9.9394935E-36,3.4745956E-12,64,0.004179001,-4.901581E-6,1.2453637E-14,False,False,0,None,-9.304015E-25,5.0176753E-17,
166935007,30.390,13.619854721145497,66.282555828097,15,-7.652127,-10.569916,0.01594925,0.016519003,-1.1406407,1.1408719,-11.731333,-0.80871576,-10.270955,15.613158,-892,102,1254,1542.0,1.2172121,3.265043,-0.51392746,3.5222483,3.484553311151844,-3.1334487095346306,-1.0672772637449233,32.33912646165527,-111.27580085896827,248.72419914103173,-12.112237355137708,-11.44674629637095,16.382574792265366,-123.82251389054693,162.6952532784619,169.489286611971,63.59419226413226,68.65867955438578,56.54,18.11684221090698,,13.6198487,66.2825546,20190520,82007,2019-05-20T08:20:07Z,36.076,0.78,1.58,10.24,7,8,15,0.73,2.22,-0.51,0,-10000,0,0,5,5,13.623156585101267,66.28316984675392,50,1831789,48,10,175,286,3572,3714,3717,0,14866,27,212,5,0,false,false,false,false,false,false,false,false,false,false,6170,6105,4913,5126,60,76,76,60,1615,1610,1469,1501,1608,1600,1466,1492,0.0,0.0,0.0,0.0,1619.0,1614.7,1614.7,1617.7,5.7,4.9,3.3,3.22,0,0,0,0,-172.91283178795555,13.619851080576415,66.28255460342608,0,-7.699936,-12.12169,0.00964876,0.017367806,-1.152181,1.1523523,8.132604,3.987908,4.057776,9.92513,-889,99,1254,1540.0,1.0584344,3.0091088,-0.123345934,3.1922145,3.1898306011795032,-3.15725271651647,-1.3383289360383297,31.769976645811294,-111.20201685919642,248.79798314080358,-26.716282381961157,-8.04616314664956,26.93641804182571,-127.085800383299,162.90020643298618,7449054.892950347,63.89199119266999,68.95647848292352,56.54,NONE,0.0,0.0,0.0,NONE,1.2779392016076136E-7,1.754525387419824E-8,-3.2806396E-4,2,61.09,60.1,43.35,46.6,16.418,16.418,5.807,11.747847,1014,3309,4.117,12.0,7.395,94,26.8,OK,40,0,0,0,0,0,65,100,0.0,0,1.1596472E-32,-2.5807307E-28,2.0239806E-34,9.9394935E-36,3.4745956E-12,64,0.0054781437,-5.5359283E-6,1.2530832E-14,False,False,0,None,-9.384794E-25,5.433145E-17,
