Tick#,offsetTime,IMU_ATTI(0):Longitude,IMU_ATTI(0):Latitude,IMU_ATTI(0):numSats,IMU_ATTI(0):barometer:Raw,IMU_ATTI(0):barometer:Smooth,IMU_ATTI(0):accel:X,IMU_ATTI(0):accel:Y,IMU_ATTI(0):accel:Z,IMU_ATTI(0):accel:Composite,IMU_ATTI(0):gyro:X,IMU_ATTI(0):gyro:Y,IMU_ATTI(0):gyro:Z,IMU_ATTI(0):gyro:Composite,IMU_ATTI(0):mag:X,IMU_ATTI(0):mag:Y,IMU_ATTI(0):mag:Z,IMU_ATTI(0):mag:Mod,IMU_ATTI(0):velN,IMU_ATTI(0):velE,IMU_ATTI(0):velD,IMU_ATTI(0):velComposite,IMU_ATTI(0):velH,IMU_ATTI(0):GPS-H,IMU_ATTI(0):roll,IMU_ATTI(0):pitch,IMU_ATTI(0):yaw,IMU_ATTI(0):yaw360,IMU_ATTI(0):totalGyro:Z,IMU_ATTI(0):totalGyro:X,IMU_ATTI(0):totalGyro:Y,IMU_ATTI(0):magYaw,IMU_ATTI(0):distanceHP,IMU_ATTI(0):distanceTravelled,IMU_ATTI(0):directionOfTravel[mag],IMU_ATTI(0):directionOfTravel[true],IMU_ATTI(0):temperature,General:relativeHeight,General:absoluteHeight,GPS(0):Long,GPS(0):Lat,GPS(0):Date,GPS(0):Time,GPS:dateTimeStamp,GPS(0):heightMSL,GPS(0):hDOP,GPS(0):pDOP,GPS(0):sAcc,GPS(0):numGPS,GPS(0):numGLNAS,GPS(0):numSV,GPS(0):velN,GPS(0):velE,GPS(0):velD,RC:Aileron,RC:Elevator,RC:Rudder,RC:Throttle,Controller:navHealth,Controller:ctrl_level,HP:Longitude,HP:Latitude,HP:rthHeight,BatBlackBox:tick,BatBlackBox:id,BatBlackBox:rsoc,BatBlackBox:index,BatBlackBox:rm,BatBlackBox:fcc,BatBlackBox:cell_min,BatBlackBox:cell_max,BatBlackBox:current,BatBlackBox:voltage,BatBlackBox:temp,BatBlackBox:flag,BatBlackBox:reserve,BatBlackBox:user_data,OA:avoidObst,OA:emergBrake,OA:radiusLimit,OA:airportLimit,OA:groundForceLanding,OA:horizNearBoundary,OA:vertLowLimit,OA:vertAirportLimit,OA:roofLimit,OA:hitGroundLimit,Motor:Speed:RFront,Motor:Speed:LFront,Motor:Speed:LBack,Motor:Speed:RBack,Motor:EscTemp:RFront,Motor:EscTemp:LFront,Motor:EscTemp:LBack,Motor:EscTemp:RBack,Motor:PPMrecv:RFront,Motor:PPMrecv:LFront,Motor:PPMrecv:LBack,Motor:PPMrecv:RBack,Motor:PPMsend:RFront,Motor:PPMsend:LFront,Motor:PPMsend:LBack,Motor:PPMsend:RBack,Motor:V_out:RFront,Motor:V_out:LFront,Motor:V_out:LBack,Motor:V_out:RBack,Motor:Volts:RFront,Motor:Volts:LFront,Motor:Volts:LBack,Motor:Volts:RBack,Motor:Current:RFront,Motor:Current:LFront,Motor:Current:LBack,Motor:Current:RBack,Motor:Status:RFront,Motor:Status:LFront,Motor:Status:LBack,Motor:Status:RBack,Motor:thrustAngle,IMU_ATTI(1):Longitude,IMU_ATTI(1):Latitude,IMU_ATTI(1):numSats,IMU_ATTI(1):barometer:Raw,IMU_ATTI(1):barometer:Smooth,IMU_ATTI(1):accel:X,IMU_ATTI(1):accel:Y,IMU_ATTI(1):accel:Z,IMU_ATTI(1):accel:Composite,IMU_ATTI(1):gyro:X,IMU_ATTI(1):gyro:Y,IMU_ATTI(1):gyro:Z,IMU_ATTI(1):gyro:Composite,IMU_ATTI(1):mag:X,IMU_ATTI(1):mag:Y,IMU_ATTI(1):mag:Z,IMU_ATTI(1):mag:Mod,IMU_ATTI(1):velN,IMU_ATTI(1):velE,IMU_ATTI(1):velD,IMU_ATTI(1):velComposite,IMU_ATTI(1):velH,IMU_ATTI(1):GPS-H,IMU_ATTI(1):roll,IMU_ATTI(1):pitch,IMU_ATTI(1):yaw,IMU_ATTI(1):yaw360,IMU_ATTI(1):totalGyro:Z,IMU_ATTI(1):totalGyro:X,IMU_ATTI(1):totalGyro:Y,IMU_ATTI(1):magYaw,IMU_ATTI(1):distanceHP,IMU_ATTI(1):distanceTravelled,IMU_ATTI(1):directionOfTravel[mag],IMU_ATTI(1):directionOfTravel[true],IMU_ATTI(1):temperature,IMUEX(0):err,IMUEX(0):rtk_Longitude,IMUEX(0):rtk_Latitude,IMUEX(0):rtk_Alti,IMUEX(1):err,IMUEX(1):rtk_Longitude,IMUEX(1):rtk_Latitude,IMUEX(1):rtk_Alti,BattInfo:Voltage,BattInfo:BatVoltage,BattInfo:AdVoltage,BattInfo:AvgCurrent,BattInfo:R_time,BattInfo:R_CAP_MAH,BattInfo:LowCellVoltage,BattInfo:LowCellVolThreshold,BattInfo:BatCurrent,BattInfo:Remaining%,BattInfo:Temp,BattInfo:status,battery_info:BatDynCnt,battery_info:Vol1Protect,battery_info:Vol2Protect,battery_info:Cap1Protect,battery_info:Cap2Protect,battery_info:Batpresent,battery_info:sopPercentage,battery_info:sopValue,battery_info:sopScale,battery_info:sopFlg,BattInfo:WindHeading:WindDir,battery_info:home_dir,BattInfo:Wind:rangeMin,BattInfo:Wind:rangeMax,battery_info:cap_speed,battery_info:against_wind,battery_info:emergency_land_cap,battery_info:intel_bat_land_cap,battery_info:intel_bat_gh_cap,BattInfo:Smart:SmartGh,BattInfo:Smart:SmartLand,BattInfo:GoHome:CntDown,BattInfo:GoHome:GhCmd,BattInfo:GoHome:CapLevel,BattInfo:GoHome:LandCapLv,Attribute|Value,ConvertDatV3,3.6.6-Tablet
7593101,1.973,,,,,,,,,,,,,,,,,,,,,,,,,,,,,,,,,,,,,,,,,,,,,,,,,,,,,,,,,,,,,,,,,,,,,,,,,,,,,,,,,,,,,,,,,,,,,,,,,,,,,,,,,,,,,,,,,,,,,,,,,,,,,,,,,,,,,,,,,,,,,,,,,,,,,,,,,,,,,,,,,,,,,,,,,,,,,,,OK,,,,,,,,,,,,,,,,,,,,,,,,,,Firmware Date| Oct 17 2018
39114896,10.166,,,0,6.362706,6.52076,0.06383669,-0.0065205656,-1.0005368,1.0025923,0.19699204,-0.15391819,-0.025806855,0.25132185,-292,309,1444,1505.0,0.0,0.0,0.014519028,0.014519028,0.0,0.0,0.34438445147023355,3.6238175083601756,-127.07630497670834,232.92369502329166,0.0,0.0,0.0,-123.666519813197,,0.0,,,64.73,,,,,,,,,,,,,,,,,,,,,,,,,,,,,,,,,,,,,,,,,,,,,,,,,,,,,,,,,,,,,,,,,,,,,,,,,,,,,,,,,,,,,,,,,,,,,,,,,,,,,,,,,,,,,,,,,,,,,,,,,,,,,,,,,,,,,,,,,,,OK,,,,,,,,,,,,,,,,,,,,,,,,,,ACType|MavicEnterprise
43058657,11.191,,,0,6.315144,6.483443,0.06346193,-0.005358346,-0.9992071,1.0012348,0.29128096,-0.060751412,0.0209698,0.29828689,-308,301,1435,1498.0,0.0,0.0,-0.005216109,0.005216109,0.0,0.0,0.3435342695615872,3.6128342241052986,-127.08611884918452,232.91388115081548,-0.03702254049265605,0.19651412752166678,-0.1424808597561696,-126.56236121962937,,0.0,,,64.85,,,0.0,0.0,20151018,8,2015-10-18T00:00:08Z,-17.0,99.99,99.99,3.75E7,0,0,0,0.0,0.0,0.0,0,0,0,0,0,0,,,,,,,,,,,,,,,,,,false,false,false,false,false,false,false,false,false,false,0,0,0,0,55,71,70,55,944,944,944,945,940,940,940,940,0.0,0.0,0.0,0.0,1718.3,1714.6,1715.3,1718.3,0.0,0.0,0.0,0.0,0,0,0,0,-45.0,,,,,,,,,,,,,,,,,,,,,,,,,,,,,,,,,,,,,NONE,0.0,0.0,0.0,,,,,17.298,17.298,6.18,1.650459,0,3578,4.318,12.0,1.247,98,27.3,OK,9,0,0,0,0,0,65,100,0.0,0,0.0,589232.0,2.69E-43,0.0,-2.3092525E-8,67,2.5940128E-5,-2.594025E-5,9.4E-44,False,False,0,None,0.0,1.0842022E-19,dateTime|2015-10-18 0:0:8 GMT
47013657,12.219,,,0,6.592588,6.4385953,0.063942924,-0.0054546795,-0.9985847,1.0006447,0.19142702,0.0138316015,-0.03515468,0.19511911,-304,305,1439,1502.0,-0.008183366,-0.004953985,0.004323989,0.01049792,0.009566056785697837,-0.009566056785697837,0.3370742214171833,3.612851217821175,-127.09252633484671,232.9074736651533,-0.04649876229516612,0.34498984808317906,-0.29401838129774405,-125.63992657685169,,0.0,,,64.87,,,0.0,0.0,20151018,9,2015-10-18T00:00:09Z,-17.0,99.99,99.99,3.75E7,0,0,0,0.0,0.0,0.0,0,0,0,0,0,0,,,,,,,,,,,,,,,,,,false,false,false,false,false,false,false,false,false,false,0,0,0,0,55,70,71,55,944,945,944,945,940,940,940,940,0.0,0.0,0.0,0.0,1717.7,1714.6,1714.6,1717.7,0.0,0.0,0.0,0.0,0,0,0,0,-45.0,-2.1509826332874086E-10,-1.8075054798359813E-11,0,6.3732753,6.258384,0.063679405,-0.006137667,-0.9985139,1.0005612,0.17776608,-0.24965942,-0.018594744,0.30704457,-300,305,1439,1501.0,-3.979607E-4,-0.004812142,-0.008444176,0.00972724,0.004828569375795296,-0.004828569375795296,0.37948337777418617,3.6302374324160707,-125.60503020641583,234.39496979358415,4.269278519170043E-4,0.07671121066012154,-0.06733449620032925,-125.16538205360317,,2.6848318397363787E-5,,,64.9,NONE,0.0,0.0,0.0,NONE,-3.863649335187061E-10,-4.4549321678278654E-11,-1.6212463E-4,17.298,17.298,6.181,1.6270547,0,3577,4.319,12.0,1.228,98,27.3,OK,10,0,0,0,0,0,65,100,0.0,0,0.0,589232.0,2.69E-43,0.0,-2.3092525E-8,67,2.5940128E-5,-2.594025E-5,9.4E-44,False,False,0,None,0.0,1.0842022E-19,
50884873,13.225,0.0,0.0,0,6.5238876,6.472492,0.064292416,-0.0066380715,-0.99748,0.99957186,0.20976935,-0.105992466,-0.07782706,0.24757753,-304,297,1444,1505.0,-0.0069750957,-0.00650878,-0.0010068333,0.009593221,0.009540239837483104,-0.009540239837483104,0.33382893903533634,3.620412618284726,-127.07842333824675,232.92157666175325,-0.07689674299385357,0.5011479992357769,-0.4493277203407024,-126.31525740621022,,0.0,,,64.91,,,0.0,0.0,20151018,10,2015-10-18T00:00:10Z,-17.0,99.99,99.99,3.75E7,0,0,0,0.0,0.0,0.0,0,0,0,0,0,0,,,,,,,,,,,,,,,,,,false,false,false,false,false,false,false,false,false,false,0,0,0,0,55,71,72,55,944,945,944,944,940,940,940,940,0.0,0.0,0.0,0.0,1717.7,1714.6,1715.3,1717.7,0.0,0.0,0.0,0.0,0,0,0,0,-45.0,4.440206346980833E-11,-8.762553783424379E-11,0,6.4499025,6.2534137,0.06402353,-0.0063870293,-0.99820286,1.0002743,0.1818719,-0.22312011,-0.0081717875,0.28797004,-304,297,1448,1509.0,-0.001995897,0.0010275191,0.003129229,0.0038511653,0.0022448608183281388,-0.0022151687631373398,0.3000027004372402,3.662224138364857,-125.72226449534412,234.27773550465588,-0.02214174978897881,0.2805886163583081,-0.260960944691912,-126.06723991172035,,1.131003650979389E-4,,,64.89,NONE,0.0,0.0,0.0,NONE,3.894206904266143E-11,-3.1729877591766106E-11,1.335144E-5,17.3,17.3,6.18,1.5797256,0,3577,4.319,12.0,1.196,98,27.3,OK,11,0,0,0,0,0,65,100,0.0,0,0.0,589232.0,2.69E-43,0.0,-2.3092525E-8,67,2.5940128E-5,-2.594025E-5,9.4E-44,False,False,0,None,0.0,1.0842022E-19,
54782652,14.238,0.0,0.0,0,6.6216536,6.5037823,0.06434483,-0.0063002445,-0.9960045,0.9981007,0.14258032,-0.1817212,0.0806639,0.24465977,-300,297,1439,1499.0,-0.008268149,-0.0056211334,-0.00565593,0.011486904,0.009997970767019337,-0.009997970767019337,0.32923108965263126,3.6237303456414742,-127.07031820397962,232.92968179602036,-0.10823870865724505,0.6678832666493613,-0.6495571578020973,-125.814018522994,,0.0,,,64.91,,,0.0,0.0,20151018,11,2015-10-18T00:00:11Z,-17.0,99.99,99.99,3.75E7,0,0,0,0.0,0.0,0.0,0,0,0,0,0,0,,,,,,,,,,,,,,,,,,false,false,false,false,false,false,false,false,false,false,0,0,0,0,55,70,71,55,944,945,944,945,940,940,940,940,0.0,0.0,0.0,0.0,1718.9,1712.8,1714.6,1718.9,0.0,0.0,0.0,0.0,0,0,0,0,-45.0,4.393146444906833E-11,1.16175211817775E-11,0,6.502749,6.253279,0.06314855,-0.0059217443,-0.9979895,1.0000029,0.28511703,-0.23106274,-0.18918678,0.41288418,-304,297,1439,1500.0,2.8398586E-4,0.0010066198,7.007426E-4,0.0012589565,0.001045911736103547,-0.0010350180717647504,0.34123280619394974,3.6756091385173444,-125.60923724343313,234.39076275656686,-0.04461242257029719,0.47837915349491367,-0.4728962716209458,-126.18930367131964,,1.694882485525976E-4,,,64.89,NONE,0.0,0.0,0.0,NONE,4.316752537231921E-11,3.9002724030314725E-11,1.04904175E-5,17.3,17.3,6.181,1.5191673,0,3577,4.32,12.0,1.195,98,27.3,OK,12,0,0,0,0,0,65,100,0.0,0,0.0,589232.0,2.69E-43,0.0,-2.3092525E-8,67,2.5940128E-5,-2.594025E-5,9.4E-44,False,False,0,None,0.0,1.0842022E-19,
58699071,15.256,0.0,0.0,0,6.478968,6.4941525,0.063194625,-0.0067513986,-0.99651784,0.9985424,0.19497982,-0.15678045,0.0010513755,0.2501966,-304,297,1439,1500.0,-0.009769236,-0.0034245392,0.006509651,0.012228695,0.010352073864294608,-0.010352073864294608,0.31010939141290483,3.611583706984248,-127.05853519308245,232.94146480691757,-0.11401968748453875,0.8549341643802726,-0.8448036443307761,-126.32657714109209,,0.0,,,64.91,,,0.0,0.0,20151018,12,2015-10-18T00:00:12Z,-17.0,99.99,99.99,3.75E7,0,0,0,0.0,0.0,0.0,0,0,0,0,0,0,,,,,,,,,,,,,,,,,,false,false,false,false,false,false,false,false,false,false,0,0,0,0,56,72,71,55,944,945,944,944,940,940,940,940,0.0,0.0,0.0,0.0,1719.6,1714.6,1714.0,1718.9,0.0,0.0,0.0,0.0,0,0,0,0,-45.0,1.1122555589328723E-10,-1.158207592573568E-10,0,6.4314065,6.252824,0.06343516,-0.0062710466,-0.996231,0.9982683,0.37650314,-0.2688847,-0.014479214,0.46288577,-308,297,1439,1501.0,-0.0025908244,0.0024896767,0.0033993423,0.004946351,0.003593168683385913,-0.0035774250515383434,0.3049435682004227,3.651598376911617,-125.64169970107145,234.35830029892855,-0.06628696550011365,0.6083011748470653,-0.6444050799750025,-126.69506401276426,,2.1398271878134178E-4,,,64.9,NONE,0.0,0.0,0.0,NONE,7.69387569448325E-11,-1.1386875372850193E-10,1.335144E-5,17.3,17.3,6.181,1.4546682,0,3576,4.32,12.0,1.213,98,27.3,OK,13,0,0,0,0,0,65,100,0.0,0,0.0,589232.0,2.69E-43,0.0,-2.3092525E-8,67,2.5940128E-5,-2.594025E-5,9.4E-44,False,False,0,None,0.0,1.0842022E-19,
62698070,16.295,0.0,0.0,0,6.320429,6.488745,0.06319259,-0.0063641625,-0.99719995,0.9992205,0.08311275,-0.17728993,-0.10634958,0.22282207,-308,297,1444,1506.0,-0.012762751,-0.002074178,0.016069807,0.020625925,0.012930198724874076,-0.012930198724874076,0.3037091425186994,3.613248585990483,-127.05409645736907,232.94590354263093,-0.16584072072798003,1.0248150355653691,-1.0094365815390858,-126.77864914648906,,0.0,,,64.95,,,0.0,0.0,20151018,13,2015-10-18T00:00:13Z,-17.0,99.99,99.99,3.75E7,0,0,0,0.0,0.0,0.0,0,0,0,0,0,0,,,,,,,,,,,,,,,,,,false,false,false,false,false,false,false,false,false,false,0,0,0,0,55,71,72,55,944,945,944,945,940,940,940,940,0.0,0.0,0.0,0.0,1717.1,1714.0,1714.6,1718.9,0.0,0.0,0.0,0.0,0,0,0,0,-45.0,2.3171250055284222E-11,-1.4219149442126002E-11,0,6.381202,6.2523003,0.063345335,-0.0058121383,-0.99870723,1.000731,-0.047548756,-0.35200876,0.0182529,0.35567433,-304,301,1444,1506.0,-3.2707755E-4,5.350329E-4,0.0021763868,0.002264928,6.270884542934329E-4,-6.127040650277659E-4,0.3327947023746044,3.66511350440502,-125.46505174408622,234.53494825591378,-0.046125642069860244,0.7671668967558554,-0.9058161042938081,-125.7903986867912,,2.55503526032898E-4,,,64.97,NONE,0.0,0.0,0.0,NONE,-4.774854540711488E-11,-5.939417180932818E-11,1.4305115E-5,17.3,17.3,6.181,1.393305,0,3576,4.32,12.0,1.202,98,27.3,OK,14,0,0,0,0,0,65,100,0.0,0,0.0,589232.0,2.69E-43,0.0,-2.3092525E-8,67,2.5940128E-5,-2.594025E-5,9.4E-44,False,False,0,None,0.0,1.0842022E-19,
66686696,17.332,0.0,0.0,0,6.3468523,6.4359655,0.06408984,-0.005317225,-0.99664205,0.99871475,0.18138996,-0.28104383,-0.21652968,0.39846337,-304,297,1452,1512.0,-0.016078945,6.000373E-4,0.031407252,0.035288922,0.016090137123326048,-0.016090137123326048,0.29990404468483517,3.6172028548306656,-127.05393936978112,232.94606063021888,-0.20392682439821405,1.2024018011686972,-1.1649123404652457,-126.18516608256603,,0.0,,,64.94,,,0.0,0.0,20151018,14,2015-10-18T00:00:14Z,-17.0,99.99,99.99,3.75E7,0,0,0,0.0,0.0,0.0,0,0,0,0,0,0,,,,,,,,,,,,,,,,,,false,false,false,false,false,false,false,false,false,false,0,0,0,0,55,70,69,55,944,945,944,944,940,940,940,940,0.0,0.0,0.0,0.0,1717.7,1714.6,1715.3,1717.1,0.0,0.0,0.0,0.0,0,0,0,0,-45.0,2.916642014860971E-11,-1.6951761095166725E-11,0,6.579376,6.252267,0.06406402,-0.0063127265,-0.9967678,0.9988444,0.21184269,-0.121275224,-0.07927634,0.256651,-308,293,1439,1500.0,-3.6360402E-4,6.27284E-4,0.0025591322,0.0026598591,7.250469711514344E-4,-7.243402405352379E-4,0.3404043555766046,3.6654899363667175,-125.63022469751176,234.36977530248822,-0.0672895494100926,0.886842068977991,-1.0510487512326185,-127.11777471859823,,2.9769184004473537E-4,,,64.95,NONE,0.0,0.0,0.0,NONE,4.94249237014164E-11,-2.343923005301929E-11,1.2397766E-5,17.301,17.301,6.181,1.3387219,0,3576,4.32,12.0,1.198,98,27.4,OK,15,0,0,0,0,0,65,100,0.0,0,0.0,589232.0,2.69E-43,0.0,-2.3092525E-8,67,2.5940128E-5,-2.594025E-5,9.4E-44,False,False,0,None,0.0,1.0842022E-19,
70545676,18.335,0.0,0.0,0,6.0614815,6.368378,0.06308377,-0.0052124434,-0.9982112,1.0002161,-0.014499757,-0.2600897,-0.18185738,0.31769323,-308,293,1439,1500.0,-0.016791413,-3.606138E-4,0.04483921,0.04788148,0.0167952842083856,-0.0167952842083856,0.30135304076060465,3.61125288623678,-127.05993674915261,232.9400632508474,-0.2455682963518117,1.329834050726955,-1.3683897758438797,-127.2004838864943,,0.0,,,64.98,,,0.0,0.0,20151018,15,2015-10-18T00:00:15Z,-17.0,99.99,99.99,3.75E7,0,0,0,0.0,0.0,0.0,0,0,0,0,0,0,,,,,,,,,,,,,,,,,,false,false,false,false,false,false,false,false,false,false,0,0,0,0,55,71,72,55,944,945,944,944,940,940,940,940,0.0,0.0,0.0,0.0,1717.7,1714.0,1714.6,1717.1,0.0,0.0,0.0,0.0,0,0,0,0,-45.0,1.7749949325359115E-11,-4.148016644174316E-11,0,6.5080338,6.252079,0.063403085,-0.0061636018,-0.99753934,0.99957126,0.1549286,-0.11310445,0.1160113,0.22417428,-308,293,1448,1509.0,-9.2801603E-4,4.1492912E-4,0.002281058,0.0024973198,0.001016552965151939,-0.001013553368893,0.3225316282437995,3.6593971398322447,-125.79938970287715,234.20061029712286,-0.11416756387821492,1.0378654681936268,-1.2088450334579925,-127.02615011247775,,3.4415598041125296E-4,,,64.97,NONE,0.0,0.0,0.0,NONE,-3.4335950404593266E-11,1.1988248635916756E-11,1.7166138E-5,17.301,17.301,6.183,1.292591,0,3575,4.321,12.0,1.203,98,27.4,OK,16,0,0,0,0,0,65,100,0.0,0,0.0,589232.0,2.69E-43,0.0,-2.3092525E-8,67,2.5940128E-5,-2.594025E-5,9.4E-44,False,False,0,None,0.0,1.0842022E-19,
74443024,19.347,0.0,0.0,0,6.381202,6.32482,0.062972955,-0.0059378324,-0.99788755,0.9998902,0.22701094,-0.19379087,0.013542017,0.2987846,-304,297,1460,1520.0,-0.014536857,-0.0016529434,0.033530667,0.036583576,0.014630530757209166,-0.014630530757209166,0.29961584707165834,3.6077141138705535,-127.04256786892559,232.95743213107443,-0.25542604775278016,1.4861384271319262,-1.577664885319343,-126.1548892714897,,0.0,,,64.98,,,0.0,0.0,20151018,16,2015-10-18T00:00:16Z,-17.0,99.99,99.99,3.75E7,0,0,0,0.0,0.0,0.0,0,0,0,0,0,0,,,,0,0,0,1,0,0,0,0,0,0,19,1,0,0,false,false,false,false,false,false,false,false,false,false,0,0,0,0,55,70,70,55,944,945,944,945,940,940,940,940,0.0,0.0,0.0,0.0,1717.1,1714.6,1715.9,1717.7,0.0,0.0,0.0,0.0,0,0,0,0,-45.0,1.6143768718965694E-11,4.607190567260505E-11,0,6.024489,6.2523637,0.063604854,-0.005449744,-0.9981893,1.0002285,0.14697124,-0.15775977,-0.123970024,0.2487112,-304,297,1456,1516.0,0.0010352766,3.7905216E-4,3.3402882E-4,0.001151978,0.0011024872111065386,-0.0010928742654224245,0.3257313531244325,3.6653342177179824,-125.74124294112185,234.25875705887813,-0.15893540883280796,1.1567020001422408,-1.3879335183470085,-126.05530058905221,,3.951485825860709E-4,,,64.98,NONE,0.0,0.0,0.0,NONE,4.0791784647070646E-11,-3.2732776400020802E-12,0.0,17.3,17.3,6.182,1.2557273,0,3575,4.32,12.0,1.204,98,27.4,OK,17,0,0,0,0,0,65,100,0.0,0,0.0,589232.0,2.69E-43,0.0,-2.3092525E-8,67,2.5940128E-5,-2.594025E-5,9.4E-44,False,False,0,None,0.0,1.0842022E-19,
78501741,20.402,0.0,0.0,0,6.3574214,6.3430414,0.063920036,-0.0059899734,-0.99758524,0.9996489,0.25485384,-0.2640422,-0.23166876,0.4339806,-308,297,1460,1521.0,-0.012019696,-0.0037467987,0.010493806,0.016389983,0.01259013829998531,-0.01259013829998531,0.3019564044637948,3.6154212694435937,-127.04110190059022,232.9588980994098,-0.2951311578441747,1.6173341398074905,-1.7419125744096862,-126.6470704153081,,0.0,,,64.98,,,0.0,0.0,20151018,17,2015-10-18T00:00:17Z,-17.0,99.99,99.99,3.75E7,0,0,0,0.0,0.0,0.0,0,0,0,0,0,0,,,,1,114,70,2,2647,3805,3992,4018,3,16023,191,4400,15569,0,false,false,false,false,false,false,false,false,false,false,0,0,0,0,55,73,72,55,944,945,944,945,940,940,940,940,0.0,0.0,0.0,0.0,1718.3,1715.3,1714.0,1717.7,0.0,0.0,0.0,0.0,0,0,0,0,-45.0,-1.6250307109127982E-11,2.6004256166778836E-11,0,6.29929,6.2521605,0.06427724,-0.0061880066,-0.996306,0.99839646,0.046126276,-0.11024006,0.003951945,0.11956639,-308,297,1460,1521.0,5.5807084E-4,-3.61234E-4,0.0017546094,0.0018763228,6.647804766456768E-4,-6.607635520435341E-4,0.31816333182822143,3.668237985571995,-125.73411056089199,234.265889439108,-0.17011670169901238,1.259809073555098,-1.545169166080895,-126.51146569118075,,4.6102914109535394E-4,,,64.94,NONE,0.0,0.0,0.0,NONE,-2.538829433525131E-11,-5.157765278307017E-12,-1.9073486E-6,17.3,17.3,6.181,1.2277082,0,3575,4.32,12.0,1.194,98,27.4,OK,18,0,0,0,0,0,65,100,0.0,0,0.0,589232.0,2.69E-43,0.0,-1.05007105E-23,62,2.5940128E-5,-2.594025E-5,9.4E-44,False,False,0,None,0.0,1.0842022E-19,
82418734,21.420,0.0,0.0,0,6.3521366,6.356608,0.06453967,-0.005926319,-0.9965542,0.9986595,0.13424395,-0.30996507,-0.090583384,0.34972152,-308,297,1460,1521.0,-0.011766671,-0.0016334419,0.0034156188,0.01236079,0.011879506892086415,-0.011879506892086415,0.29597771095455017,3.6323078825728605,-127.04506591958068,232.95493408041932,-0.356441236451994,1.7324009752272156,-1.9149095598815429,-126.57728463141018,,0.0,,,64.95,,,0.0,0.0,20151018,18,2015-10-18T00:00:18Z,-17.0,99.99,99.99,3.75E7,0,0,0,0.0,0.0,0.0,0,0,0,0,0,0,,,,1,114,70,2,2647,3805,3992,4018,3,16023,191,4400,15569,0,false,false,false,false,false,false,false,false,false,false,0,0,0,0,55,71,71,56,944,945,944,944,940,940,940,940,0.0,0.0,0.0,0.0,1718.3,1715.3,1714.6,1718.9,0.0,0.0,0.0,0.0,0,0,0,0,-45.0,5.15833391880705E-11,-3.580343501824142E-11,0,6.716777,6.252349,0.064379536,-0.0057444926,-0.9985123,1.0006021,0.06648464,-0.18141285,0.009870464,0.19346383,-308,297,1456,1517.0,-7.984222E-4,0.0011364673,-0.0014843107,0.002032785,0.0013888974003588696,-0.0013788736431799107,0.31881192828140303,3.670553776393688,-125.68300930888596,234.31699069111403,-0.2568986199725703,1.4317657075024361,-1.721478578487845,-126.53604193135517,,5.1182899420524E-4,,,64.98,NONE,0.0,0.0,0.0,NONE,6.031177454454403E-11,3.569232136072172E-11,-2.861023E-6,17.3,17.3,6.182,1.2072712,0,3574,4.32,12.0,1.196,98,27.4,OK,19,0,0,0,0,0,65,100,0.0,0,0.0,589232.0,2.69E-43,0.0,-1.05007105E-23,62,2.5940128E-5,-2.594025E-5,9.4E-44,False,False,0,None,0.0,1.0842022E-19,
86270751,22.421,0.0,0.0,0,6.220021,6.3917203,0.0639564,-0.0056807143,-0.9969776,0.99904305,0.14611344,-0.2501308,-0.054837935,0.29482496,-304,301,1448,1509.0,-0.010405874,1.14842376E-4,-0.01135201,0.0154001145,0.010406507774523085,-0.010406507774523085,0.29869813817650154,3.6384584723580042,-127.02800108323797,232.97199891676203,-0.410915432457974,1.9128420377600366,-2.091632920551759,-125.76884002128514,,0.0,,,65.03,,,0.0,0.0,20151018,20,2015-10-18T00:00:20Z,-17.0,99.99,99.99,3.75E7,0,0,0,0.0,0.0,0.0,0,0,0,0,0,0,,,,103,146,65,4,1468,2278,3990,4019,5,16061,191,26886,16239,0,false,false,false,false,false,false,false,false,false,false,0,0,0,0,56,71,71,56,944,945,944,945,940,940,940,940,0.0,0.0,0.0,0.0,1718.9,1714.0,1714.0,1717.7,0.0,0.0,0.0,0.0,0,0,0,0,-45.0,-1.2100146624767197E-11,2.3179616260141303E-11,0,6.3389254,6.252293,0.06354647,-0.0054333317,-0.99683684,0.998875,0.19027011,-0.04447117,-0.010048542,0.19565627,-300,305,1460,1521.0,5.0378195E-4,-2.5022842E-4,-8.189983E-4,9.935637E-4,5.625038089703174E-4,-5.528626843110555E-4,0.3139523841208865,3.6718439503293925,-125.68606496665493,234.31393503334507,-0.27775766337380564,1.5677932324163488,-1.9175123467195698,-124.7166867460247,,5.62238201954847E-4,,,64.96,NONE,0.0,0.0,0.0,NONE,-5.346553919401442E-11,5.468256055306956E-11,-1.9073486E-6,17.299,17.299,6.18,1.1932383,0,3574,4.319,12.0,1.197,98,27.5,OK,20,0,0,0,0,0,65,100,0.0,0,0.0,589232.0,2.69E-43,0.0,-1.05007105E-23,62,2.5940128E-5,-2.594025E-5,9.4E-44,False,False,0,None,0.0,1.0842022E-19,
90129828,23.424,0.0,0.0,0,6.23059,6.3563604,0.063761406,-0.0049131433,-0.9964461,0.9984961,0.27767858,-0.050961137,-0.040629473,0.2852248,-300,305,1452,1513.0,-0.008918013,6.918704E-4,0.0028136298,0.009376895,0.008944811115883132,-0.008944811115883132,0.2878018190111885,3.6533126766025266,-127.03028680340357,232.96971319659644,-0.44173722312528263,2.0396345345999585,-2.218877555568839,-124.78247479319485,,0.0,,,65.06,,,0.0,0.0,20151018,20,2015-10-18T00:00:20Z,-17.0,99.99,99.99,3.75E7,0,0,0,0.0,0.0,0.0,0,0,0,0,0,0,,,,103,146,65,4,1468,2278,3990,4019,5,16061,191,26886,16239,0,false,false,false,false,false,false,false,false,false,false,0,0,0,0,55,72,72,55,944,945,944,946,940,940,940,940,0.0,0.0,0.0,0.0,1718.3,1712.8,1714.6,1717.7,0.0,0.0,0.0,0.0,0,0,0,0,-45.0,8.683650015219567E-11,1.6744436080795332E-11,0,6.3838444,6.2526097,0.064593464,-0.0053792703,-0.9974299,0.9995337,0.13028164,-0.16310915,0.03819803,0.21221921,-300,305,1468,1529.0,3.9652703E-4,0.0018988452,-0.0015999225,0.0025144778,0.0019398058524768013,-0.0019288138541192765,0.3081240009248169,3.6887920142917987,-125.69443762621832,234.3055623737817,-0.27461223365184256,1.7291191222217137,-2.087990475330097,-124.58316160241883,,5.941467458887755E-4,,,65.0,NONE,0.0,0.0,0.0,NONE,2.9513094761239887E-11,5.242995990095271E-12,-7.6293945E-6,17.298,17.298,6.18,1.1849822,0,3573,4.32,12.0,1.22,98,27.5,OK,21,0,0,0,0,0,65,100,0.0,0,0.0,589232.0,2.69E-43,0.0,-1.05007105E-23,62,2.5940128E-5,-2.594025E-5,9.4E-44,False,False,0,None,0.0,1.0842022E-19,
94027047,24.437,0.0,0.0,0,6.124897,6.3069353,0.063650735,-0.0049987184,-0.9972829,0.9993246,0.12723094,-0.19437177,0.05353221,0.2383984,-300,305,1444,1506.0,-0.007863675,0.0050671813,0.021988565,0.02389583,0.009354876767554435,-0.009354876767554435,0.2850524372353164,3.654903915234838,-127.00915051660459,232.9908494833954,-0.4380720124929805,2.142205772170883,-2.399210839660362,-124.83357324815998,,0.0,,,64.96,,,0.0,0.0,20151018,21,2015-10-18T00:00:21Z,-17.0,99.99,99.99,3.75E7,0,0,0,0.0,0.0,0.0,0,0,0,0,0,0,,,,106,114,99,6,2140,2140,3989,4018,3,16013,-12,2249,1,0,false,false,false,false,false,false,false,false,false,false,0,0,0,0,56,70,71,56,944,945,944,945,940,940,940,940,0.0,0.0,0.0,0.0,1718.3,1714.0,1714.6,1718.3,0.0,0.0,0.0,0.0,0,0,0,0,-45.0,-4.3889110544345964E-11,7.143117973637722E-11,0,6.3521366,6.2522287,0.06365792,-0.0052426807,-0.9972976,0.99934095,0.12753877,-0.06062891,0.039977506,0.14676581,-300,301,1444,1505.0,7.7556283E-4,-4.737917E-4,-4.997052E-6,9.088461E-4,9.088323909830074E-4,-8.93275911197195E-4,0.3233499584643788,3.65931651428678,-125.66986485108394,234.33013514891604,-0.2596942635125435,1.8813500923009294,-2.2143071524010076,-125.27046385920372,,6.304692619631153E-4,,,64.94,NONE,0.0,0.0,0.0,NONE,-2.3045234095234867E-11,3.775249930061392E-11,-4.7683716E-7,17.297,17.297,6.178,1.182219,0,3573,4.319,12.0,1.229,98,27.5,OK,22,0,0,0,0,0,65,100,0.0,0,0.0,589232.0,2.69E-43,0.0,-1.05007105E-23,62,2.5940128E-5,-2.594025E-5,9.4E-44,False,False,0,None,0.0,1.0842022E-19,
97893624,25.442,0.0,0.0,0,6.238517,6.25151,0.06436041,-0.005991693,-0.9968141,0.9989076,0.24972324,-0.14840382,0.027300794,0.2917717,-300,297,1435,1495.0,-0.009411734,0.005942862,0.022428712,0.02503888,0.01113096305999183,-0.01113096305999183,0.2760797628435288,3.662889489857317,-127.00268353952687,232.99731646047314,-0.4378075015442868,2.2546897727501034,-2.556797288510338,-125.59244288487855,,0.0,,,65.0,,,0.0,0.0,20151018,23,2015-10-18T00:00:23Z,-17.0,99.99,99.99,3.75E7,0,0,0,0.0,0.0,0.0,0,0,0,0,0,0,,,,131,48,99,7,2140,2140,3989,4017,0,16009,-12,66,0,0,false,false,false,false,false,false,false,false,false,false,0,0,0,0,55,71,70,55,944,944,943,944,940,940,940,940,0.0,0.0,0.0,0.0,1717.7,1714.0,1714.6,1717.7,0.0,0.0,0.0,0.0,0,0,0,0,-45.0,2.9016122584990276E-11,-3.524786672786211E-11,0,6.0852623,6.252497,0.06401809,-0.006166551,-0.9955805,0.9976557,0.11408928,-0.21107107,-0.01294517,0.24028097,-300,297,1431,1491.0,-8.1818405E-4,6.699736E-4,-0.0015080535,0.0018418782,0.001057492216464278,-0.0010431947059720195,0.29160442367043043,3.672743492355098,-125.66933645135994,234.33066354864008,-0.27250578838957507,2.0197868453185013,-2.339371971355042,-125.62713067967252,,6.755342433285858E-4,,,65.01,NONE,0.0,0.0,0.0,NONE,6.674009182308267E-11,6.5196265587786204E-12,-4.7683716E-6,17.297,17.297,6.18,1.1840843,0,3573,4.319,12.0,1.232,98,27.5,OK,23,0,0,0,0,0,65,100,0.0,0,0.0,589232.0,2.69E-43,0.0,-1.05007105E-23,62,2.5940128E-5,-2.594025E-5,9.4E-44,False,False,0,None,0.0,1.0842022E-19,
101762422,26.448,0.0,0.0,0,6.397056,6.1992736,0.06480655,-0.006155217,-0.9970867,0.9992095,0.10088677,-0.16386667,-0.16768964,0.25524545,-300,297,1431,1491.0,-0.013493193,0.008285983,0.02393207,0.028696127,0.015834260166928904,-0.015834260166928904,0.27599207390136365,3.661961184693508,-127.00487155392518,232.99512844607483,-0.4689405345011551,2.390776182768703,-2.735034873127928,-125.62686396812295,,0.0,,,65.03,,,0.0,0.0,20151018,23,2015-10-18T00:00:23Z,-17.0,99.99,99.99,3.75E7,0,0,0,0.0,0.0,0.0,0,0,0,0,0,0,,,,131,48,99,7,2140,2140,3989,4017,0,16009,-12,66,0,0,false,false,false,false,false,false,false,false,false,false,0,0,0,0,56,71,71,55,944,945,944,944,940,940,940,940,0.0,0.0,0.0,0.0,1717.7,1715.3,1714.6,1717.7,0.0,0.0,0.0,0.0,0,0,0,0,-45.0,1.73655614290651E-11,-9.86358555715318E-11,0,6.49218,6.2524014,0.06471278,-0.0054753497,-0.9969489,0.999062,0.13830122,-0.34283254,0.078193195,0.37785652,-300,297,1431,1491.0,-0.0022234477,3.829741E-4,-0.0015259513,0.0027237688,0.00225618896380224,-0.00224906155801377,0.3103074619503405,3.6681369098689482,-125.67074963003492,234.32925036996508,-0.2972812554485484,2.184218953547839,-2.5014325709434964,-125.68539934214371,,7.180138980143306E-4,,,65.01,NONE,0.0,0.0,0.0,NONE,2.516142639010499E-11,-9.848340109697913E-11,-7.6293945E-6,17.297,17.297,6.179,1.1889893,0,3572,4.319,12.0,1.228,98,27.5,OK,24,0,0,0,0,0,65,100,0.0,0,0.0,589232.0,2.69E-43,0.0,-1.05007105E-23,62,2.5940128E-5,-2.594025E-5,9.4E-44,False,False,0,None,0.0,1.0842022E-19,
105854588,27.511,0.0,0.0,0,6.2438016,6.306354,0.064874016,-0.005081651,-0.99721664,0.9993375,0.08956394,-0.2256995,-0.111852035,0.26734406,-300,297,1448,1508.0,-0.0148477685,0.012623016,-0.024127811,0.031015288,0.0194883755141414,-0.0194883755141414,0.2863096900000405,3.658033505854268,-127.0114896225531,232.98851037744691,-0.5436367958875427,2.521021525391456,-2.92443089701838,-125.52969256045627,,0.0,,,65.01,,,0.0,0.0,20151018,25,2015-10-18T00:00:25Z,-17.0,99.99,99.99,3.75E7,0,0,0,0.0,0.0,0.0,0,0,0,0,0,0,,,,1,114,67,9,2286,3415,3988,4018,0,16052,-12,3850,47,0,false,false,false,false,false,false,false,false,false,false,0,0,0,0,55,70,71,56,944,945,944,944,940,940,940,940,0.0,0.0,0.0,0.0,1717.1,1714.6,1715.3,1717.7,0.0,0.0,0.0,0.0,0,0,0,0,-45.0,-7.251094304592087E-11,1.7663934281161394E-11,0,6.323071,6.252359,0.06436665,-0.0044445465,-0.99693066,0.9990163,0.19702129,-0.20998095,-0.07769491,0.29823798,-300,305,1456,1517.0,4.395808E-4,-0.0016676055,-4.2155012E-4,0.0017753433,0.0017245693104043917,-0.0017092021275158604,0.3423506669842842,3.661338392200185,-125.65165273137794,234.34834726862206,-0.37204191925815483,2.3572645778440493,-2.65690061062475,-124.8474498603525,,7.684699752822222E-4,,,65.01,NONE,0.0,0.0,0.0,NONE,4.594066083340173E-11,2.0113925076724368E-11,-1.2397766E-5,17.299,17.299,6.18,1.1954093,0,3572,4.319,12.0,1.231,98,27.5,OK,25,0,0,0,0,0,65,100,0.0,0,0.0,589232.0,2.69E-43,0.0,-1.05007105E-23,62,2.5940128E-5,-2.594025E-5,9.4E-44,False,False,0,None,0.0,1.0842022E-19,
109771023,28.529,0.0,0.0,0,6.0482697,6.2341146,0.064497665,-0.005787977,-0.9997913,1.0018864,0.17313142,-0.1332634,-0.019142365,0.21931724,-300,301,1452,1512.0,-0.014687074,0.010277991,0.008501193,0.019839797,0.01792616150868956,-0.01792616150868956,0.2917226786551679,3.6471290701006063,-127.01266073197687,232.98733926802313,-0.5776276395517987,2.654318292636316,-3.1207054599591606,-125.17628140880703,,0.0,,,65.04,,,0.0,0.0,20151018,26,2015-10-18T00:00:26Z,-17.0,99.99,99.99,3.75E7,0,0,0,0.0,0.0,0.0,0,0,0,0,0,0,,,,0,0,0,10,0,0,0,0,0,0,19,1,0,0,false,false,false,false,false,false,false,false,false,false,0,0,0,0,55,71,71,55,945,944,944,945,940,940,940,940,0.0,0.0,0.0,0.0,1718.3,1714.0,1714.6,1717.1,0.0,0.0,0.0,0.0,0,0,0,0,-45.0,-5.077848414049675E-11,2.973140041914287E-12,0,6.2464437,6.252153,0.06512252,-0.0052061616,-0.99890155,1.0010357,0.16401546,-0.102508076,-0.16316639,0.25304595,-300,301,1452,1512.0,4.4609627E-5,-0.0011902226,-0.0012335631,0.0017147296,0.0011910582343852279,-0.00118819255834537,0.33345586437202057,3.6538244583470867,-125.66274908988439,234.3372509101156,-0.4064703179568507,2.481997039407396,-2.835132754678751,-125.2496096324016,,8.112431595881437E-4,,,65.02,NONE,0.0,0.0,0.0,NONE,-1.9556984207768637E-11,-2.6327400828465173E-12,-4.7683716E-7,17.298,17.298,6.179,1.2022654,0,3572,4.319,12.0,1.228,98,27.5,OK,26,0,0,0,0,0,65,100,0.0,0,0.0,589232.0,2.69E-43,0.0,-1.05007105E-23,62,2.5940128E-5,-2.594025E-5,9.4E-44,False,False,0,None,0.0,1.0842022E-19,
113860952,29.592,0.0,0.0,0,6.3996983,6.1767945,0.063743,-0.0056963866,-0.9977372,0.99978757,0.01153825,-0.31872484,0.006587564,0.31900164,-300,301,1435,1496.0,-0.015222069,0.007190181,0.018803451,0.02523846,0.016834787619370354,-0.016834787619370354,0.30297093832151606,3.644763164372805,-127.00001292557141,232.9999870744286,-0.5930005457932326,2.7969206271767146,-3.3302824612434305,-125.34234810518095,,0.0,,,65.01,,,0.0,0.0,20151018,27,2015-10-18T00:00:27Z,-17.0,99.99,99.99,3.75E7,0,0,0,0.0,0.0,0.0,0,0,0,0,0,0,,,,0,48,0,11,0,0,3786,3787,0,15145,23,212,1820,0,false,false,false,false,false,false,false,false,false,false,0,0,0,0,55,71,70,55,944,945,944,945,940,940,940,940,0.0,0.0,0.0,0.0,1717.7,1714.0,1714.0,1718.3,0.0,0.0,0.0,0.0,0,0,0,0,-45.0,-3.847375766136972E-11,-1.2565778212158047E-11,0,6.19624,6.2524147,0.064108916,-0.0055158045,-0.99718684,0.9992607,0.0795637,-0.24575128,0.08832955,0.27299485,-296,301,1435,1495.0,-2.6342372E-4,-8.759967E-4,-4.5235746E-4,0.001020485,9.147471217693496E-4,-9.126736807987708E-4,0.33622015454019066,3.6673288554158785,-125.65504116415426,234.34495883584574,-0.4174118777183095,2.6035588466690407,-2.997356133710655,-124.8199215544207,,8.491024938749006E-4,,,64.97,NONE,0.0,0.0,0.0,NONE,-2.5984827617246876E-11,-2.935021521188874E-11,9.536743E-7,17.297,17.297,6.179,1.2089709,0,3571,4.319,12.0,1.237,98,27.5,OK,27,0,0,0,0,0,65,100,0.0,0,0.0,589232.0,2.69E-43,0.0,-1.05007105E-23,62,2.5940128E-5,-2.594025E-5,9.4E-44,False,False,0,None,0.0,1.0842022E-19,
117758738,30.605,0.0,0.0,0,5.966358,6.182987,0.06384884,-0.005067057,-0.998445,1.0004972,0.26224792,-0.25826147,0.068475746,0.37438202,-300,305,1452,1513.0,-0.014183291,0.0055746795,-0.0025286884,0.015447883,0.015239514575153124,-0.015239514575153124,0.3035761976180198,3.662111090420525,-127.0058728117752,232.9941271882248,-0.5998319984335952,2.9192343870308344,-3.511523074023692,-124.78858904005183,,0.0,,,64.96,,,0.0,0.0,20151018,27,2015-10-18T00:00:27Z,-17.0,99.99,99.99,3.75E7,0,0,0,0.0,0.0,0.0,0,0,0,0,0,0,,,,1,114,27,12,981,3712,3786,3786,0,15145,23,3850,9,0,false,false,false,false,false,false,false,false,false,false,0,0,0,0,56,72,72,57,944,945,944,945,940,940,940,940,0.0,0.0,0.0,0.0,1717.7,1714.6,1714.6,1717.7,0.0,0.0,0.0,0.0,0,0,0,0,-45.0,-7.897762721295985E-12,3.418326716324208E-11,0,6.0297737,6.252478,0.063905,-0.0054509244,-0.99636024,0.9984224,0.06561765,-0.28906974,-0.11563649,0.31818044,-300,305,1448,1509.0,7.8365754E-4,-1.6632795E-4,-9.1876724E-4,0.0012189822,8.011143117546976E-4,-7.949827534343792E-4,0.3352764409414695,3.680530418824719,-125.65199271690967,234.34800728309034,-0.419266212016032,2.758529354747956,-3.211191452725683,-124.82977746804177,,8.919692545927983E-4,,,65.0,NONE,0.0,0.0,0.0,NONE,4.968022367218854E-11,-3.755380193541903E-12,-7.6293945E-6,17.297,17.297,6.18,1.2152017,0,3571,4.319,12.0,1.23,98,27.5,OK,28,0,0,0,0,0,65,100,0.0,0,0.0,589232.0,2.69E-43,0.0,-5.9807744E7,62,2.5940128E-5,-2.594025E-5,9.4E-44,False,False,0,None,0.0,1.0842022E-19,
121675052,31.623,0.0,0.0,0,6.2596555,6.0950265,0.0646059,-0.005088593,-0.9974541,0.99955714,0.17837703,-0.21604641,-0.02879894,0.2816448,-300,305,1444,1506.0,-0.012840535,0.005197238,0.013097288,0.019063829,0.013852458463843786,-0.013852458463843786,0.3042510709647572,3.666433770082163,-127.01396952835356,232.98603047164644,-0.6470158800689886,3.1144759166403477,-3.7486512589145238,-124.83831814591805,,0.0,,,64.99,,,0.0,0.0,20151018,28,2015-10-18T00:00:28Z,-17.0,99.99,99.99,3.75E7,0,0,0,0.0,0.0,0.0,0,0,0,0,0,0,,,,1,17,27,13,981,3712,3786,3788,0,15145,23,2,9,0,false,false,false,false,false,false,false,false,false,false,0,0,0,0,56,71,70,55,945,945,944,946,940,940,940,940,0.0,0.0,0.0,0.0,1717.7,1714.0,1714.0,1717.7,0.0,0.0,0.0,0.0,0,0,0,0,-45.0,-3.0836719872972956E-11,-1.0885674344538213E-10,0,6.064124,6.251848,0.06399875,-0.0053944085,-0.99588805,0.9979569,0.08659161,-0.2708407,0.03208771,0.28615102,-300,309,1448,1510.0,-0.0024206229,-6.800051E-4,0.0021034807,0.0032781784,0.002514323404807619,-0.002498497077934677,0.3293195398301773,3.672976468678256,-125.70149727779342,234.2985027222066,-0.4722466049310731,2.952915619881574,-3.4084348287227106,-124.48239140212785,,9.39611722871743E-4,,,64.95,NONE,0.0,0.0,0.0,NONE,-3.225688314300742E-11,-1.0866510506547727E-10,8.583069E-6,17.295,17.295,6.179,1.2205071,0,3571,4.319,12.0,1.229,98,27.5,OK,29,0,0,0,0,0,65,100,0.0,0,0.0,589232.0,2.69E-43,0.0,-5.9807744E7,62,2.5940128E-5,-2.594025E-5,9.4E-44,False,False,0,None,0.0,1.0842022E-19,
125598104,32.642,0.0,0.0,0,6.064124,6.038263,0.06466672,-0.004941389,-0.9959647,0.99807405,0.11004195,-0.10121093,0.04614214,0.15646718,-300,309,1460,1522.0,-0.009558512,0.00441771,0.030528005,0.03229304,0.010530019742482835,-0.010530019742482835,0.30704776156799574,3.6631703282836767,-127.00832635652533,232.99167364347466,-0.7045710267107151,3.2483098286525864,-3.9326106851239033,-124.37221923229895,,0.0,,,65.03,,,0.0,0.0,20151018,30,2015-10-18T00:00:30Z,-17.0,99.99,99.99,3.75E7,0,0,0,0.0,0.0,0.0,0,0,0,0,0,0,,,,18,16,27,14,981,3712,3746,3762,-1222,14962,23,0,14475,0,false,false,false,false,false,false,false,false,false,false,0,0,0,0,56,72,71,56,944,944,944,946,940,940,940,940,0.0,0.0,0.0,0.0,1717.7,1714.6,1714.6,1717.1,0.0,0.0,0.0,0.0,0,0,0,0,-45.0,-4.800606765559996E-11,3.785315520461411E-11,0,6.4816103,6.2518816,0.06407144,-0.0052392925,-0.9957914,0.99786425,0.1005753,-0.08213026,-0.12762146,0.18206593,-300,309,1464,1526.0,8.526907E-4,-0.0010827496,0.001580491,0.002096993,0.0013781973990791142,-0.0013620881476081117,0.336325319524096,3.669085387578918,-125.67786385206291,234.3221361479371,-0.48418755057908397,3.081154106014018,-3.606724387951198,-124.38632569640852,,9.808349270345206E-4,,,65.02,NONE,0.0,0.0,0.0,NONE,4.094407572158605E-12,3.159706409595967E-11,-1.9073486E-6,17.295,17.295,6.177,1.2245921,0,3570,4.319,12.0,1.228,98,27.5,OK,30,0,0,0,0,0,65,100,0.0,0,0.0,589232.0,2.69E-43,0.0,-5.9807744E7,62,2.5940128E-5,-2.594025E-5,9.4E-44,False,False,0,None,0.0,1.0842022E-19,
129458771,33.646,0.0,0.0,0,5.910869,6.103317,0.06402662,-0.0053453064,-0.9969887,0.9990568,0.10823758,-0.04659858,-0.13493511,0.17914878,-300,309,1464,1526.0,-0.0073368936,0.0017716617,-0.010802056,0.013177754,0.007547767519236189,-0.007547767519236189,0.29336721097932733,3.657538797209192,-127.00736435688938,232.99263564311062,-0.7932732847266558,3.404752085894397,-4.08692372905913,-124.32947090690818,,0.0,,,64.96,,,0.0,0.0,20151018,30,2015-10-18T00:00:30Z,-17.0,99.99,99.99,3.75E7,0,0,0,0.0,0.0,0.0,0,0,0,0,0,0,,,,18,20,27,15,981,3712,3746,3762,-1222,14962,23,2,14475,0,false,false,false,false,false,false,false,false,false,false,0,0,0,0,55,72,72,55,944,944,944,945,940,940,940,940,0.0,0.0,0.0,0.0,1718.9,1714.6,1714.0,1717.1,0.0,0.0,0.0,0.0,0,0,0,0,-45.0,-2.7638631864970322E-11,3.0614819362550285E-11,0,5.974285,6.251735,0.064069,-0.0045255837,-0.9970092,0.9990759,0.1999027,-0.12126494,-0.08049253,0.2472758,-300,309,1460,1522.0,6.947578E-4,-6.341456E-4,8.2778913E-4,0.0012530219,9.406534845984312E-4,-9.382580335033123E-4,0.3104939681300676,3.6698465674254903,-125.6628531397652,234.33714686023478,-0.4998974094012353,3.211611017853761,-3.784549157027546,-124.35753768123736,,0.0010159756292340203,,,64.99,NONE,0.0,0.0,0.0,NONE,-2.400968634994957E-11,2.8294766184932946E-11,3.8146973E-6,17.295,17.295,6.179,1.2274655,0,3570,4.319,12.0,1.226,98,27.5,OK,31,0,0,0,0,0,65,100,0.0,0,0.0,589232.0,2.69E-43,0.0,-5.9807744E7,62,2.5940128E-5,-2.594025E-5,9.4E-44,False,False,0,None,0.0,1.0842022E-19,
133502670,34.697,0.0,0.0,0,6.0112777,6.13611,0.06350593,-0.005575614,-0.99765223,0.99968696,0.2098056,-0.25837946,0.010631243,0.33300355,-300,313,1481,1543.0,-0.008735027,0.0018326183,-0.009530741,0.013057343,0.00892519942905614,-0.00892519942905614,0.2984768194572936,3.6454514182803086,-126.99946263399971,233.0005373660003,-0.8188249229372369,3.550728412701716,-4.261704449914937,-123.89809149207628,,0.0,,,64.99,,,0.0,0.0,20151018,32,2015-10-18T00:00:32Z,-17.0,99.99,99.99,3.75E7,0,0,0,0.0,0.0,0.0,0,0,0,0,0,0,,,,18,20,27,15,981,3712,3746,3762,-1222,14962,23,2,14475,0,false,false,false,false,false,false,false,false,false,false,0,0,0,0,55,72,71,56,944,944,944,945,940,940,940,940,0.0,0.0,0.0,0.0,1717.7,1712.8,1714.6,1716.5,0.0,0.0,0.0,0.0,0,0,0,0,-45.0,-2.3851582236043897E-11,-1.8327086737758418E-11,0,6.1486783,6.251736,0.064323895,-0.0049058413,-0.99761194,0.9996956,0.08332524,-0.12884225,-0.1372276,0.20585148,-304,309,1468,1530.0,-4.1021858E-4,-5.610888E-4,8.3121E-4,0.0010835174,6.9505391065696E-4,-6.898603760276996E-4,0.30786272823439853,3.653943196471546,-125.70488278705027,234.29511721294972,-0.5275989878555039,3.35855791258418,-3.9806767540077965,-124.85724129389031,,0.0010658071565692402,,,65.03,NONE,0.0,0.0,0.0,NONE,-7.1404251020358204E-12,-3.963881704941731E-12,8.583069E-6,17.295,17.295,6.178,1.2292308,0,3570,4.318,12.0,1.226,98,27.5,OK,32,0,0,0,0,0,65,100,0.0,0,0.0,589232.0,2.69E-43,0.0,-5.9807744E7,62,2.5940128E-5,-2.594025E-5,9.4E-44,False,False,0,None,0.0,1.0842022E-19,
137419027,35.715,0.0,0.0,0,6.005993,6.101275,0.06307624,-0.005537578,-0.9976894,0.99969673,0.26421335,-0.2149913,-0.022908794,0.3414012,-304,305,1460,1522.0,-0.0075916783,-5.326166E-4,0.009216347,0.011952335,0.007610338971109717,-0.007610338971109717,0.29942754185248494,3.6343349687634183,-126.9996132574879,233.0003867425121,-0.8470577274626558,3.7502252932303324,-4.466816866614525,-125.32498280125287,,0.0,,,65.0,,,0.0,0.0,20151018,33,2015-10-18T00:00:33Z,-17.0,99.99,99.99,3.75E7,0,0,0,0.0,0.0,0.0,0,0,0,0,0,0,,,,44,48,27,17,972,3712,3779,3780,0,15119,23,212,3,0,false,false,false,false,false,false,false,false,false,false,0,0,0,0,55,71,71,55,944,944,943,945,940,940,940,940,0.0,0.0,0.0,0.0,1718.3,1712.8,1714.6,1717.7,0.0,0.0,0.0,0.0,0,0,0,0,-45.0,7.476576597084438E-11,-8.238293402567678E-11,0,5.7787533,6.252272,0.063968815,-0.0054911976,-0.997088,0.99915296,0.13209948,-0.23572658,0.006923604,0.2703058,-304,309,1468,1530.0,-9.1201667E-4,8.307559E-4,-0.0021741919,0.002499808,0.0012336651852530459,-0.001220818474182644,0.2923530114016684,3.6648352191741416,-125.73053050713236,234.26946949286764,-0.5284365892614185,3.480270656179748,-4.164823942056687,-124.78624475634636,,0.0011267822739216384,,,64.98,NONE,0.0,0.0,0.0,NONE,-3.425568712659547E-13,2.074949520169624E-11,-2.861023E-6,17.293,17.293,6.179,1.2303443,0,3569,4.318,12.0,1.238,98,27.5,OK,33,0,0,0,0,0,65,100,0.0,0,0.0,589232.0,2.69E-43,0.0,-5.9807744E7,62,2.5940128E-5,-2.594025E-5,9.4E-44,False,False,0,None,0.0,1.0842022E-19,
406600872,105.674,0.0,0.0,0,5.902942,6.1007385,0.06364909,-0.005713309,-0.99592584,0.99797404,0.11188508,-0.18611105,-0.1336261,0.2549736,-304,305,1448,1510.0,-0.007529507,-7.187849E-4,0.007848464,0.010899932,0.007563737642499431,-0.007563737642499431,0.2993925903136499,3.6391313265234033,-127.00045203612844,232.99954796387158,-0.8548696026941511,3.7689944881688544,-4.48683388337681,-125.40093726208178,,0.0,,,65.02,,,0.0,0.0,20151018,33,2015-10-18T00:00:33Z,-17.0,99.99,99.99,3.75E7,0,0,0,0.0,0.0,0.0,0,0,0,0,0,0,,,,44,48,27,17,972,3712,3779,3780,0,15119,23,212,3,0,false,false,false,false,false,false,false,false,false,false,0,0,0,0,54,70,71,55,944,945,944,944,940,940,940,940,0.0,0.0,0.0,0.0,1718.9,1713.4,1714.0,1718.9,0.0,0.0,0.0,0.0,0,0,0,0,-45.0,4.012091959815864E-11,-2.612321314050276E-11,0,6.0033507,6.2524586,0.06367561,-0.0055424906,-0.99649256,0.9985403,-0.06119576,-0.14218049,-0.012383313,0.1552854,-304,305,1444,1506.0,-5.831424E-4,8.967921E-4,-0.0017575923,0.0020575281,0.0010697154315694628,-0.0010696104160449818,0.3009464698280891,3.666076291587131,-125.72278148972462,234.27721851027536,-0.5287090795011405,3.48380941088526,-4.183685017925802,-125.34699160663557,,0.0011341290713937529,,,64.99,NONE,0.0,0.0,0.0,NONE,-3.425568712659547E-13,2.074949520169624E-11,-2.861023E-6,17.294,17.294,6.178,1.2303443,0,3569,4.318,12.0,1.238,98,27.5,OK,33,0,0,0,0,0,65,100,0.0,0,0.0,589232.0,2.69E-43,0.0,-5.9807744E7,62,2.5940128E-5,-2.594025E-5,9.4E-44,False,False,0,None,0.0,1.0842022E-19,
415285073,107.931,0.0,0.0,0,6.2517285,6.134869,0.06354399,-0.0068427534,-1.0009351,1.0029734,0.19574556,-0.16846193,-0.1888501,0.31993768,-281,297,1431,1488.0,0.006723941,-0.0026155333,-0.0024386244,0.007615726,0.007214734729892972,-0.007214734729892972,0.35580772133009786,3.6828796687003535,-127.07337856406217,232.92662143593782,-7.475760117968133,12.9218065580761,-16.87956886412887,-123.17931858807889,,0.0,,,64.95,,,0.0,0.0,20151018,143,2015-10-18T00:01:43Z,-17.0,99.99,99.99,3.7500004E7,0,0,0,0.0,0.0,0.0,0,0,0,0,0,0,,,,44,48,27,17,972,3712,3779,3780,0,15119,23,212,3,0,false,false,false,false,false,false,false,false,false,false,0,0,0,0,54,70,70,55,944,944,944,946,940,940,940,940,0.0,0.0,0.0,0.0,1715.3,1710.3,1710.3,1714.0,0.0,0.0,0.0,0.0,0,0,0,0,-45.0,1.4354629670602695E-10,1.0108519275225601E-10,0,5.9214387,6.2527475,0.06389925,-0.0061607966,-0.9992476,1.0013076,0.17218918,-0.090566784,-0.11772809,0.22740132,-273,305,1439,1496.0,0.0011306383,0.0016121247,-0.0016941504,0.0025975825,0.0019690833262582777,-0.001961006120553921,0.3176653807659625,3.69410501027339,-125.65428010206847,234.34571989793153,-1.1880811628950767,7.099826410937166,-12.871242643015037,-121.16202671057914,,0.0011612811561982183,,,64.99,NONE,0.0,0.0,0.0,NONE,1.8460553847519885E-11,9.385731467276944E-11,-2.861023E-6,17.264,17.264,6.16,1.2860432,0,3545,4.311,12.0,1.288,97,27.9,OK,100,0,0,0,0,0,65,100,0.0,0,0.0,589232.0,2.69E-43,0.0,-1.05007105E-23,62,2.5940128E-5,-2.594025E-5,9.4E-44,False,False,0,None,0.0,1.0842022E-19,
419198620,108.948,0.0,0.0,0,6.024489,6.1389847,0.06406418,-0.0058156876,-1.0000403,1.002107,0.24607982,-0.1327956,-0.10627581,0.2991396,-281,301,1439,1496.0,0.005994008,-1.4826926E-4,-0.005610008,0.008211108,0.005995841364643426,-0.005995841364643426,0.3757102168491708,3.6935627739141634,-127.07747573953132,232.92252426046866,-7.687182617660377,13.377487109286763,-17.326383452014237,-122.75756260314424,,0.0,,,64.95,,,0.0,0.0,20151018,146,2015-10-18T00:01:46Z,-17.0,99.99,99.99,3.7500004E7,0,0,0,0.0,0.0,0.0,0,0,0,0,0,0,,,,44,48,27,17,972,3712,3779,3780,0,15119,23,212,3,0,false,false,false,false,false,false,false,false,false,false,0,0,0,0,54,71,70,55,944,945,944,945,940,940,940,940,0.0,0.0,0.0,0.0,1714.0,1709.7,1709.7,1714.0,0.0,0.0,0.0,0.0,0,0,0,0,-45.0,-3.457647878829893E-11,-4.301235841826784E-11,0,6.2517285,6.252846,0.06354811,-0.00637762,-0.99852234,1.0005628,0.16423976,-0.12803108,-0.008166605,0.20840669,-281,301,1427,1485.0,-9.0403814E-4,-7.7354454E-4,-5.5256695E-4,0.0013118637,0.001189813485051808,-0.0011647661532902113,0.3571483840471173,3.683940324788472,-125.65390798862126,234.34609201137874,-1.3070032944651693,7.60103751311599,-13.348369414522558,-122.85084681935558,,0.0012206873262884837,,,64.99,NONE,0.0,0.0,0.0,NONE,-1.1370718141399042E-11,3.003310668111546E-11,-1.9073486E-6,17.266,17.266,6.164,1.291843,0,3544,4.309,12.0,1.26,97,28.0,OK,103,0,0,0,0,0,65,100,0.0,0,0.0,589232.0,2.69E-43,0.0,-1.05007105E-23,62,2.5940128E-5,-2.594025E-5,9.4E-44,False,False,0,None,0.0,1.0842022E-19,
423115051,109.966,0.0,0.0,0,5.8315997,6.135464,0.06384433,-0.0056974073,-1.0006429,1.0026938,0.12650532,-0.16914533,-0.07428257,0.22390096,-285,301,1431,1489.0,0.004821177,-5.289941E-4,7.222856E-4,0.0049035987,0.004850111738635474,-0.004850111738635474,0.36892497396177926,3.6905457454309554,-127.07626219243993,232.9237378075601,-7.718423416781741,13.516104214785756,-17.532137361581906,-123.37026239731797,,0.0,,,65.02,,,0.0,0.0,20151018,147,2015-10-18T00:01:47Z,-17.0,99.99,99.99,3.7500004E7,0,0,0,0.0,0.0,0.0,0,0,0,0,0,0,,,,44,48,27,17,972,3712,3779,3780,0,15119,23,212,3,0,false,false,false,false,false,false,false,false,false,false,0,0,0,0,54,70,71,53,944,945,944,944,940,940,940,940,0.0,0.0,0.0,0.0,1715.3,1710.3,1710.3,1714.6,0.0,0.0,0.0,0.0,0,0,0,0,-45.0,4.3298247324162664E-11,-4.5857587031539305E-11,0,6.0192046,6.2528152,0.06407454,-0.0061364044,-0.99986666,1.0019364,-0.027068034,0.048924893,-0.10982368,0.12323784,-285,301,1431,1489.0,-9.929916E-4,9.391348E-4,-0.001250222,0.0018523125,0.0013667503454585519,-0.001358237359828325,0.3478565628161853,3.696110236141459,-125.65318694330479,234.34681305669523,-1.3552293336348311,7.72541313829039,-13.445945346181226,-123.30448949747692,,0.0012591547330033455,,,64.99,NONE,0.0,0.0,0.0,NONE,3.336756219216702E-11,-1.8285386433385786E-12,-4.7683716E-6,17.261,17.261,6.162,1.2941047,0,3544,4.311,12.0,1.302,97,28.0,OK,104,0,0,0,0,0,65,100,0.0,0,0.0,589232.0,2.69E-43,0.0,-1.05007105E-23,62,2.5940128E-5,-2.594025E-5,9.4E-44,False,False,0,None,0.0,1.0842022E-19,
427058688,110.991,0.0,0.0,0,6.11697,6.1245785,0.06413712,-0.006675922,-1.0005692,1.002645,0.03775024,-0.08861777,-0.022053506,0.098815724,-277,301,1431,1488.0,0.005868167,0.0015963375,0.0057927268,0.008398771,0.00608142102135331,-0.00608142102135331,0.3668083092008457,3.6887137201309494,-127.06712353812729,232.9328764618727,-7.7798068243126295,13.667041779207205,-17.7072451267905,-122.26501630566567,,0.0,,,64.99,,,0.0,0.0,20151018,148,2015-10-18T00:01:48Z,-17.0,99.99,99.99,3.7500004E7,0,0,0,0.0,0.0,0.0,0,0,0,0,0,0,,,,44,48,27,17,972,3712,3779,3780,0,15119,23,212,3,0,false,false,false,false,false,false,false,false,false,false,0,0,0,0,54,70,71,54,944,945,944,945,940,940,940,940,0.0,0.0,0.0,0.0,1715.3,1709.7,1710.3,1715.3,0.0,0.0,0.0,0.0,0,0,0,0,-45.0,7.341083295341801E-11,-8.667401277158594E-11,0,5.794607,6.2523274,0.06390774,-0.0060349926,-0.99930614,1.0013658,0.10584326,-0.19952723,-0.047418963,0.23078664,-277,301,1431,1488.0,-0.0019443104,0.0016300619,3.529063E-4,0.0025616377,0.002537211939592427,-0.0025317090866900233,0.3322187501549862,3.6757241316056053,-125.65442306457058,234.34557693542942,-1.3969470549798528,7.888186013699467,-13.564538084422553,-122.23609624999102,,0.0013165162620710222,,,64.98,NONE,0.0,0.0,0.0,NONE,4.983852795452059E-11,6.049132114353216E-11,4.2915344E-6,17.261,17.261,6.161,1.2955468,0,3543,4.309,12.0,1.312,97,28.0,OK,105,0,0,0,0,0,65,100,0.0,0,0.0,589232.0,2.69E-43,0.0,-1.05007105E-23,62,2.5940128E-5,-2.594025E-5,9.4E-44,False,False,0,None,0.0,1.0842022E-19,
431013820,112.019,0.0,0.0,0,6.008635,6.0691667,0.06362579,-0.006003733,-0.9991725,1.0012143,-0.04746366,-0.19419189,-0.12388006,0.23517984,-281,301,1427,1485.0,0.008418892,0.0032898784,0.017017506,0.019269057,0.009038862585175876,-0.009038862585175876,0.3686645648534547,3.694845301559263,-127.07647490387477,232.92352509612522,-7.828984492282862,13.783988047588165,-17.860320828158944,-122.83793559623166,,0.0,,,64.98,,,0.0,0.0,20151018,149,2015-10-18T00:01:49Z,-17.0,99.99,99.99,3.7500008E7,0,0,0,0.0,0.0,0.0,0,0,0,0,0,0,,,,44,48,27,17,972,3712,3779,3780,0,15119,23,212,3,0,false,false,false,false,false,false,false,false,false,false,0,0,0,0,53,70,70,54,944,944,944,945,940,940,940,940,0.0,0.0,0.0,0.0,1713.4,1709.7,1709.7,1714.6,0.0,0.0,0.0,0.0,0,0,0,0,-45.0,6.112453826729063E-11,8.222933572784928E-11,0,6.2332325,6.252738,0.063463755,-0.0052779634,-1.0015335,1.0035561,0.271352,-0.26434833,-0.007099882,0.37889624,-281,305,1431,1489.0,9.604175E-4,6.754814E-4,-0.0019047628,0.0022375877,0.001174170716056616,-0.0011558513929339907,0.3491566133181907,3.674345665360748,-125.65521319910175,234.34478680089825,-1.4099808784298058,8.007270995399047,-13.68950556095965,-122.47954152112966,,0.0013983988824419697,,,64.99,NONE,0.0,0.0,0.0,NONE,3.775249929784795E-11,1.1428758686330508E-11,-7.6293945E-6,17.26,17.26,6.161,1.2981948,0,3543,4.31,12.0,1.342,97,28.0,OK,106,0,0,0,0,0,65,100,0.0,0,0.0,589232.0,2.69E-43,0.0,-1.05007105E-23,62,2.5940128E-5,-2.594025E-5,9.4E-44,False,False,0,None,0.0,1.0842022E-19,
434884853,113.025,0.0,0.0,0,5.86595,6.0233088,0.06463875,-0.00602207,-1.0003275,1.0024318,0.25773448,-0.26007032,-0.040623903,0.36839372,-285,301,1427,1485.0,0.009044094,0.0035285663,0.028648619,0.030248797,0.009708059413448713,-0.009708059413448713,0.37460677175367113,3.695519713987592,-127.08415683549387,232.91584316450613,-7.864499755936688,13.965100968059328,-18.03685189889537,-123.39855714752183,,0.0,,,65.0,,,0.0,0.0,20151018,150,2015-10-18T00:01:50Z,-17.0,99.99,99.99,3.7500008E7,0,0,0,0.0,0.0,0.0,0,0,0,0,0,0,,,,44,48,27,17,972,3712,3779,3780,0,15119,23,212,3,0,false,false,false,false,false,false,false,false,false,false,0,0,0,0,53,69,71,54,944,945,944,945,940,940,940,940,0.0,0.0,0.0,0.0,1715.3,1709.1,1709.7,1714.6,0.0,0.0,0.0,0.0,0,0,0,0,-45.0,1.76521693053565E-11,7.71259507846821E-14,0,5.9531465,6.2524533,0.06465058,-0.0063646976,-1.0014958,1.0036006,0.2027889,-0.17301089,0.01781204,0.26715794,-285,301,1431,1489.0,-2.2445638E-5,3.841028E-4,-3.628722E-4,5.2888086E-4,3.84758060664599E-4,-3.7448530810286926E-4,0.34310972652222615,3.676677879456151,-125.66712398890127,234.33287601109873,-1.4223572860288096,8.195113697711644,-13.925366174855748,-123.361211324182,,0.0014690180193215998,,,65.02,NONE,0.0,0.0,0.0,NONE,-4.68193737859051E-12,8.873667442860202E-12,9.536743E-7,17.259,17.259,6.162,1.3030505,0,3542,4.31,12.0,1.354,97,28.0,OK,107,0,0,0,0,0,65,100,0.0,0,0.0,589232.0,2.69E-43,0.0,-1.05007105E-23,62,2.5940128E-5,-2.594025E-5,9.4E-44,False,False,0,None,0.0,1.0842022E-19,
438782773,114.038,0.0,0.0,0,5.9557886,5.9219837,0.06355294,-0.0067643407,-0.9998085,1.0018492,0.108096145,-0.22052889,-0.08374267,0.2594814,-277,301,1431,1488.0,0.010833818,0.0010760968,0.04825403,0.04946697,0.010887130290864177,-0.010887130290864177,0.36986780814844333,3.686047419973358,-127.08895742039407,232.91104257960592,-7.916569724903892,14.107602771361439,-18.166159188759934,-122.28111585033126,,0.0,,,64.99,,,0.0,0.0,20151018,151,2015-10-18T00:01:51Z,-17.0,99.99,99.99,3.7500008E7,0,0,0,0.0,0.0,0.0,0,0,0,0,0,0,,,,44,48,27,17,972,3712,3779,3780,0,15119,23,212,3,0,false,false,false,false,false,false,false,false,false,false,0,0,0,0,54,70,69,54,944,944,943,945,940,940,940,940,0.0,0.0,0.0,0.0,1714.0,1710.3,1709.1,1714.0,0.0,0.0,0.0,0.0,0,0,0,0,-45.0,-7.17577231685921E-11,2.8456338513697717E-11,0,6.01392,6.252238,0.06387508,-0.0068378067,-1.0008286,1.0028882,-0.010333469,-0.13620868,-0.118868314,0.18107805,-281,305,1431,1489.0,6.2053744E-4,-0.0015864492,9.1126084E-4,0.0019319119,0.0017034927892532405,-0.0016931964590016905,0.34930908343456474,3.6728990186004684,-125.66743558593377,234.3325644140662,-1.4523057508651438,8.294356805382662,-14.059709169825927,-122.48489943150669,,0.001510693199354587,,,65.04,NONE,0.0,0.0,0.0,NONE,1.2768920123658726E-11,1.2506169003178032E-11,5.722046E-6,17.257,17.257,6.158,1.3102577,0,3542,4.309,12.0,1.366,97,28.0,OK,108,0,0,0,0,0,65,100,0.0,0,0.0,589232.0,2.69E-43,0.0,-1.05007105E-23,62,2.5940128E-5,-2.594025E-5,9.4E-44,False,False,0,None,0.0,1.0842022E-19,
442699124,115.056,0.0,0.0,0,5.7602572,5.8994675,0.06349714,-0.0053681713,-0.99908155,1.0011117,0.08872058,-0.10691396,-0.09389277,0.16768359,-285,301,1431,1489.0,0.013377653,-0.0011465099,0.010068567,0.016782494,0.013426693420809271,-0.013426693420809271,0.367211789546179,3.6971364164465315,-127.0878770882826,232.9121229117174,-7.948990221537285,14.203527146765854,-18.33725111753482,-123.34365429602155,,0.0,,,64.99,,,0.0,0.0,20151018,152,2015-10-18T00:01:52Z,-17.0,99.99,99.99,3.7500008E7,0,0,0,0.0,0.0,0.0,0,0,0,0,0,0,,,,44,48,27,17,972,3712,3779,3780,0,15119,23,212,3,0,false,false,false,false,false,false,false,false,false,false,0,0,0,0,54,69,70,53,944,945,944,945,940,940,940,940,0.0,0.0,0.0,0.0,1714.6,1709.7,1709.7,1714.0,0.0,0.0,0.0,0.0,0,0,0,0,-45.0,3.793341848010479E-11,6.03485727740029E-11,0,6.0509124,6.252237,0.06482844,-0.00643036,-0.9992443,1.0013657,0.100299194,-0.1452998,-0.05206724,0.18407325,-285,301,1435,1493.0,0.0013039339,8.353085E-4,0.0010490061,0.0018704004,0.0015485425284795693,-0.0015360630185966646,0.33071743327300945,3.6912000028952674,-125.66988588632019,234.33011411367983,-1.5709432732055577,8.411581321886862,-14.217619843770432,-123.25056203245941,,0.0015447796054997337,,,65.02,NONE,0.0,0.0,0.0,NONE,4.849052320077463E-11,2.5010246454626587E-11,3.33786E-6,17.258,17.258,6.162,1.3186147,0,3542,4.309,12.0,1.341,97,28.0,OK,109,0,0,0,0,0,65,100,0.0,0,0.0,589232.0,2.69E-43,0.0,-1.05007105E-23,62,2.5940128E-5,-2.594025E-5,9.4E-44,False,False,0,None,0.0,1.0842022E-19,
446846694,116.133,0.0,0.0,0,5.9425774,5.8473577,0.063765556,-0.0064104237,-1.0011561,1.0032052,0.0960316,-0.06914716,-0.030308718,0.1221557,-285,301,1427,1485.0,0.01146183,-4.8232925E-4,0.0209331,0.023870502,0.011471973786107986,-0.011471973786107986,0.3609629611532253,3.7072868306548274,-127.07892523529443,232.92107476470557,-7.976955834475686,14.300269759413142,-18.437139847851423,-123.32786374743374,,0.0,,,64.97,,,0.0,0.0,20151018,153,2015-10-18T00:01:53Z,-17.0,99.99,99.99,3.7500008E7,0,0,0,0.0,0.0,0.0,0,0,0,0,0,0,,,,44,48,27,17,972,3712,3779,3780,0,15119,23,212,3,0,false,false,false,false,false,false,false,false,false,false,0,0,0,0,54,70,70,54,944,944,944,944,940,940,940,940,0.0,0.0,0.0,0.0,1715.3,1709.7,1709.7,1714.6,0.0,0.0,0.0,0.0,0,0,0,0,-45.0,2.4103559005895596E-11,8.065387478539552E-11,0,5.9874964,6.252367,0.06304197,-0.006330369,-0.99988467,1.0018901,0.2003576,-0.1993339,-0.17962845,0.3348784,-277,301,1427,1484.0,0.0018301419,5.808878E-4,-2.5142834E-4,0.0019365088,0.00192011719698151,-0.001917582906554225,0.3470972829784138,3.711823525304333,-125.65698582449693,234.34301417550307,-1.619277299626353,8.579879807973162,-14.41608433330407,-122.17454170934455,,0.0015890325617954474,,,64.98,NONE,0.0,0.0,0.0,NONE,-1.4307256036909495E-11,4.171651172723764E-11,2.861023E-6,17.258,17.258,6.162,1.326074,0,3541,4.308,12.0,1.331,97,28.0,OK,110,0,0,0,0,0,65,100,0.0,0,0.0,589232.0,2.69E-43,0.0,-1.05007105E-23,62,2.5940128E-5,-2.594025E-5,9.4E-44,False,False,0,None,0.0,1.0842022E-19,
450763088,117.151,0.0,0.0,0,5.8500957,5.9007177,0.06362798,-0.0052660364,-0.99964803,1.0016848,0.28381857,-0.12251772,0.070439965,0.31705734,-277,305,1431,1489.0,0.012994806,9.492884E-4,-0.0050717695,0.013981737,0.01302943343026789,-0.01302943343026789,0.3628838817964232,3.7124856834647493,-127.08258935505918,232.91741064494082,-8.013651704302202,14.473222472988107,-18.564151050673324,-121.82150265059934,,0.0,,,64.97,,,0.0,0.0,20151018,155,2015-10-18T00:01:55Z,-17.0,99.99,99.99,3.7500008E7,0,0,0,0.0,0.0,0.0,0,0,0,0,0,0,,,,44,48,27,17,972,3712,3779,3780,0,15119,23,212,3,0,false,false,false,false,false,false,false,false,false,false,0,0,0,0,54,71,71,54,944,944,943,945,940,940,940,940,0.0,0.0,0.0,0.0,1714.6,1710.3,1709.7,1714.0,0.0,0.0,0.0,0.0,0,0,0,0,-45.0,-2.9510741765670026E-11,7.475151727698397E-11,0,5.992781,6.2523794,0.064577125,-0.0055802576,-0.9983656,1.0004675,0.13638075,-0.13260855,0.046744816,0.19588214,-277,301,1431,1488.0,0.0016703532,-6.732338E-4,0.0016559038,0.0024464957,0.0018009229828454046,-0.0017950305265224808,0.3368388499903508,3.699758786397714,-125.67141727409079,234.3285827259092,-1.6207431121616325,8.680772271630547,-14.577820617440251,-122.16094915487236,,0.0016258466211745333,,,64.99,NONE,0.0,0.0,0.0,NONE,-4.657361651672903E-11,6.600360434815524E-11,-9.536743E-7,17.258,17.258,6.16,1.3314143,0,3541,4.309,12.0,1.329,97,28.0,OK,111,0,0,0,0,0,65,100,0.0,0,0.0,589232.0,2.69E-43,0.0,-1.05007105E-23,62,2.5940128E-5,-2.594025E-5,9.4E-44,False,False,0,None,0.0,1.0842022E-19,
454821872,118.206,0.0,0.0,0,5.815746,5.894434,0.063095674,-0.005063893,-1.0009537,1.0029532,0.22147556,-0.14588685,-0.10856351,0.28656664,-285,305,1431,1490.0,0.013264196,0.0039522885,-0.0042044143,0.014465013,0.01384050131539663,-0.01384050131539663,0.36716382677365483,3.71143775486987,-127.08077781769973,232.91922218230027,-8.08599059611796,14.650519868932689,-18.690628745388068,-122.93684480261238,,0.0,,,65.02,,,0.0,0.0,20151018,156,2015-10-18T00:01:56Z,-17.0,99.99,99.99,3.7500008E7,0,0,0,0.0,0.0,0.0,0,0,0,0,0,0,,,,44,48,27,17,972,3712,3779,3780,0,15119,23,212,3,0,false,false,false,false,false,false,false,false,false,false,0,0,0,0,54,70,70,53,943,944,944,945,940,940,940,940,0.0,0.0,0.0,0.0,1714.6,1709.1,1709.1,1715.3,0.0,0.0,0.0,0.0,0,0,0,0,-45.0,3.3567305332104106E-11,7.065259979553098E-11,0,5.8500957,6.252567,0.06376064,-0.004972346,-0.99984616,1.0018895,0.16731909,-0.14154935,0.038478103,0.22251396,-281,301,1431,1489.0,0.0016426513,7.0193154E-4,6.508101E-4,0.0019012009,0.0017863401262107222,-0.0017796769166089235,0.3527025379134497,3.6877220183775936,-125.66695028799502,234.333049712005,-1.6434471652327358,8.861518554610232,-14.717355300415706,-122.79451220723621,,0.0016740364790763659,,,65.0,NONE,0.0,0.0,0.0,NONE,3.187001152562787E-11,2.0088303573282553E-11,-9.536743E-6,17.257,17.257,6.16,1.3349062,0,3540,4.308,12.0,1.34,97,28.0,OK,112,0,0,0,0,0,65,100,0.0,0,0.0,589232.0,2.69E-43,0.0,-1.05007105E-23,62,2.5940128E-5,-2.594025E-5,9.4E-44,False,False,0,None,0.0,1.0842022E-19,
