Tick#,offsetTime,IMU_ATTI(0):Longitude,IMU_ATTI(0):Latitude,IMU_ATTI(0):numSats,IMU_ATTI(0):barometer:Raw,IMU_ATTI(0):barometer:Smooth,IMU_ATTI(0):accel:X,IMU_ATTI(0):accel:Y,IMU_ATTI(0):accel:Z,IMU_ATTI(0):accel:Composite,IMU_ATTI(0):gyro:X,IMU_ATTI(0):gyro:Y,IMU_ATTI(0):gyro:Z,IMU_ATTI(0):gyro:Composite,IMU_ATTI(0):mag:X,IMU_ATTI(0):mag:Y,IMU_ATTI(0):mag:Z,IMU_ATTI(0):mag:Mod,IMU_ATTI(0):velN,IMU_ATTI(0):velE,IMU_ATTI(0):velD,IMU_ATTI(0):velComposite,IMU_ATTI(0):velH,IMU_ATTI(0):GPS-H,IMU_ATTI(0):roll,IMU_ATTI(0):pitch,IMU_ATTI(0):yaw,IMU_ATTI(0):yaw360,IMU_ATTI(0):totalGyro:Z,IMU_ATTI(0):totalGyro:X,IMU_ATTI(0):totalGyro:Y,IMU_ATTI(0):magYaw,IMU_ATTI(0):distanceHP,IMU_ATTI(0):distanceTravelled,IMU_ATTI(0):directionOfTravel[mag],IMU_ATTI(0):directionOfTravel[true],IMU_ATTI(0):temperature,General:relativeHeight,General:absoluteHeight,GPS(0):Long,GPS(0):Lat,GPS(0):Date,GPS(0):Time,GPS:dateTimeStamp,GPS(0):heightMSL,GPS(0):hDOP,GPS(0):pDOP,GPS(0):sAcc,GPS(0):numGPS,GPS(0):numGLNAS,GPS(0):numSV,GPS(0):velN,GPS(0):velE,GPS(0):velD,RC:Aileron,RC:Elevator,RC:Rudder,RC:Throttle,Controller:navHealth,Controller:ctrl_level,HP:Longitude,HP:Latitude,HP:rthHeight,BatBlackBox:tick,BatBlackBox:id,BatBlackBox:rsoc,BatBlackBox:index,BatBlackBox:rm,BatBlackBox:fcc,BatBlackBox:cell_min,BatBlackBox:cell_max,BatBlackBox:current,BatBlackBox:voltage,BatBlackBox:temp,BatBlackBox:flag,BatBlackBox:reserve,BatBlackBox:user_data,OA:avoidObst,OA:emergBrake,OA:radiusLimit,OA:airportLimit,OA:groundForceLanding,OA:horizNearBoundary,OA:vertLowLimit,OA:vertAirportLimit,OA:roofLimit,OA:hitGroundLimit,Motor:Speed:RFront,Motor:Speed:LFront,Motor:Speed:LBack,Motor:Speed:RBack,Motor:EscTemp:RFront,Motor:EscTemp:LFront,Motor:EscTemp:LBack,Motor:EscTemp:RBack,Motor:PPMrecv:RFront,Motor:PPMrecv:LFront,Motor:PPMrecv:LBack,Motor:PPMrecv:RBack,Motor:PPMsend:RFront,Motor:PPMsend:LFront,Motor:PPMsend:LBack,Motor:PPMsend:RBack,Motor:V_out:RFront,Motor:V_out:LFront,Motor:V_out:LBack,Motor:V_out:RBack,Motor:Volts:RFront,Motor:Volts:LFront,Motor:Volts:LBack,Motor:Volts:RBack,Motor:Current:RFront,Motor:Current:LFront,Motor:Current:LBack,Motor:Current:RBack,Motor:Status:RFront,Motor:Status:LFront,Motor:Status:LBack,Motor:Status:RBack,Motor:thrustAngle,IMU_ATTI(1):Longitude,IMU_ATTI(1):Latitude,IMU_ATTI(1):numSats,IMU_ATTI(1):barometer:Raw,IMU_ATTI(1):barometer:Smooth,IMU_ATTI(1):accel:X,IMU_ATTI(1):accel:Y,IMU_ATTI(1):accel:Z,IMU_ATTI(1):accel:Composite,IMU_ATTI(1):gyro:X,IMU_ATTI(1):gyro:Y,IMU_ATTI(1):gyro:Z,IMU_ATTI(1):gyro:Composite,IMU_ATTI(1):mag:X,IMU_ATTI(1):mag:Y,IMU_ATTI(1):mag:Z,IMU_ATTI(1):mag:Mod,IMU_ATTI(1):velN,IMU_ATTI(1):velE,IMU_ATTI(1):velD,IMU_ATTI(1):velComposite,IMU_ATTI(1):velH,IMU_ATTI(1):GPS-H,IMU_ATTI(1):roll,IMU_ATTI(1):pitch,IMU_ATTI(1):yaw,IMU_ATTI(1):yaw360,IMU_ATTI(1):totalGyro:Z,IMU_ATTI(1):totalGyro:X,IMU_ATTI(1):totalGyro:Y,IMU_ATTI(1):magYaw,IMU_ATTI(1):distanceHP,IMU_ATTI(1):distanceTravelled,IMU_ATTI(1):directionOfTravel[mag],IMU_ATTI(1):directionOfTravel[true],IMU_ATTI(1):temperature,IMUEX(0):err,IMUEX(0):rtk_Longitude,IMUEX(0):rtk_Latitude,IMUEX(0):rtk_Alti,IMUEX(1):err,IMUEX(1):rtk_Longitude,IMUEX(1):rtk_Latitude,IMUEX(1):rtk_Alti,BattInfo:Voltage,BattInfo:BatVoltage,BattInfo:AdVoltage,BattInfo:AvgCurrent,BattInfo:R_time,BattInfo:R_CAP_MAH,BattInfo:LowCellVoltage,BattInfo:LowCellVolThreshold,BattInfo:BatCurrent,BattInfo:Remaining%,BattInfo:Temp,BattInfo:status,battery_info:BatDynCnt,battery_info:Vol1Protect,battery_info:Vol2Protect,battery_info:Cap1Protect,battery_info:Cap2Protect,battery_info:Batpresent,battery_info:sopPercentage,battery_info:sopValue,battery_info:sopScale,battery_info:sopFlg,BattInfo:WindHeading:WindDir,battery_info:home_dir,BattInfo:Wind:rangeMin,BattInfo:Wind:rangeMax,battery_info:cap_speed,battery_info:against_wind,battery_info:emergency_land_cap,battery_info:intel_bat_land_cap,battery_info:intel_bat_gh_cap,BattInfo:Smart:SmartGh,BattInfo:Smart:SmartLand,BattInfo:GoHome:CntDown,BattInfo:GoHome:GhCmd,BattInfo:GoHome:CapLevel,BattInfo:GoHome:LandCapLv,Attribute|Value,ConvertDatV3,3.6.6-Tablet
6702764,1.742,,,,,,,,,,,,,,,,,,,,,,,,,,,,,,,,,,,,,,,,,,,,,,,,,,,,,,,,,,,,,,,,,,,,,,,,,,,,,,,,,,,,,,,,,,,,,,,,,,,,,,,,,,,,,,,,,,,,,,,,,,,,,,,,,,,,,,,,,,,,,,,,,,,,,,,,,,,,,,,,,,,,,,,,,,,,,,,OK,,,,,,,,,,,,,,,,,,,,,,,,,,Firmware Date| Oct 17 2018
31254586,8.123,,,,,,,,,,,,,,,,,,,,,,,,,,,,,,,,,,,,,,,,,,,,,,,,,,,,,,,,,,,,,,,,,,,,,,,,,,,,,,,,,,,,,,,,,,,,,,,,,,,,,,,,,,,,,,,,,,,,,,,,,,,,,,,,,,,,,,,,,,,,,,,,,,,,,,,,,,,,NONE,0.0,0.0,0.0,,,,,,,,,,,,,,,,OK,,,,,,,,,,,,,,,,,,,,,,,,,,ACType|MavicEnterprise
35152667,9.136,,,0,77.51509,77.15325,0.058511354,0.012870739,-0.9797868,0.98161674,0.41876802,0.114961915,0.009142796,0.43435755,-294,266,1322,1380.0,0.0,0.0,0.49904296,0.49904296,0.0,0.0,-0.7768702889606449,3.4148474332212886,-131.3901297410163,228.6098702589837,0.11445667195519614,0.2708323206097793,-0.004477918912989248,-127.13121261233523,,0.0,,,26.63,,,0.0,0.0,20151018,6,2015-10-18T00:00:06Z,-17.0,99.99,99.99,3.75E7,0,0,0,0.0,0.0,0.0,0,0,0,0,0,0,,,,,,,,,,,,,,,,,,false,false,false,false,false,false,false,false,false,false,0,0,0,0,39,50,50,39,943,944,943,944,940,940,940,940,0.0,0.0,0.0,0.0,1568.1,1562.6,1562.6,1568.1,0.0,0.0,0.0,0.0,0,0,0,0,-45.0,,,,,,,,,,,,,,,,,,,,,,,,,,,,,,,,,,,,,NONE,0.0,0.0,0.0,,,,,15.755,15.755,5.639,1.5421177,0,2199,3.935,12.0,1.336,60,22.8,OK,7,0,0,0,0,0,65,100,0.0,0,0.0,589232.0,2.69E-43,0.0,0.0,0,1.15966424E-4,-1.1596691E-4,9.4E-44,False,False,0,None,0.0,1.0842022E-19,dateTime|2015-10-18 0:0:6 GMT
39288637,10.211,,,0,76.936424,77.01096,0.058746003,0.013210504,-0.97904545,0.98089534,0.33956555,-2.164016E-4,0.05702036,0.3443198,-291,266,1328,1385.0,0.0,0.0,0.3320329,0.3320329,0.0,0.0,-0.7824586522657011,3.3966509238064906,-131.37992806306428,228.62007193693572,0.21777940543966848,0.6330172659961115,-0.00943866275818553,-126.73376755108717,,0.0,,,26.92,,,0.0,0.0,20151018,7,2015-10-18T00:00:07Z,-17.0,99.99,99.99,3.75E7,0,0,0,0.0,0.0,0.0,0,0,0,0,0,0,,,,,,,,,,,,,,,,,,false,false,false,false,false,false,false,false,false,false,0,0,0,0,40,50,49,40,702,754,803,854,700,750,800,850,0.0,0.0,0.0,0.0,1566.8,1560.7,1562.0,1566.8,0.0,0.0,0.0,0.0,0,0,0,0,-45.0,,,,,,,,,,,,,,,,,,,,,,,,,,,,,,,,,,,,,NONE,0.0,0.0,0.0,,,,,15.754,15.754,5.638,1.6296033,0,2199,3.933,12.0,1.318,60,22.8,OK,8,0,0,0,0,0,65,100,0.0,0,0.0,589232.0,2.69E-43,0.0,8.2236873E16,67,1.15966424E-4,-1.1596691E-4,9.4E-44,False,False,0,None,0.0,1.0842022E-19,
43143146,11.213,,,0,77.29314,76.86126,0.058276724,0.011822372,-0.9791849,0.9809888,0.26402825,0.009595589,0.123317264,0.291565,-294,266,1316,1374.0,0.0,0.0,0.23938277,0.23938277,0.0,0.0,-0.7783335913228325,3.3944689421090564,-131.3888730538737,228.6111269461263,0.328440915497021,0.9838173832827527,-0.02403863359823051,-127.24217373405698,,0.0,,,27.3,,,0.0,0.0,20151018,8,2015-10-18T00:00:08Z,-17.0,99.99,99.99,3.75E7,0,0,0,0.0,0.0,0.0,0,0,0,0,0,0,,,,,,,,,,,,,,,,,,false,false,false,false,false,false,false,false,false,false,0,0,0,0,39,50,50,40,944,944,943,944,940,940,940,940,0.0,0.0,0.0,0.0,1567.5,1560.7,1562.0,1566.2,0.0,0.0,0.0,0.0,0,0,0,0,-45.0,,,,,,,,,,,,,,,,,,,,,,,,,,,,,,,,,,,,,NONE,0.0,0.0,0.0,,,,,15.753,15.753,5.634,1.660218,0,2199,3.934,12.0,1.277,60,22.8,OK,9,0,0,0,0,0,65,100,0.0,0,0.0,589232.0,2.69E-43,0.0,8.2236873E16,67,1.15966424E-4,-1.1596691E-4,9.4E-44,False,False,0,None,0.0,1.0842022E-19,
46998984,12.215,,,0,76.90736,76.88309,0.05845618,0.01207644,-0.97919697,0.9810146,0.41230845,-0.062855154,0.06988998,0.42288727,-294,266,1319,1377.0,-1.0416936E-4,0.0017214699,0.1514595,0.15146932,0.001724618751099866,-0.001724618751099866,-0.7448397147750174,3.3768676415607066,-131.40802908713758,228.59197091286242,0.45172406104950324,1.330830376682349,-0.029878343890286475,-127.34142031361107,,0.0,,,27.55,,,0.0,0.0,20151018,9,2015-10-18T00:00:09Z,-17.0,99.99,99.99,3.75E7,0,0,0,0.0,0.0,0.0,0,0,0,0,0,0,,,,,,,,,,,,,,,,,,false,false,false,false,false,false,false,false,false,false,0,0,0,0,39,50,51,39,944,943,943,944,940,940,940,940,0.0,0.0,0.0,0.0,1566.8,1561.3,1561.3,1566.2,0.0,0.0,0.0,0.0,0,0,0,0,-45.0,2.452355707458765E-11,1.7323504875107795E-11,0,77.219154,77.25539,0.05767949,0.012245162,-0.97971064,0.98148346,0.31472024,-0.22024056,0.16068108,0.416381,-294,269,1319,1377.0,7.8267686E-4,0.0011060699,-0.31852186,0.31852472,0.00135498109298769,-0.00135498109298769,-0.7135909290338099,3.424134768641447,-127.25323238661875,232.74676761338125,0.0,0.0,0.0,-126.97856090364655,,0.0,,,27.57,NONE,0.0,0.0,0.0,,,,,15.753,15.753,5.635,1.650192,0,2198,3.933,12.0,1.292,60,22.8,OK,10,0,0,0,0,0,65,100,0.0,0,0.0,589232.0,2.69E-43,0.0,8.2236873E16,67,1.15966424E-4,-1.1596691E-4,9.4E-44,False,False,0,None,0.0,1.0842022E-19,
50896985,13.228,0.0,0.0,0,77.2905,77.00311,0.057941955,0.012552728,-0.979538,0.9813305,0.31595695,0.015835423,0.08635139,0.327927,-297,266,1325,1383.0,-0.0065627596,-0.0019794195,0.07341118,0.07373052,0.0068547732270052624,-0.0068547732270052624,-0.7266708255529635,3.3732968319146,-131.40631830223924,228.59368169776076,0.5709180593742286,1.7202779203846468,-0.028442303337203472,-127.72108144503558,,0.0,,,27.88,,,0.0,0.0,20151018,10,2015-10-18T00:00:10Z,-17.0,99.99,99.99,3.75E7,0,0,0,0.0,0.0,0.0,0,0,0,0,0,0,,,,,,,,,,,,,,,,,,false,false,false,false,false,false,false,false,false,false,0,0,0,0,40,50,51,40,943,944,943,944,940,940,940,940,0.0,0.0,0.0,0.0,1566.2,1561.3,1560.7,1566.8,0.0,0.0,0.0,0.0,0,0,0,0,-45.0,-2.1397503227191114E-9,3.675735059624767E-10,0,77.43847,76.86628,0.057324857,0.0122976815,-0.9786553,0.9804099,0.38276008,-0.04129701,0.012018838,0.38516903,-297,266,1325,1383.0,0.0055266274,-0.031831488,0.2529246,0.25497967,0.03230769788295378,-0.03206705651346709,-0.5831401448530448,3.332107790559979,-127.18752987328017,232.81247012671983,0.07803448083865526,0.3221171713269069,-0.03350172372702706,-128.16494650275533,,7.710320251767057E-4,,,27.9,NONE,0.0,0.0,0.0,NONE,-2.1206755856321792E-9,3.530520264891448E-10,0.0018692017,15.751,15.751,5.637,1.6143644,0,2198,3.933,12.0,1.276,60,22.8,OK,11,0,0,0,0,0,65,100,0.0,0,0.0,589232.0,2.69E-43,0.0,8.2236873E16,67,1.15966424E-4,-1.1596691E-4,9.4E-44,False,False,0,None,0.0,1.0842022E-19,
54763187,14.233,0.0,0.0,0,77.59701,77.12936,0.05813764,0.012563546,-0.97986907,0.98167264,0.28833532,-0.025720114,0.11990683,0.3133312,-294,266,1328,1385.0,-0.013060929,-0.005398723,0.032625467,0.03555496,0.014132730565913009,-0.014132730565913009,-0.722761016765569,3.3723277763362884,-131.41031749349747,228.58968250650253,0.7188812617914523,2.0883783343769675,-0.06217555561165296,-127.32473427238772,,0.0,,,28.17,,,0.0,0.0,20151018,11,2015-10-18T00:00:11Z,-17.0,99.99,99.99,3.75E7,0,0,0,0.0,0.0,0.0,0,0,0,0,0,0,,,,,,,,,,,,,,,,,,false,false,false,false,false,false,false,false,false,false,0,0,0,0,40,51,51,41,943,944,943,944,940,940,940,940,0.0,0.0,0.0,0.0,1566.2,1561.3,1560.1,1566.2,0.0,0.0,0.0,0.0,0,0,0,0,-45.0,-5.350965296212519E-11,-1.7032227741704048E-12,0,77.48338,76.95199,0.05850561,0.0125217,-0.97940546,0.9812312,0.42866573,-0.017965723,0.24853119,0.49582744,-297,266,1325,1383.0,-8.0899415E-5,-0.002385309,0.008947865,0.009260698,0.0023866804423190386,-0.0021522224236543708,-0.6573971244938598,3.369303029777769,-127.4950474336459,232.50495256635412,0.16568146845073467,0.6829058448041363,-0.10214546389910957,-127.88761128867863,,0.001091670728977685,,,28.16,NONE,0.0,0.0,0.0,NONE,3.3464448375802547E-12,-2.1967171770126733E-12,7.6293945E-6,15.749,15.749,5.635,1.5644852,0,2198,3.933,12.0,1.274,60,22.8,OK,12,0,0,0,0,0,65,100,0.0,0,0.0,589232.0,2.69E-43,0.0,8.2236873E16,67,1.15966424E-4,-1.1596691E-4,9.4E-44,False,False,0,None,0.0,1.0842022E-19,
58808923,15.284,0.0,0.0,0,77.80839,77.34408,0.058434468,0.012403858,-0.97895056,0.9807715,0.3221675,-0.0152958855,0.13725297,0.35051996,-294,269,1319,1377.0,-0.018241283,-0.009923968,7.5472146E-4,0.020779777,0.020766066912745254,-0.020766066912745254,-0.7238953635183352,3.356263023838101,-131.41875773668417,228.58124226331583,0.8385406831811439,2.4328805494447776,-0.10412873737328844,-127.15749318197375,,0.0,,,28.47,,,0.0,0.0,20151018,12,2015-10-18T00:00:12Z,-17.0,99.99,99.99,3.75E7,0,0,0,0.0,0.0,0.0,0,0,0,0,0,0,,,,,,,,,,,,,,,,,,false,false,false,false,false,false,false,false,false,false,0,0,0,0,40,52,52,40,943,943,943,943,940,940,940,940,0.0,0.0,0.0,0.0,1567.5,1559.5,1559.5,1566.2,0.0,0.0,0.0,0.0,0,0,0,0,-45.0,-9.136631011803515E-11,5.0140724156148395E-11,0,77.68948,76.957275,0.058560744,0.012263755,-0.97924346,0.98106956,0.42639065,0.04122675,0.10088203,0.44009748,-297,266,1322,1380.0,7.3179085E-4,-0.001358501,0.005605343,0.005813855,0.0015430628736618766,-0.001536274186472439,-0.643404433684018,3.343243616665885,-127.57395462068294,232.42604537931706,0.28107431145251344,1.02336084376391,-0.12291635705671156,-128.02161915352895,,0.001142223081203849,,,28.49,NONE,0.0,0.0,0.0,NONE,-7.353812525735809E-11,5.837088692302798E-11,4.5776367E-5,15.747,15.747,5.635,1.5091194,0,2197,3.932,12.0,1.27,60,22.8,OK,13,0,0,0,0,0,65,100,0.0,0,0.0,589232.0,2.69E-43,0.0,8.2236873E16,67,1.15966424E-4,-1.1596691E-4,9.4E-44,False,False,0,None,0.0,1.0842022E-19,
62704594,16.297,0.0,0.0,0,77.95107,77.46315,0.05744762,0.012889675,-0.9789383,0.98070717,0.29149675,-0.08774786,-0.0121021615,0.304658,-297,263,1340,1397.0,-0.022851596,-0.013797049,0.011578275,0.02909657,0.026693706571319916,-0.026693706571319916,-0.7205251899038422,3.357068562844827,-131.43438133741495,228.56561866258505,0.9678518634067402,2.779281166161228,-0.12092438389393677,-127.94845125527553,,0.0,,,28.78,,,0.0,0.0,20151018,14,2015-10-18T00:00:14Z,-17.0,99.99,99.99,3.75E7,0,0,0,0.0,0.0,0.0,0,0,0,0,0,0,,,,,,,,,,,,,,,,,,false,false,false,false,false,false,false,false,false,false,0,0,0,0,40,51,50,40,943,944,944,944,940,940,940,940,0.0,0.0,0.0,0.0,1566.2,1558.8,1560.1,1566.2,0.0,0.0,0.0,0.0,0,0,0,0,-45.0,-2.0681029076208262E-11,3.3140261500052575E-12,0,77.54152,76.95927,0.05831928,0.011891297,-0.978823,0.98063093,0.40337914,0.039976396,0.26838034,0.486149,-297,266,1337,1395.0,1.3860042E-4,-9.192788E-4,0.007715788,0.007771594,9.296685465589111E-4,-9.203565537065355E-4,-0.6474881761610983,3.2782605957506172,-128.16361611864724,231.83638388135276,0.42050836195597,1.4479015410544624,-0.12902053351635717,-128.07852735378899,,0.0012039412791768891,,,28.81,NONE,0.0,0.0,0.0,NONE,-6.453618862904857E-11,6.958722880078673E-11,2.2888184E-5,15.746,15.746,5.637,1.4547222,0,2197,3.932,12.0,1.282,60,22.8,OK,14,0,0,0,0,0,65,100,0.0,0,0.0,589232.0,2.69E-43,0.0,8.2236873E16,67,1.15966424E-4,-1.1596691E-4,9.4E-44,False,False,0,None,0.0,1.0842022E-19,
66565962,17.300,0.0,0.0,0,77.787254,77.52954,0.058344018,0.012738175,-0.97993237,0.9817503,0.27924934,0.005634649,0.011113252,0.27952716,-294,266,1345,1402.0,-0.025004452,-0.01724674,0.033478465,0.04520487,0.030375527705261248,-0.030375527705261248,-0.7211455505618557,3.3508180153785094,-131.44870024700154,228.55129975299846,1.068033651371809,3.155296778244051,-0.1446305342145339,-127.2444998857942,,0.0,,,29.09,,,0.0,0.0,20151018,15,2015-10-18T00:00:15Z,-17.0,99.99,99.99,3.75E7,0,0,0,0.0,0.0,0.0,0,0,0,0,0,0,,,,,,,,,,,,,,,,,,false,false,false,false,false,false,false,false,false,false,0,0,0,0,41,53,51,41,943,944,943,944,940,940,940,940,0.0,0.0,0.0,0.0,1565.6,1560.1,1560.1,1565.0,0.0,0.0,0.0,0.0,0,0,0,0,-45.0,-1.705348286562738E-10,-1.2139228629329537E-11,0,77.75026,76.963066,0.05804623,0.013261027,-0.9769071,0.9787199,0.39456388,-0.026198234,0.26127666,0.4739541,-294,266,1342,1399.0,-1.4609715E-4,-0.0025747642,0.0016748297,0.0030750302,0.002578905783472408,-0.002562213731237305,-0.6518210533960874,3.253500226663094,-128.36401015739804,231.63598984260196,0.5707579868780612,1.8161661337458437,-0.18560877771234646,-127.72101459709224,,0.0012529516934941286,,,29.06,NONE,0.0,0.0,0.0,NONE,-5.329213395483057E-11,-6.084255010777165E-12,0.0,15.745,15.745,5.633,1.4054167,0,2196,3.931,12.0,1.267,60,22.9,OK,15,0,0,0,0,0,65,100,0.0,0,0.0,589232.0,2.69E-43,0.0,8.2236873E16,67,1.15966424E-4,-1.1596691E-4,9.4E-44,False,False,0,None,0.0,1.0842022E-19,
70480910,18.318,0.0,0.0,0,77.90351,77.68504,0.058713395,0.013442629,-0.9773,0.97915435,0.3138833,-0.0011101458,-0.010933472,0.31407562,-294,266,1325,1383.0,-0.037361454,-0.031038279,0.0070456844,0.04908049,0.048572141076025324,-0.048572141076025324,-0.7062882327596179,3.3223757932744578,-131.47022136268663,228.52977863731337,1.171150166094702,3.480724970747103,-0.13779426581840643,-127.53659530178376,,0.0,,,29.43,,,0.0,0.0,20151018,16,2015-10-18T00:00:16Z,-17.0,99.99,99.99,3.75E7,0,0,0,0.0,0.0,0.0,0,0,0,0,0,0,,,,,,,,,,,,,,,,,,false,false,false,false,false,false,false,false,false,false,0,0,0,0,40,52,52,40,943,944,944,944,940,940,940,940,0.0,0.0,0.0,0.0,1566.2,1559.5,1559.5,1565.0,0.0,0.0,0.0,0.0,0,0,0,0,-45.0,-3.031879019783211E-10,-2.387646558639706E-10,0,78.00656,76.95953,0.059087884,0.012693745,-0.9797049,0.9815672,0.35410014,0.091675736,0.10092214,0.3794425,-294,263,1322,1379.0,-0.0035580385,-0.0045193736,0.011940068,0.0132532865,0.005751901937639097,-0.005723204312170628,-0.6609656677701704,3.242271778619299,-128.53252102563923,231.46747897436077,0.6876060899951897,2.283632271007502,-0.1967685427653073,-128.1985389982309,,0.0013517669509298716,,,29.41,NONE,0.0,0.0,0.0,NONE,-2.0548844493650244E-10,1.480801838358478E-11,4.5776367E-5,15.743,15.743,5.627,1.362936,0,2196,3.931,12.0,1.265,60,22.8,OK,16,0,0,0,0,0,65,100,0.0,0,0.0,589232.0,2.69E-43,0.0,8.2236873E16,67,1.15966424E-4,-1.1596691E-4,9.4E-44,False,False,0,None,0.0,1.0842022E-19,
74548928,19.375,0.0,0.0,0,78.00392,77.72142,0.057764143,0.012233096,-0.9784928,0.98027265,0.3943978,-0.10620694,0.006334897,0.40849683,-294,263,1331,1388.0,-0.04291342,-0.04166074,0.030275196,0.06703556,0.05980952106305319,-0.05980952106305319,-0.7127482737775529,3.3525174382268346,-131.48953674827138,228.51046325172862,1.2959330978893846,3.8818817811366655,-0.1443612014070084,-127.67536778171113,,0.0,,,29.7,,,0.0,0.0,20151018,17,2015-10-18T00:00:17Z,-17.0,99.99,99.99,3.75E7,0,0,0,0.0,0.0,0.0,0,0,0,0,0,0,,,,2163538,48,96,230,3552,3717,4292,4301,-1092,17170,26,212,17168,0,false,false,false,false,false,false,false,false,false,false,0,0,0,0,41,52,53,40,943,945,944,944,940,940,940,940,0.0,0.0,0.0,0.0,1566.2,1558.8,1559.5,1565.0,0.0,0.0,0.0,0.0,0,0,0,0,-45.0,-1.7383107697561586E-10,3.3259478607977704E-11,0,77.76611,76.957214,0.058964968,0.012375132,-0.97809345,0.9799473,0.3053626,-0.027410366,0.080943145,0.31709534,-294,263,1325,1382.0,4.884456E-4,-0.0026556728,0.005734843,0.0063387384,0.002700218056615103,-0.00266853846850269,-0.6330496554458871,3.1922062922032763,-129.07217635545558,230.92782364454442,0.817528122656175,2.7336848134575957,-0.20122190078791616,-128.38542847864102,,0.0014782846213093124,,,29.71,NONE,0.0,0.0,0.0,NONE,-2.392708056875017E-12,1.9401013929696378E-11,7.6293945E-6,15.742,15.742,5.631,1.3280842,0,2196,3.931,12.0,1.276,60,22.9,OK,17,0,0,0,0,0,65,100,0.0,0,0.0,589232.0,2.69E-43,0.0,8.2236873E16,67,1.15966424E-4,-1.1596691E-4,9.4E-44,False,False,0,None,0.0,1.0842022E-19,
78436763,20.385,0.0,0.0,0,77.504524,77.69379,0.0582855,0.012043041,-0.97716147,0.9789723,0.43685362,-0.031918388,-0.0043786047,0.43804,-294,257,1348,1403.0,-0.01666872,-0.011777083,0.05765595,0.061161708,0.020409456753265862,-0.020409456753265862,-0.7181843084376262,3.3650235005484466,-131.5041520818646,228.4958479181354,1.3739450692622601,4.236255523103501,-0.18836543675202888,-128.07648610925486,,0.0,,,30.06,,,0.0,0.0,20151018,18,2015-10-18T00:00:18Z,-17.0,99.99,99.99,3.75E7,0,0,0,0.0,0.0,0.0,0,0,0,0,0,0,,,,2163538,17,96,231,3552,3717,4292,4301,-1019,17171,26,0,17168,0,false,false,false,false,false,false,false,false,false,false,0,0,0,0,40,52,52,41,943,945,944,944,940,940,940,940,0.0,0.0,0.0,0.0,1565.0,1559.5,1560.1,1565.6,0.0,0.0,0.0,0.0,0,0,0,0,-45.0,3.266130159942944E-11,4.2809395564621025E-11,0,77.85067,76.956085,0.057431452,0.0132391015,-0.9792369,0.98100895,0.48606348,-0.011283194,0.13365376,0.50423044,-294,257,1337,1392.0,6.909904E-4,5.3532876E-4,-1.401705E-4,8.85264E-4,8.740964884305361E-4,-8.513483250533833E-4,-0.6608848552505394,3.260355335530903,-128.58950594805924,231.41049405194076,0.9220237024382262,3.015922708738675,-0.22984287763643177,-128.6257794458992,,0.0015521478653577375,,,29.97,NONE,0.0,0.0,0.0,NONE,3.0235129097845065E-11,1.840962965683676E-11,0.0,15.741,15.741,5.632,1.3014072,0,2195,3.93,12.0,1.28,60,22.9,OK,18,0,0,0,0,0,65,100,0.0,0,0.0,589232.0,2.69E-43,0.0,-5.9807744E7,62,1.15966424E-4,-1.1596691E-4,9.4E-44,False,False,0,None,0.0,1.0842022E-19,
82288587,21.386,0.0,0.0,0,77.58643,77.65443,0.057379425,0.011624048,-0.9795975,0.9813454,0.3077909,-0.07070701,0.039710548,0.3182949,-288,250,1363,1415.0,-0.006282413,5.4783083E-4,0.05778815,0.05813122,0.006306253317317342,-0.006306253317317342,-0.7115427923707689,3.368954161720726,-131.52226917249695,228.47773082750305,1.4766690651175483,4.628531013145848,-0.2090136490660105,-127.87487536135279,,0.0,,,30.31,,,0.0,0.0,20151018,18,2015-10-18T00:00:18Z,-17.0,99.99,99.99,3.75E7,0,0,0,0.0,0.0,0.0,0,0,0,0,0,0,,,,2163601,16,96,232,3393,3558,4285,4303,-1386,17264,25,0,17033,0,false,false,false,false,false,false,false,false,false,false,0,0,0,0,40,52,53,41,943,944,943,944,940,940,940,940,0.0,0.0,0.0,0.0,1566.2,1558.8,1559.5,1565.6,0.0,0.0,0.0,0.0,0,0,0,0,-45.0,-1.1356160559086113E-10,5.669714167447075E-11,0,77.66835,76.95154,0.058712866,0.012897682,-0.9782739,0.98011905,0.3681751,-0.03681715,0.18198377,0.41234267,-291,254,1351,1405.0,8.780238E-4,-0.0017510148,0.0036525223,0.004144623,0.0019588208127145615,-0.0019425058847842144,-0.6686017262775313,3.321758068167394,-128.17095537134892,231.82904462865108,1.0170945745331992,3.433794042168398,-0.2677856475452813,-128.21790886127116,,0.0016302243495728726,,,30.38,NONE,0.0,0.0,0.0,NONE,-9.90547671917831E-12,-2.237934985118411E-12,0.0,15.739,15.739,5.631,1.2823372,0,2195,3.93,12.0,1.272,60,22.9,OK,19,0,0,0,0,0,65,100,0.0,0,0.0,589232.0,2.69E-43,0.0,-5.9807744E7,62,1.15966424E-4,-1.1596691E-4,9.4E-44,False,False,0,None,0.0,1.0842022E-19,
86151169,22.390,0.0,0.0,0,77.72119,77.54316,0.058174588,0.011701961,-0.97876054,0.9805577,0.37814742,0.117544204,0.10439285,0.40952408,-294,257,1328,1384.0,-0.0027297933,0.0044751395,0.079684146,0.07985638,0.005242007752682997,-0.005242007752682997,-0.7187910838832883,3.3616983041223834,-131.54913551196614,228.45086448803386,1.5743974842960229,4.982252970132423,-0.19239079977997425,-128.26248149305601,,0.0,,,30.6,,,0.0,0.0,20151018,19,2015-10-18T00:00:19Z,-17.0,99.99,99.99,3.75E7,0,0,0,0.0,0.0,0.0,0,0,0,0,0,0,,,,2163601,20,96,233,3393,3558,4285,4303,-1386,17264,25,2,17033,0,false,false,false,false,false,false,false,false,false,false,0,0,0,0,42,53,52,41,943,944,944,943,940,940,940,940,0.0,0.0,0.0,0.0,1566.2,1558.2,1559.5,1565.6,0.0,0.0,0.0,0.0,0,0,0,0,-45.0,9.035401064827922E-12,-5.881795109840065E-11,0,77.707985,76.950714,0.057147343,0.012137289,-0.97859985,0.98034215,0.38809344,0.10709146,0.16096804,0.43358484,-297,257,1331,1387.0,-8.5232017E-4,1.8060056E-4,0.0022042328,0.0023701706,8.712440918705538E-4,-8.525860127748454E-4,-0.7056684089370728,3.3689176378523875,-127.90689394367789,232.0931060563221,1.1302772462591069,3.7877458127418806,-0.2801791146357291,-128.62967130830515,,0.0017015043253202444,,,30.64,NONE,0.0,0.0,0.0,NONE,-1.651470527948362E-11,-1.8351066884775743E-11,7.6293945E-6,15.735,15.735,5.629,1.2700593,0,2195,3.93,12.0,1.303,60,22.9,OK,20,0,0,0,0,0,65,100,0.0,0,0.0,589232.0,2.69E-43,0.0,-5.9807744E7,62,1.15966424E-4,-1.1596691E-4,9.4E-44,False,False,0,None,0.0,1.0842022E-19,
90065052,23.408,0.0,0.0,0,77.657776,77.51152,0.057906758,0.012301573,-0.976852,0.97864413,0.3206753,0.013026332,0.051310487,0.32501554,-294,254,1357,1411.0,-0.001716178,0.007975692,0.04054422,0.04135687,0.008158242711463632,-0.008158242711463632,-0.7198601936537284,3.365194053701854,-131.55948873136592,228.44051126863408,1.6778541752692315,5.3878443617456915,-0.17756066100938478,-128.29807332042097,,0.0,,,30.94,,,0.0,0.0,20151018,21,2015-10-18T00:00:21Z,-17.0,99.99,99.99,3.75E7,0,0,0,0.0,0.0,0.0,0,0,0,0,0,0,,,,2164765,48,13,234,440,3529,3689,3693,-1168,14775,46,212,14771,0,false,false,false,false,false,false,false,false,false,false,0,0,0,0,42,53,54,42,943,944,943,943,940,940,940,940,0.0,0.0,0.0,0.0,1564.4,1558.2,1559.5,1565.0,0.0,0.0,0.0,0.0,0,0,0,0,-45.0,1.7652496529258026E-11,-1.8325968553241566E-11,0,77.88502,76.949104,0.058367707,0.012295333,-0.9779226,0.9797401,0.2409623,-0.16112122,0.09280128,0.3043599,-294,254,1357,1411.0,-2.7353014E-4,2.3470457E-4,0.0023071303,0.0023351135,3.604233284144359E-4,-3.5589784087871213E-4,-0.7122036803893469,3.390319675507725,-127.85346435603391,232.1465356439661,1.2673266545986175,4.151778630095944,-0.32630278971073085,-128.23815785342825,,0.0017600739964572139,,,30.93,NONE,0.0,0.0,0.0,NONE,-5.371043966821924E-12,3.0465197204333385E-11,0.0,15.736,15.736,5.629,1.2641683,0,2194,3.929,12.0,1.301,60,22.9,OK,21,0,0,0,0,0,65,100,0.0,0,0.0,589232.0,2.69E-43,0.0,-5.9807744E7,62,1.15966424E-4,-1.1596691E-4,9.4E-44,False,False,0,None,0.0,1.0842022E-19,
93940882,24.415,0.0,0.0,0,77.610214,77.51808,0.058477998,0.012094245,-0.97872823,0.98054826,0.4766648,-0.13219208,0.0055019977,0.49468613,-294,254,1348,1402.0,-0.0016249437,0.008454329,0.040949754,0.041844934,0.008609072395287163,-0.008609072395287163,-0.7290987526348337,3.372606777317526,-131.5645737224587,228.4354262775413,1.7521823953170261,5.767823723555886,-0.2265071451865533,-128.33358674323648,,0.0,,,31.24,,,0.0,0.0,20151018,22,2015-10-18T00:00:22Z,-17.0,99.99,99.99,3.75E7,0,0,0,0.0,0.0,0.0,0,0,0,0,0,0,,,,2164765,17,13,235,440,3529,3690,3694,-1083,14775,46,0,14771,0,false,false,false,false,false,false,false,false,false,false,0,0,0,0,42,52,52,42,943,944,943,944,940,940,940,940,0.0,0.0,0.0,0.0,1565.0,1558.8,1558.8,1564.4,0.0,0.0,0.0,0.0,0,0,0,0,-45.0,-2.3625900571148954E-11,2.4240809810518446E-11,0,77.734406,76.94827,0.059349533,0.012334126,-0.9780893,0.97996587,0.21131968,0.12381216,0.10869207,0.26795414,-294,254,1354,1408.0,3.4316568E-4,-4.0889636E-4,0.0015700845,0.0016583499,5.338154183986948E-4,-5.272700242654715E-4,-0.7195490925453039,3.4152945552693437,-127.70762345989422,232.29237654010578,1.3921983885121472,4.500856489566472,-0.3693266400964618,-128.16988048359713,,0.001857456874629794,,,31.28,NONE,0.0,0.0,0.0,NONE,-4.400574964334187E-12,1.0281951770278928E-11,0.0,15.734,15.734,5.629,1.262927,0,2194,3.929,12.0,1.278,60,22.9,OK,22,0,0,0,0,0,65,100,0.0,0,0.0,589232.0,2.69E-43,0.0,-5.9807744E7,62,1.15966424E-4,-1.1596691E-4,9.4E-44,False,False,0,None,0.0,1.0842022E-19,
97790333,25.415,0.0,0.0,0,77.789894,77.5325,0.05741836,0.012378757,-0.97753865,0.97930175,0.3255106,-0.11968007,0.06301069,0.35249227,-297,260,1334,1391.0,-0.0017570319,0.010499597,0.0073676175,0.012946446,0.010645594674982486,-0.010645594674982486,-0.7367210171806795,3.3870218107508436,-131.5840937156971,228.4159062843029,1.832508543021975,6.117039869820189,-0.23135577451753392,-128.1733903921366,,0.0,,,31.56,,,0.0,0.0,20151018,23,2015-10-18T00:00:23Z,-17.0,99.99,99.99,3.75E7,0,0,0,0.0,0.0,0.0,0,0,0,0,0,0,,,,2164765,17,13,235,440,3529,3690,3694,-1083,14775,46,0,14771,0,false,false,false,false,false,false,false,false,false,false,0,0,0,0,43,53,53,42,943,944,943,944,940,940,940,940,0.0,0.0,0.0,0.0,1564.4,1558.8,1558.2,1565.6,0.0,0.0,0.0,0.0,0,0,0,0,-45.0,-6.303028857056058E-11,4.833102960872424E-11,0,77.67363,76.94755,0.057959273,0.011883783,-0.97907346,0.9808595,0.2835458,0.0309114,0.1101886,0.30576995,-297,260,1328,1385.0,7.167409E-4,-9.1972126E-4,0.0025930668,0.0028431672,0.00116602091171159,-0.0011608877217482846,-0.7293687721645254,3.4334449200342125,-127.68392425446623,232.31607574553377,1.5021541199056199,4.894128325826346,-0.38053392098279715,-128.10439226186756,,0.001924657411343555,,,31.53,NONE,0.0,0.0,0.0,NONE,1.5209591799119035E-11,1.452357060685954E-11,7.6293945E-6,15.734,15.734,5.626,1.2638841,0,2194,3.928,12.0,1.282,60,22.9,OK,23,0,0,0,0,0,65,100,0.0,0,0.0,589232.0,2.69E-43,0.0,-5.9807744E7,62,1.15966424E-4,-1.1596691E-4,9.4E-44,False,False,0,None,0.0,1.0842022E-19,
101688194,26.428,0.0,0.0,0,77.61814,77.53246,0.05828807,0.012864233,-0.97749287,0.9793137,0.36103463,-0.08103426,0.008317143,0.37011042,-294,257,1345,1400.0,-6.2741304E-4,0.012393694,0.03777706,0.039763093,0.012409564932846286,-0.012409564932846286,-0.7367690856919263,3.3902522571604954,-131.59575412174956,228.40424587825044,1.9011016568542098,6.471399805076252,-0.2833736916413643,-127.98218946470398,,0.0,,,31.87,,,0.0,0.0,20151018,24,2015-10-18T00:00:24Z,-17.0,99.99,99.99,3.75E7,0,0,0,0.0,0.0,0.0,0,0,0,0,0,0,,,,2170199,48,13,237,444,3533,3742,3743,0,14971,29,212,5,0,false,false,false,false,false,false,false,false,false,false,0,0,0,0,43,52,53,43,943,945,944,944,940,940,940,940,0.0,0.0,0.0,0.0,1565.6,1558.2,1559.5,1564.4,0.0,0.0,0.0,0.0,0,0,0,0,-45.0,-9.679591702403574E-11,-3.557270865913569E-11,0,77.72648,76.94669,0.05804338,0.012061934,-0.9782149,0.9800097,0.4468526,-0.12328903,0.24698074,0.5252399,-294,257,1348,1403.0,-5.3363194E-4,-0.0014418529,0.0054279747,0.005641508,0.0015374338468575881,-0.0015275064522685636,-0.7417414971861697,3.4258295128573635,-127.68009212114163,232.31990787885837,1.6476698409632302,5.246484982620394,-0.3816950180176135,-127.8338306737545,,0.0020099607904174865,,,31.84,NONE,0.0,0.0,0.0,NONE,-3.102154367242176E-11,-9.771618934570823E-12,7.6293945E-6,15.732,15.732,5.626,1.2658325,0,2193,3.929,12.0,1.28,60,22.9,OK,24,0,0,0,0,0,65,100,0.0,0,0.0,589232.0,2.69E-43,0.0,-5.9807744E7,62,1.15966424E-4,-1.1596691E-4,9.4E-44,False,False,0,None,0.0,1.0842022E-19,
105734196,27.480,0.0,0.0,0,77.959,77.53933,0.058158718,0.012161241,-0.97888654,0.9806881,0.35352078,-0.13198312,0.08924854,0.3877651,-297,257,1340,1396.0,8.226763E-4,0.012982659,0.02159233,0.025208231,0.013008698257511381,-0.013008698257511381,-0.7373863586112519,3.403171306898102,-131.5900146701071,228.4099853298929,1.9837896846919352,6.808579932021343,-0.27355130874271477,-128.37271986948028,,0.0,,,32.11,,,0.0,0.0,20151018,25,2015-10-18T00:00:25Z,-17.0,99.99,99.99,3.75E7,0,0,0,0.0,0.0,0.0,0,0,0,0,0,0,,,,2170199,48,13,238,444,3533,3742,3743,0,14971,29,212,5,0,false,false,false,false,false,false,false,false,false,false,0,0,0,0,42,53,52,42,943,944,943,944,940,940,940,940,0.0,0.0,0.0,0.0,1565.0,1560.1,1558.8,1565.0,0.0,0.0,0.0,0.0,0,0,0,0,-45.0,4.862384353046377E-11,7.550416171067371E-12,0,77.80575,76.947784,0.058469664,0.012007303,-0.97864586,0.98046446,0.35709313,-0.14601131,0.12933625,0.4068939,-294,254,1348,1402.0,1.1316208E-4,7.3965226E-4,0.0012276211,0.0014376872,7.482586969094657E-4,-7.322193950644225E-4,-0.7341180206923784,3.446731947980359,-127.60243927491148,232.3975607250885,1.7625049431559994,5.604763695091836,-0.4135996831787617,-128.09222902221248,,0.002114508036002249,,,32.16,NONE,0.0,0.0,0.0,NONE,-4.9744902547046386E-11,-2.3383283319709827E-12,0.0,15.73,15.73,5.627,1.2682202,0,2193,3.928,12.0,1.278,60,22.9,OK,25,0,0,0,0,0,65,100,0.0,0,0.0,589232.0,2.69E-43,0.0,-5.9807744E7,62,1.15966424E-4,-1.1596691E-4,9.4E-44,False,False,0,None,0.0,1.0842022E-19,
109590857,28.482,0.0,0.0,0,77.49131,77.525406,0.058940947,0.011505074,-0.97737175,0.97921497,0.30174655,-0.092798434,0.117395274,0.33681476,-297,257,1340,1396.0,0.0017280718,0.016572759,0.034743246,0.03853227,0.016662609882839314,-0.016662609882839314,-0.7397710979414774,3.410545948456377,-131.60884527634298,228.39115472365702,2.052231321175659,7.146381710918938,-0.23573293898967515,-128.34479962037867,,0.0,,,32.42,,,0.0,0.0,20151018,25,2015-10-18T00:00:25Z,-17.0,99.99,99.99,3.75E7,0,0,0,0.0,0.0,0.0,0,0,0,0,0,0,,,,2170199,48,13,239,444,3533,3742,3743,0,14971,29,212,5,0,false,false,false,false,false,false,false,false,false,false,0,0,0,0,42,53,53,43,943,944,943,944,940,940,940,940,0.0,0.0,0.0,0.0,1565.0,1558.8,1558.8,1566.2,0.0,0.0,0.0,0.0,0,0,0,0,-45.0,3.2443782725643455E-11,8.908027011783655E-11,0,77.610214,76.94811,0.05891343,0.011785229,-0.97739416,0.979239,0.46730128,0.020354735,0.23330435,0.5227004,-294,257,1337,1392.0,0.0013005072,4.7752995E-4,0.0022929814,0.0026790143,0.001385407507874814,-0.001376186476001817,-0.7279135687631871,3.432750765703374,-127.55218436502321,232.4478156349768,1.8702188948465164,6.017855391454676,-0.4814123496784545,-127.94466983351478,,0.002184618101351252,,,32.48,NONE,0.0,0.0,0.0,NONE,-1.833851772299165E-11,4.322351816415892E-11,0.0,15.73,15.73,5.627,1.2707379,0,2193,3.927,12.0,1.286,60,22.9,OK,26,0,0,0,0,0,65,100,0.0,0,0.0,589232.0,2.69E-43,0.0,-5.9807744E7,62,1.15966424E-4,-1.1596691E-4,9.4E-44,False,False,0,None,0.0,1.0842022E-19,
113488861,29.495,0.0,0.0,0,77.504524,77.36366,0.0572955,0.0112303,-0.9781459,0.9798869,0.28686127,-0.046544045,0.07849186,0.3010261,-294,254,1354,1408.0,-0.0020291025,0.020870943,0.06368736,0.06705068,0.020969346802644194,-0.020969346802644194,-0.7457024132125861,3.4128541679434714,-131.6124667954948,228.3875332045052,2.1444225383501383,7.537391067349009,-0.24706731182226885,-128.11519640345426,,0.0,,,32.75,,,0.0,0.0,20151018,27,2015-10-18T00:00:27Z,-17.0,99.99,99.99,3.75E7,0,0,0,0.0,0.0,0.0,0,0,0,0,0,0,,,,2170201,114,13,240,444,3533,3742,3743,0,14974,29,3555,4,0,false,false,false,false,false,false,false,false,false,false,0,0,0,0,42,53,52,42,943,944,943,943,940,940,940,940,0.0,0.0,0.0,0.0,1565.0,1558.8,1560.7,1565.0,0.0,0.0,0.0,0.0,0,0,0,0,-45.0,-2.1383782525566554E-11,-1.0313324690294276E-11,0,77.62343,76.94908,0.05803438,0.012252494,-0.9770537,0.9788524,0.48364472,-0.05320664,-0.012720907,0.48672888,-294,254,1351,1405.0,-1.3238814E-4,-3.1678594E-4,0.0017779629,0.0018108098,3.4333649581322166E-4,-3.3092998283406466E-4,-0.7335739503999265,3.415445470023409,-127.4989488799679,232.50105112003212,1.9765006760023034,6.370952905275358,-0.49661873014067714,-128.16327067338963,,0.002297785596581293,,,32.76,NONE,0.0,0.0,0.0,NONE,4.818880569303155E-12,2.300680827358277E-13,2.2888184E-5,15.728,15.728,5.621,1.2733777,0,2192,3.927,12.0,1.284,60,22.9,OK,27,0,0,0,0,0,65,100,0.0,0,0.0,589232.0,2.69E-43,0.0,-5.9807744E7,62,1.15966424E-4,-1.1596691E-4,9.4E-44,False,False,0,None,0.0,1.0842022E-19,
117556869,30.553,0.0,0.0,0,77.58643,77.430626,0.058789592,0.011617363,-0.9778654,0.9796999,0.259943,0.07091817,0.1325199,0.30026868,-294,250,1354,1407.0,-0.0034549404,0.023639826,0.0022582244,0.023997448,0.023890960179164457,-0.023890960179164457,-0.7569945726127137,3.402569740993531,-131.61536100406587,228.38463899593413,2.2625692033495652,7.868243973868119,-0.3137528073287239,-128.5330600647186,,0.0,,,33.05,,,0.0,0.0,20151018,28,2015-10-18T00:00:28Z,-17.0,99.99,99.99,3.75E7,0,0,0,0.0,0.0,0.0,0,0,0,0,0,0,,,,2173961,16,13,241,445,3533,3745,3746,0,14982,26,1,17517,0,false,false,false,false,false,false,false,false,false,false,0,0,0,0,42,53,53,41,944,944,943,945,940,940,940,940,0.0,0.0,0.0,0.0,1564.4,1558.2,1558.8,1565.0,0.0,0.0,0.0,0.0,0,0,0,0,-45.0,6.753125685686196E-11,-9.702389353112517E-11,0,77.686844,76.94983,0.059135605,0.011887166,-0.98071164,0.9825648,0.37874946,0.019716179,0.18609636,0.42245916,-294,254,1357,1411.0,-0.0014691397,9.783871E-4,0.0033077153,0.0037492125,0.0017651098546167562,-0.0017520478019314887,-0.7390571408516164,3.404478894024758,-127.49289813682901,232.507101863171,2.0590035701809297,6.715199048360886,-0.534557404187792,-128.12984533718088,,0.002361870353100553,,,33.04,NONE,0.0,0.0,0.0,NONE,-1.136118022912962E-11,-2.986702018997993E-11,7.6293945E-6,15.726,15.726,5.619,1.276165,0,2191,3.927,12.0,1.294,60,23.0,OK,28,0,0,0,0,0,65,100,0.0,0,0.0,589232.0,2.69E-43,0.0,-5.9807744E7,62,1.15966424E-4,-1.1596691E-4,9.4E-44,False,False,0,None,0.0,1.0842022E-19,
121435271,31.560,0.0,0.0,0,77.62343,77.5311,0.058036964,0.011561991,-0.9783676,0.9801557,0.40158764,0.0055393935,0.08931686,0.41143748,-294,254,1345,1399.0,-0.00920314,0.025495801,-0.030722452,0.040970754,0.027105970752969524,-0.027105970752969524,-0.7584155108444945,3.388542840310167,-131.62351963250433,228.37648036749567,2.37078734608909,8.213308103359909,-0.3359855806304047,-128.2419884086881,,0.0,,,33.38,,,0.0,0.0,20151018,29,2015-10-18T00:00:29Z,-17.0,99.99,99.99,3.75E7,0,0,0,0.0,0.0,0.0,0,0,0,0,0,0,,,,2173963,18,13,242,443,3532,3793,3794,3553,15176,26,1,15278,0,false,false,false,false,false,false,false,false,false,false,0,0,0,0,42,53,53,41,944,944,943,945,940,940,940,940,0.0,0.0,0.0,0.0,1564.4,1558.2,1558.8,1565.0,0.0,0.0,0.0,0.0,0,0,0,0,-45.0,-5.74166273059342E-11,8.098553372272517E-11,0,77.69213,76.952515,0.05802605,0.011664134,-0.9801963,0.98198164,0.3086658,-0.02226537,-0.058015615,0.3148589,-294,254,1345,1399.0,0.0012038295,-8.3152845E-4,-8.4527535E-4,0.0016897146,0.001463094380116113,-0.0014391026897334755,-0.7209886488837052,3.3871373260876587,-127.55226682255974,232.44773317744026,2.0914064364597946,7.114614664576914,-0.5939478641522162,-128.33495301832522,,0.002423523097819342,,,33.36,NONE,0.0,0.0,0.0,NONE,-3.865143787673348E-12,2.7096268428168366E-11,0.0,15.724,15.724,5.621,1.2792448,0,2191,3.927,12.0,1.297,60,22.9,OK,29,0,0,0,0,0,65,100,0.0,0,0.0,589232.0,2.69E-43,0.0,-5.9807744E7,62,1.15966424E-4,-1.1596691E-4,9.4E-44,False,False,0,None,0.0,1.0842022E-19,
125296677,32.564,0.0,0.0,0,77.686844,77.57946,0.058283564,0.0134525625,-0.9783824,0.9802092,0.4315799,-0.1071446,0.122818604,0.46133024,-294,260,1334,1390.0,-0.010354066,0.025627485,-0.01615136,0.03201314,0.027640091830063555,-0.027640091830063555,-0.7589808259442257,3.3903744307473005,-131.63512576218554,228.36487423781446,2.4876214752072685,8.547096400900843,-0.3230718164405253,-127.72769413417107,,0.0,,,33.68,,,0.0,0.0,20151018,30,2015-10-18T00:00:30Z,-17.0,99.99,99.99,3.75E7,0,0,0,0.0,0.0,0.0,0,0,0,0,0,0,,,,2176836,19,92,243,3227,3532,4318,4329,-23,17344,30,1,17291,0,false,false,false,false,false,false,false,false,false,false,0,0,0,0,42,53,53,43,943,944,943,944,940,940,940,940,0.0,0.0,0.0,0.0,1564.4,1558.8,1558.2,1563.8,0.0,0.0,0.0,0.0,0,0,0,0,-45.0,4.333646064127319E-12,-8.72611635390791E-12,0,77.82953,76.95388,0.05799416,0.012126598,-0.97818464,0.9799773,0.32401332,-0.12480959,-0.015891349,0.34758395,-297,254,1345,1400.0,-3.9241003E-4,2.031039E-4,0.0035877323,0.0036148387,4.418561264433113E-4,-4.2978892889628434E-4,-0.7261876388958322,3.396796478073494,-127.64623591286369,232.3537640871363,2.1392375422789613,7.572111874892392,-0.6464231795465872,-128.68073869527402,,0.002486914933821538,,,33.71,NONE,0.0,0.0,0.0,NONE,-9.11069606986543E-12,-1.0697120075603015E-11,0.0,15.724,15.724,5.626,1.2824854,0,2191,3.927,12.0,1.292,60,23.0,OK,30,0,0,0,0,0,65,100,0.0,0,0.0,589232.0,2.69E-43,0.0,-5.9807744E7,62,1.15966424E-4,-1.1596691E-4,9.4E-44,False,False,0,None,0.0,1.0842022E-19,
129159101,33.568,0.0,0.0,0,77.760826,77.575165,0.058346186,0.01222559,-0.97792417,0.9797395,0.28081197,-0.052195285,0.12651576,0.3123875,-294,257,1351,1406.0,-0.010293372,0.023733811,0.0014013867,0.025907744,0.02586981438227042,-0.02586981438227042,-0.7517558762125794,3.3944962440565556,-131.6423286206856,228.3576713793144,2.5678180949193194,8.934962726625058,-0.34869699717247876,-127.88007992460773,,0.0,,,33.95,,,0.0,0.0,20151018,31,2015-10-18T00:00:31Z,-17.0,99.99,99.99,3.75E7,0,0,0,0.0,0.0,0.0,0,0,0,0,0,0,,,,2176836,19,92,243,3227,3532,4318,4329,-23,17344,30,1,17291,0,false,false,false,false,false,false,false,false,false,false,0,0,0,0,42,54,54,42,943,944,943,944,940,940,940,940,0.0,0.0,0.0,0.0,1563.8,1558.2,1558.8,1563.8,0.0,0.0,0.0,0.0,0,0,0,0,-45.0,-5.448012192504762E-11,1.2899499077577212E-11,0,77.72648,76.95669,0.057894617,0.012788017,-0.97772723,0.9795233,0.38190502,0.050945505,0.06419469,0.39059934,-297,254,1357,1412.0,2.652445E-4,-8.2739536E-4,-3.7055864E-4,9.445906E-4,8.688715268136513E-4,-8.619302149307194E-4,-0.7079922086013033,3.403326823130088,-127.6529882625906,232.3470117374094,2.2314367844502603,7.924509249520626,-0.6730681147921537,-128.5968590309256,,0.002525020035703276,,,33.96,NONE,0.0,0.0,0.0,NONE,1.0332148432580887E-11,-7.664012278008412E-12,7.6293945E-6,15.722,15.722,5.62,1.2852879,0,2190,3.926,12.0,1.285,60,23.0,OK,31,0,0,0,0,0,65,100,0.0,0,0.0,589232.0,2.69E-43,0.0,-5.9807744E7,62,1.15966424E-4,-1.1596691E-4,9.4E-44,False,False,0,None,0.0,1.0842022E-19,
133072857,34.585,0.0,0.0,0,77.89823,77.66369,0.058776565,0.012313959,-0.9783723,0.9802136,0.34392047,0.014157294,0.06627866,0.3505347,-294,250,1363,1416.0,-0.008795618,0.026351796,-0.025954267,0.03801847,0.02778092929807312,-0.02778092929807312,-0.761568085174877,3.3870079653028906,-131.66369264031894,228.33630735968106,2.665027951196859,9.289341450129347,-0.365453145744433,-128.48848760700412,,0.0,,,34.26,,,0.0,0.0,20151018,31,2015-10-18T00:00:31Z,-17.0,99.99,99.99,3.75E7,0,0,0,0.0,0.0,0.0,0,0,0,0,0,0,,,,2177135,48,92,245,3227,3532,4292,4303,0,17173,29,212,5,0,false,false,false,false,false,false,false,false,false,false,0,0,0,0,43,54,53,43,943,944,944,944,940,940,940,940,0.0,0.0,0.0,0.0,1563.8,1558.2,1558.2,1563.2,0.0,0.0,0.0,0.0,0,0,0,0,-45.0,-2.8486611654379983E-11,3.734527858992524E-11,0,77.72648,76.9588,0.05803932,0.012386869,-0.9783513,0.9801496,0.2518145,-0.13930807,0.11040624,0.30823177,-294,254,1360,1414.0,5.376893E-4,-4.0374402E-4,7.186601E-5,6.762276E-4,6.72397966151875E-4,-6.684971924339725E-4,-0.7155620009921466,3.394173769156865,-127.67288903733882,232.32711096266118,2.295821663730497,8.29610729731039,-0.7249698480058042,-128.19106372789616,,0.0026029512321437834,,,34.29,NONE,0.0,0.0,0.0,NONE,1.1511770231705944E-11,-1.5341358039528177E-11,0.0,15.722,15.722,5.622,1.2873433,0,2190,3.926,12.0,1.292,60,23.0,OK,32,0,0,0,0,0,65,100,0.0,0,0.0,589232.0,2.69E-43,0.0,-5.9807744E7,62,1.15966424E-4,-1.1596691E-4,9.4E-44,False,False,0,None,0.0,1.0842022E-19,
136996073,35.605,0.0,0.0,0,77.87445,77.68227,0.057087388,0.01197219,-0.9785649,0.9803018,0.39078853,-0.0018014658,0.0037715784,0.39081088,-294,257,1351,1406.0,-0.010015904,0.028611993,-0.0045882044,0.030659683,0.030314427359376925,-0.030314427359376925,-0.7579228771357847,3.38456776466678,-131.667136716523,228.332863283477,2.738452147274354,9.614140665269284,-0.4002452942096022,-127.89631348273724,,0.0,,,34.68,,,0.0,0.0,20151018,33,2015-10-18T00:00:33Z,-17.0,99.99,99.99,3.75E7,0,0,0,0.0,0.0,0.0,0,0,0,0,0,0,,,,2177135,48,92,246,3227,3532,4292,4303,0,17173,29,212,5,0,false,false,false,false,false,false,false,false,false,false,0,0,0,0,43,53,53,43,943,944,943,944,940,940,940,940,0.0,0.0,0.0,0.0,1564.4,1557.0,1559.5,1564.4,0.0,0.0,0.0,0.0,0,0,0,0,-45.0,1.8054069874947073E-11,7.14591463562838E-11,0,77.81896,76.961494,0.05831584,0.0110779805,-0.9773353,0.97913617,0.38867164,-0.0047880393,0.12958741,0.4097334,-294,254,1357,1411.0,0.0010470604,2.6319415E-4,-1.6436078E-4,0.0010920719,0.0010796326184414685,-0.0010733396950524735,-0.7145913422514134,3.3898664081776952,-127.63178718258747,232.36821281741254,2.4048217773247407,8.65860451947028,-0.7575846000780234,-128.23385726758534,,0.002675338239631408,,,34.61,NONE,0.0,0.0,0.0,NONE,-1.0641694571043303E-11,2.04656016858606E-11,0.0,15.72,15.72,5.622,1.2887946,0,2190,3.926,12.0,1.287,60,23.0,OK,33,0,0,0,0,0,65,100,0.0,0,0.0,589232.0,2.69E-43,0.0,-5.9807744E7,62,1.15966424E-4,-1.1596691E-4,9.4E-44,False,False,0,None,0.0,1.0842022E-19,
141040661,36.656,0.0,0.0,0,78.017136,77.71092,0.0572678,0.0126013355,-0.9790229,0.9807774,0.3893717,-0.065291196,-0.054088917,0.39849573,-294,254,1363,1417.0,-0.011954351,0.029162986,-0.011729357,0.03362981,0.031518030716303,-0.031518030716303,-0.7479801815082867,3.3748608345142186,-131.67353883083874,228.32646116916126,2.7648132044385476,9.952936710621302,-0.4766926281894018,-128.14677991571406,,0.0,,,34.86,,,0.0,0.0,20151018,34,2015-10-18T00:00:34Z,-17.0,99.99,99.99,3.75E7,0,0,0,0.0,0.0,0.0,0,0,0,0,0,0,,,,2177135,48,92,247,3227,3532,4292,4303,0,17173,29,212,5,0,false,false,false,false,false,false,false,false,false,false,0,0,0,0,42,53,54,43,943,944,943,944,940,940,940,940,0.0,0.0,0.0,0.0,1563.2,1558.2,1558.2,1564.4,0.0,0.0,0.0,0.0,0,0,0,0,-45.0,-1.963944810733141E-11,1.4400170417356419E-11,0,78.08583,76.963875,0.0588949,0.011887751,-0.9775799,0.97942454,0.37373626,-0.12931006,-0.023426149,0.39616746,-294,250,1354,1407.0,1.867094E-4,-3.4491566E-4,0.0015440979,0.0015931308,3.9220812823564434E-4,-3.8497420896139073E-4,-0.713837833237353,3.3730530444549163,-127.60420460513042,232.3957953948696,2.5104570681246536,9.094867483484041,-0.7857426494400565,-128.72984234161424,,0.002759029471504213,,,34.93,NONE,0.0,0.0,0.0,NONE,-5.818630952308534E-12,-2.7210779543326396E-11,-7.6293945E-6,15.72,15.72,5.62,1.289742,0,2189,3.925,12.0,1.29,60,23.0,OK,34,0,0,0,0,0,65,100,0.0,0,0.0,589232.0,2.69E-43,0.0,-5.9807744E7,62,1.15966424E-4,-1.1596691E-4,9.4E-44,False,False,0,None,0.0,1.0842022E-19,
144906401,37.661,0.0,0.0,0,78.175674,77.81579,0.058990944,0.012587416,-0.9781416,0.97999966,0.27928618,0.08018531,0.0471729,0.29437345,-294,254,1357,1411.0,-0.010193525,0.026569799,-0.03278791,0.043415543,0.028458077271427348,-0.028458077271427348,-0.7527772805944586,3.3832191353354837,-131.68281467495947,228.31718532504053,2.794365032128847,10.258852135463272,-0.5084360334614195,-128.16338416395098,,0.0,,,35.3,,,0.0,0.0,20151018,35,2015-10-18T00:00:35Z,-17.0,99.99,99.99,3.75E7,0,0,0,0.0,0.0,0.0,0,0,0,0,0,0,,,,2177137,16,92,248,3227,3532,4292,4303,0,17173,29,1,17529,0,false,false,false,false,false,false,false,false,false,false,0,0,0,0,43,53,53,43,943,944,943,944,940,940,940,940,0.0,0.0,0.0,0.0,1563.8,1557.6,1558.2,1564.4,0.0,0.0,0.0,0.0,0,0,0,0,-45.0,5.1223612709760744E-11,1.26370122899177E-11,0,78.03299,76.96722,0.058192562,0.012692162,-0.977989,0.979801,0.23134395,-0.054308917,-0.0031268327,0.23765366,-294,254,1360,1414.0,2.1014706E-4,7.4203225E-4,-0.004090818,0.0041628797,7.712156701719533E-4,-7.633704013297508E-4,-0.7194122555200204,3.3801051784566924,-127.57804335981203,232.42195664018797,2.6196252988259885,9.362978695796045,-0.8346064847984658,-128.22580203846042,,0.0028124742125152143,,,35.28,NONE,0.0,0.0,0.0,NONE,1.760439133486513E-11,4.187239093786384E-12,-7.6293945E-6,15.72,15.72,5.62,1.2902097,0,2189,3.924,12.0,1.285,60,23.1,OK,35,0,0,0,0,0,65,100,0.0,0,0.0,589232.0,2.69E-43,0.0,-5.9807744E7,62,1.15966424E-4,-1.1596691E-4,9.4E-44,False,False,0,None,0.0,1.0842022E-19,
148758796,38.662,0.0,0.0,0,78.281364,77.93625,0.058145214,0.01262067,-0.9769018,0.9787121,0.3297873,0.01734101,0.08417301,0.34080124,-294,254,1363,1417.0,-0.010369603,0.025423784,-0.0478385,0.055158135,0.027457192443347902,-0.027457192443347902,-0.7552625035487341,3.387975885619605,-131.68406642855533,228.31593357144467,2.8828416727905792,10.607990652780162,-0.5695933538847044,-128.0883154370294,,0.0,,,35.51,,,0.0,0.0,20151018,36,2015-10-18T00:00:36Z,-17.0,99.99,99.99,3.75E7,0,0,0,0.0,0.0,0.0,0,0,0,0,0,0,,,,2177138,18,92,249,3210,3520,4325,4335,2959,17303,29,1,17319,0,false,false,false,false,false,false,false,false,false,false,0,0,0,0,43,54,53,44,943,944,943,944,940,940,940,940,0.0,0.0,0.0,0.0,1562.6,1558.2,1557.0,1563.2,0.0,0.0,0.0,0.0,0,0,0,0,-45.0,-6.734301912754927E-11,4.848580251614533E-11,0,78.180954,76.969444,0.057372376,0.0102518415,-0.9782272,0.9799618,0.35570633,0.08747737,0.12240879,0.38621652,-291,254,1366,1419.0,6.3904846E-4,-9.0112764E-4,7.184389E-4,0.0013177892,0.0011047234912351747,-0.0010909668287217725,-0.718200524593572,3.3908448180578725,-127.60471891528991,232.3952810847101,2.704654529333686,9.729395107880952,-0.8465525413171696,-127.74745125248766,,0.0029094089273666982,,,35.55,NONE,0.0,0.0,0.0,NONE,1.2423676430196409E-12,8.378661242317645E-12,7.6293945E-6,15.719,15.719,5.618,1.2902517,0,2189,3.924,12.0,1.288,60,23.1,OK,36,0,0,0,0,0,65,100,0.0,0,0.0,589232.0,2.69E-43,0.0,-5.9807744E7,62,1.15966424E-4,-1.1596691E-4,9.4E-44,False,False,0,None,0.0,1.0842022E-19,
152656927,39.675,0.0,0.0,0,78.55881,78.05148,0.057445284,0.013010952,-0.97761565,0.97938836,0.34005505,0.06095641,0.107381076,0.36177868,-294,254,1366,1420.0,-0.009316196,0.02661619,-0.044559892,0.05273326,0.02819952301320181,-0.02819952301320181,-0.7539491036240731,3.395900281749835,-131.69447640302508,228.30552359697492,2.978005768989515,10.957700166788507,-0.580051913409166,-128.03938277104643,,0.0,,,35.81,,,0.0,0.0,20151018,37,2015-10-18T00:00:37Z,-17.0,99.99,99.99,3.75E7,0,0,0,0.0,0.0,0.0,0,0,0,0,0,0,,,,2178775,48,99,250,3501,3501,4386,4394,171,17544,27,212,17543,0,false,false,false,false,false,false,false,false,false,false,0,0,0,0,44,54,54,44,943,944,943,944,940,940,940,940,0.0,0.0,0.0,0.0,1563.8,1557.6,1557.6,1563.8,0.0,0.0,0.0,0.0,0,0,0,0,-45.0,-2.099034641984883E-11,2.5826187956516646E-11,0,78.487465,76.97223,0.057592634,0.012354883,-0.97848743,0.9802587,0.30884254,0.040132295,0.03306509,0.31318942,-294,250,1360,1413.0,4.1389625E-4,-3.030661E-4,-0.0011525558,0.0012615642,5.129904146959857E-4,-5.073275512617078E-4,-0.7226960441082637,3.401325287631142,-127.60431281878058,232.39568718121942,2.7633768809618866,10.08789736062415,-0.8498538420813347,-128.56557377764574,,0.0029939329999276757,,,35.84,NONE,0.0,0.0,0.0,NONE,-1.4911810441488912E-11,-5.887233063548643E-11,0.0,15.715,15.715,5.614,1.2900978,0,2188,3.925,12.0,1.291,60,23.1,OK,37,0,0,0,0,0,65,100,0.0,0,0.0,589232.0,2.69E-43,0.0,-5.9807744E7,62,1.15966424E-4,-1.1596691E-4,9.4E-44,False,False,0,None,0.0,1.0842022E-19,
156724862,40.732,0.0,0.0,0,78.37121,78.156715,0.058077794,0.012064259,-0.9797651,0.9815591,0.3800384,-0.04274403,0.15660635,0.41325754,-294,254,1360,1414.0,-0.007322312,0.02881835,-0.035374876,0.04621142,0.029734046853227284,-0.029734046853227284,-0.762479016461545,3.402387893777139,-131.6963721420981,228.3036278579019,3.0566364822902425,11.265261951199687,-0.5477788441818606,-128.05325814450862,,0.0,,,36.18,,,0.0,0.0,20151018,38,2015-10-18T00:00:38Z,-17.0,99.99,99.99,3.75E7,0,0,0,0.0,0.0,0.0,0,0,0,0,0,0,,,,2178775,48,99,251,3501,3501,4386,4394,171,17544,27,212,17543,0,false,false,false,false,false,false,false,false,false,false,0,0,0,0,43,55,54,44,943,944,943,944,940,940,940,940,0.0,0.0,0.0,0.0,1563.2,1557.6,1558.8,1563.2,0.0,0.0,0.0,0.0,0,0,0,0,-45.0,3.2887186529834663E-11,3.4008245546623735E-12,0,78.328926,76.97471,0.057036415,0.011797509,-0.97793406,0.97966695,0.29679984,-0.09129916,0.06706182,0.31768376,-294,254,1354,1408.0,4.2354073E-5,5.501147E-4,4.5293875E-4,7.138442E-4,5.517427567234071E-4,-5.456049325962264E-4,-0.7240510112970672,3.4009569294823487,-127.61675422898826,232.38324577101173,2.8673263398271702,10.422731010006254,-0.8451690249900636,-128.2037789331858,,0.0030711432948327677,,,36.15,NONE,0.0,0.0,0.0,NONE,5.0192489341290196E-11,2.7993010973573966E-11,-2.2888184E-5,15.714,15.714,5.616,1.2902522,0,2188,3.924,12.0,1.303,60,23.1,OK,38,0,0,0,0,0,65,100,0.0,0,0.0,589232.0,2.69E-43,0.0,-1.05007105E-23,62,1.15966424E-4,-1.1596691E-4,9.4E-44,False,False,0,None,0.0,1.0842022E-19,
160624569,41.746,0.0,0.0,0,78.14661,78.20838,0.057476617,0.012855914,-0.9794763,0.9812454,0.3255631,0.054101117,0.09950842,0.34470305,-294,254,1354,1408.0,-0.0055962214,0.029890506,-0.024989493,0.039360322,0.030409866985790165,-0.030409866985790165,-0.7552014373611058,3.3929793009189035,-131.70863612284276,228.29136387715724,3.160827985480363,11.634968487994156,-0.5658438249960579,-128.15441254638662,,0.0,,,36.41,,,0.0,0.0,20151018,39,2015-10-18T00:00:39Z,-17.0,99.99,99.99,3.75E7,0,0,0,0.0,0.0,0.0,0,0,0,0,0,0,,,,2178775,48,99,252,3501,3501,4386,4394,171,17544,27,212,17543,0,false,false,false,false,false,false,false,false,false,false,0,0,0,0,43,54,54,44,943,944,943,944,940,940,940,940,0.0,0.0,0.0,0.0,1563.8,1557.6,1557.0,1562.6,0.0,0.0,0.0,0.0,0,0,0,0,-45.0,-1.6075484326628232E-11,7.117888142126099E-11,0,78.26022,76.977646,0.057613477,0.011471112,-0.9781174,0.97987986,0.42972323,-0.013774244,0.059987783,0.43410867,-294,254,1360,1414.0,0.0010597319,-2.2104631E-4,-4.7558165E-4,0.0011824006,0.0010825401819586705,-0.0010733667823259604,-0.7195034270852338,3.390484447424641,-127.64117677863202,232.35882322136797,2.8929586790577013,10.812142676999574,-0.8390499511593543,-128.1931542294863,,0.0031342334413873595,,,36.44,NONE,0.0,0.0,0.0,NONE,-1.594580959211275E-11,-1.2557534206590366E-11,7.6293945E-6,15.714,15.714,5.615,1.2908127,0,2188,3.923,12.0,1.287,60,23.1,OK,39,0,0,0,0,0,65,100,0.0,0,0.0,589232.0,2.69E-43,0.0,-1.05007105E-23,62,1.15966424E-4,-1.1596691E-4,9.4E-44,False,False,0,None,0.0,1.0842022E-19,
164487107,42.749,0.0,0.0,0,77.76875,78.11107,0.057377793,0.011721893,-0.9797866,0.9815352,0.43030512,-0.08370581,0.05937304,0.44237348,-294,254,1357,1411.0,-0.0041648005,0.03225153,0.03814945,0.050128706,0.0325193274122156,-0.0325193274122156,-0.7587845648051229,3.3951048705597047,-131.73051021566454,228.26948978433546,3.227838791750235,11.992798890692328,-0.5520630996064926,-128.11206543551475,,0.0,,,36.75,,,0.0,0.0,20151018,40,2015-10-18T00:00:40Z,-17.0,99.99,99.99,3.75E7,0,0,0,0.0,0.0,0.0,0,0,0,0,0,0,,,,2178775,48,99,253,3501,3501,4386,4394,171,17544,27,212,17543,0,false,false,false,false,false,false,false,false,false,false,0,0,0,0,45,54,55,44,943,944,943,943,940,940,940,940,0.0,0.0,0.0,0.0,1563.2,1557.6,1557.6,1562.6,0.0,0.0,0.0,0.0,0,0,0,0,-45.0,-8.155286034347741E-11,1.8070802045743866E-11,0,77.90087,76.98033,0.057797004,0.013021898,-0.9788938,0.98068506,0.3149857,0.034565352,0.019270144,0.31746194,-294,254,1360,1414.0,2.835003E-4,-0.0012699902,7.2410476E-4,0.0014891525,0.001301248459984777,-0.0012919099060465019,-0.7125504819573194,3.382673556494613,-127.68722038628013,232.31277961371987,2.954981417517462,11.12069180098031,-0.8964277449329564,-128.23423004391472,,0.0032176397554424746,,,36.73,NONE,0.0,0.0,0.0,NONE,-2.4278457192939212E-11,5.069863907278141E-12,0.0,15.712,15.712,5.613,1.2913681,0,2187,3.924,12.0,1.296,60,23.1,OK,40,0,0,0,0,0,65,100,0.0,0,0.0,589232.0,2.69E-43,0.0,-1.05007105E-23,62,1.15966424E-4,-1.1596691E-4,9.4E-44,False,False,0,None,0.0,1.0842022E-19,
168400987,43.767,0.0,0.0,0,77.85331,77.81173,0.058234084,0.011775483,-0.9792281,0.9810288,0.36920384,-0.008276938,0.03707887,0.37115335,-291,254,1363,1416.0,-0.0071344427,0.029662518,0.104179926,0.10855516,0.03050844532686371,-0.03050844532686371,-0.7461193803018235,3.3891852202494563,-131.73558279664257,228.26441720335743,3.2963570278902288,12.38215688298093,-0.5909723283789611,-127.71332191207136,,0.0,,,37.08,,,0.0,0.0,20151018,41,2015-10-18T00:00:41Z,-17.0,99.99,99.99,3.75E7,0,0,0,0.0,0.0,0.0,0,0,0,0,0,0,,,,2178776,19,100,254,3501,3501,4380,4389,132,17538,27,1,17543,0,false,false,false,false,false,false,false,false,false,false,0,0,0,0,44,54,55,44,943,944,943,943,940,940,940,940,0.0,0.0,0.0,0.0,1563.2,1557.0,1557.6,1562.0,0.0,0.0,0.0,0.0,0,0,0,0,-45.0,5.3292133789281764E-11,-5.663021249915986E-11,0,77.51245,76.98291,0.058372624,0.011982306,-0.9776494,0.97946376,0.3286203,-0.19053374,0.0930528,0.39109236,-294,254,1360,1414.0,-8.645677E-4,7.8355375E-4,0.0013257575,0.001766088,0.001166804936737068,-0.0011499536492718435,-0.7068412657029404,3.3988376194154357,-127.69233991663256,232.30766008336744,3.0367778350463013,11.459433563515239,-0.9463233819635228,-128.19738282283447,,0.0033061964447594024,,,37.06,NONE,0.0,0.0,0.0,NONE,2.4065121327020483E-11,1.0708623430761766E-11,0.0,15.711,15.711,5.615,1.2919959,0,2187,3.922,12.0,1.3,60,23.1,OK,41,0,0,0,0,0,65,100,0.0,0,0.0,589232.0,2.69E-43,0.0,-1.05007105E-23,62,1.15966424E-4,-1.1596691E-4,9.4E-44,False,False,0,None,0.0,1.0842022E-19,
172286373,44.776,0.0,0.0,0,77.83217,77.63079,0.058017414,0.012111067,-0.97762686,0.97942173,0.31493866,-0.14729953,0.083201125,0.35749957,-288,247,1351,1403.0,-0.0074870014,0.026907783,0.07755393,0.082429945,0.02792998381270769,-0.02792998381270769,-0.7399484738955642,3.387425397969396,-131.73895023521274,228.26104976478726,3.3725144468653534,12.720665082254262,-0.5947444492091246,-128.17080505770463,,0.0,,,37.39,,,0.0,0.0,20151018,42,2015-10-18T00:00:42Z,-17.0,99.99,99.99,3.75E7,0,0,0,0.0,0.0,0.0,0,0,0,0,0,0,,,,2178777,114,100,255,3501,3501,4379,4387,0,17518,27,3533,676,0,false,false,false,false,false,false,false,false,false,false,0,0,0,0,43,55,55,43,943,943,943,944,940,940,940,940,0.0,0.0,0.0,0.0,1562.6,1556.4,1555.8,1562.6,0.0,0.0,0.0,0.0,0,0,0,0,-45.0,-4.910907773848609E-12,7.947806448306949E-13,0,77.74497,76.98595,0.05776214,0.0120877,-0.97890896,0.9806861,0.4500321,-0.057919238,-0.050413594,0.4565359,-291,247,1345,1398.0,1.484781E-5,-4.3236054E-5,-0.0012941923,0.0012949994,4.571448214191913E-5,-3.671101087144781E-5,-0.6990491302613424,3.4009115552273252,-127.7292072401818,232.27079275981822,3.12405715830519,11.821453848447794,-0.954862852818081,-128.6824638432784,,0.0034091200139469936,,,37.37,NONE,0.0,0.0,0.0,NONE,-6.391709606871893E-12,-4.1663238013379615E-12,0.0,15.709,15.709,5.611,1.2931619,0,2186,3.922,12.0,1.31,60,23.1,OK,42,0,0,0,0,0,65,100,0.0,0,0.0,589232.0,2.69E-43,0.0,-1.05007105E-23,62,1.15966424E-4,-1.1596691E-4,9.4E-44,False,False,0,None,0.0,1.0842022E-19,
176155306,45.782,0.0,0.0,0,77.55737,77.55599,0.058118135,0.01159875,-0.97850186,0.98029494,0.32127813,-0.14021194,0.1384103,0.37687722,-294,250,1351,1405.0,-0.0042103333,0.026979912,0.030725224,0.041105743,0.027306456764349268,-0.027306456764349268,-0.7368213812753951,3.3967375053716364,-131.7483702729445,228.2516297270555,3.4915200347785205,13.101122828099761,-0.6320487332934837,-128.62743322231054,,0.0,,,37.67,,,0.0,0.0,20151018,43,2015-10-18T00:00:43Z,-17.0,99.99,99.99,3.75E7,0,0,0,0.0,0.0,0.0,0,0,0,0,0,0,,,,2250214,48,100,256,3500,3514,4369,4377,0,17471,22,212,4,0,false,false,false,false,false,false,false,false,false,false,0,0,0,0,44,54,54,44,943,944,943,943,940,940,940,940,0.0,0.0,0.0,0.0,1563.2,1557.6,1556.4,1562.6,0.0,0.0,0.0,0.0,0,0,0,0,-45.0,1.0781408596525011E-10,3.502891114584483E-11,0,77.5653,76.98796,0.057877365,0.012223733,-0.979212,0.9809971,0.31979787,-0.036621954,0.112570345,0.34100428,-294,250,1348,1402.0,5.19992E-4,0.0016238248,-6.049968E-4,0.0018092042,0.0017050509310131436,-0.0016920230888321018,-0.7037905600435029,3.404246781426231,-127.7508287055978,232.2491712944022,3.1977770573186484,12.173799954865899,-0.9528104485266432,-128.71138886954705,,0.003486991098462369,,,37.66,NONE,0.0,0.0,0.0,NONE,6.5088351739959344E-12,3.253580975793084E-11,0.0,15.708,15.708,5.613,1.2954428,0,2186,3.922,12.0,1.329,60,23.1,OK,43,0,0,0,0,0,65,100,0.0,0,0.0,589232.0,2.69E-43,0.0,-1.05007105E-23,62,1.15966424E-4,-1.1596691E-4,9.4E-44,False,False,0,None,0.0,1.0842022E-19,
180004745,46.782,0.0,0.0,0,77.87445,77.59784,0.056867916,0.013590713,-0.9789749,0.9807194,0.3933525,0.03866824,0.07906867,0.40307975,-297,254,1354,1409.0,-0.0014440344,0.028375058,-0.0072079636,0.02931184,0.0284117781640838,-0.0284117781640838,-0.7368888437892537,3.4015076075268365,-131.74707900243277,228.25292099756723,3.5758253448282193,13.465393864907131,-0.6877682894372027,-128.56014061778717,,0.0,,,38.0,,,0.0,0.0,20151018,44,2015-10-18T00:00:44Z,-17.0,99.99,99.99,3.75E7,0,0,0,0.0,0.0,0.0,0,0,0,0,0,0,,,,2250214,48,100,257,3500,3514,4369,4377,0,17471,22,212,4,0,false,false,false,false,false,false,false,false,false,false,0,0,0,0,43,55,55,43,943,943,943,944,940,940,940,940,0.0,0.0,0.0,0.0,1562.6,1555.8,1555.8,1562.6,0.0,0.0,0.0,0.0,0,0,0,0,-45.0,3.5330091165803336E-11,-5.0556415087603496E-11,0,77.67892,76.99045,0.057187118,0.012225448,-0.9777985,0.9795457,0.3785554,-0.07054874,0.031219821,0.38633662,-297,250,1351,1405.0,-7.4433885E-4,5.4002163E-4,-0.0010010286,0.0013593093,9.195997146141351E-4,-9.071342648517526E-4,-0.6985711513487218,3.3955314205583225,-127.75959998530493,232.24040001469507,3.3072562456937877,12.50137413311135,-0.9678842300853058,-129.11384793322637,,0.0035896643350129495,,,38.0,NONE,0.0,0.0,0.0,NONE,1.1317676374672542E-10,-1.596254178213721E-11,0.0,15.706,15.706,5.612,1.2983965,0,2186,3.922,12.0,1.288,60,23.1,OK,44,0,0,0,0,0,65,100,0.0,0,0.0,589232.0,2.69E-43,0.0,-1.05007105E-23,62,1.15966424E-4,-1.1596691E-4,9.4E-44,False,False,0,None,0.0,1.0842022E-19,
