Tick#,offsetTime,IMU_ATTI(0):Longitude,IMU_ATTI(0):Latitude,IMU_ATTI(0):numSats,IMU_ATTI(0):barometer:Raw,IMU_ATTI(0):barometer:Smooth,IMU_ATTI(0):accel:X,IMU_ATTI(0):accel:Y,IMU_ATTI(0):accel:Z,IMU_ATTI(0):accel:Composite,IMU_ATTI(0):gyro:X,IMU_ATTI(0):gyro:Y,IMU_ATTI(0):gyro:Z,IMU_ATTI(0):gyro:Composite,IMU_ATTI(0):mag:X,IMU_ATTI(0):mag:Y,IMU_ATTI(0):mag:Z,IMU_ATTI(0):mag:Mod,IMU_ATTI(0):velN,IMU_ATTI(0):velE,IMU_ATTI(0):velD,IMU_ATTI(0):velComposite,IMU_ATTI(0):velH,IMU_ATTI(0):GPS-H,IMU_ATTI(0):roll,IMU_ATTI(0):pitch,IMU_ATTI(0):yaw,IMU_ATTI(0):yaw360,IMU_ATTI(0):totalGyro:Z,IMU_ATTI(0):totalGyro:X,IMU_ATTI(0):totalGyro:Y,IMU_ATTI(0):magYaw,IMU_ATTI(0):distanceHP,IMU_ATTI(0):distanceTravelled,IMU_ATTI(0):directionOfTravel[mag],IMU_ATTI(0):directionOfTravel[true],IMU_ATTI(0):temperature,General:relativeHeight,General:absoluteHeight,GPS(0):Long,GPS(0):Lat,GPS(0):Date,GPS(0):Time,GPS:dateTimeStamp,GPS(0):heightMSL,GPS(0):hDOP,GPS(0):pDOP,GPS(0):sAcc,GPS(0):numGPS,GPS(0):numGLNAS,GPS(0):numSV,GPS(0):velN,GPS(0):velE,GPS(0):velD,RC:Aileron,RC:Elevator,RC:Rudder,RC:Throttle,Controller:navHealth,Controller:ctrl_level,HP:Longitude,HP:Latitude,HP:rthHeight,BatBlackBox:tick,BatBlackBox:id,BatBlackBox:rsoc,BatBlackBox:index,BatBlackBox:rm,BatBlackBox:fcc,BatBlackBox:cell_min,BatBlackBox:cell_max,BatBlackBox:current,BatBlackBox:voltage,BatBlackBox:temp,BatBlackBox:flag,BatBlackBox:reserve,BatBlackBox:user_data,OA:avoidObst,OA:emergBrake,OA:radiusLimit,OA:airportLimit,OA:groundForceLanding,OA:horizNearBoundary,OA:vertLowLimit,OA:vertAirportLimit,OA:roofLimit,OA:hitGroundLimit,Motor:Speed:RFront,Motor:Speed:LFront,Motor:Speed:LBack,Motor:Speed:RBack,Motor:EscTemp:RFront,Motor:EscTemp:LFront,Motor:EscTemp:LBack,Motor:EscTemp:RBack,Motor:PPMrecv:RFront,Motor:PPMrecv:LFront,Motor:PPMrecv:LBack,Motor:PPMrecv:RBack,Motor:PPMsend:RFront,Motor:PPMsend:LFront,Motor:PPMsend:LBack,Motor:PPMsend:RBack,Motor:V_out:RFront,Motor:V_out:LFront,Motor:V_out:LBack,Motor:V_out:RBack,Motor:Volts:RFront,Motor:Volts:LFront,Motor:Volts:LBack,Motor:Volts:RBack,Motor:Current:RFront,Motor:Current:LFront,Motor:Current:LBack,Motor:Current:RBack,Motor:Status:RFront,Motor:Status:LFront,Motor:Status:LBack,Motor:Status:RBack,Motor:thrustAngle,IMU_ATTI(1):Longitude,IMU_ATTI(1):Latitude,IMU_ATTI(1):numSats,IMU_ATTI(1):barometer:Raw,IMU_ATTI(1):barometer:Smooth,IMU_ATTI(1):accel:X,IMU_ATTI(1):accel:Y,IMU_ATTI(1):accel:Z,IMU_ATTI(1):accel:Composite,IMU_ATTI(1):gyro:X,IMU_ATTI(1):gyro:Y,IMU_ATTI(1):gyro:Z,IMU_ATTI(1):gyro:Composite,IMU_ATTI(1):mag:X,IMU_ATTI(1):mag:Y,IMU_ATTI(1):mag:Z,IMU_ATTI(1):mag:Mod,IMU_ATTI(1):velN,IMU_ATTI(1):velE,IMU_ATTI(1):velD,IMU_ATTI(1):velComposite,IMU_ATTI(1):velH,IMU_ATTI(1):GPS-H,IMU_ATTI(1):roll,IMU_ATTI(1):pitch,IMU_ATTI(1):yaw,IMU_ATTI(1):yaw360,IMU_ATTI(1):totalGyro:Z,IMU_ATTI(1):totalGyro:X,IMU_ATTI(1):totalGyro:Y,IMU_ATTI(1):magYaw,IMU_ATTI(1):distanceHP,IMU_ATTI(1):distanceTravelled,IMU_ATTI(1):directionOfTravel[mag],IMU_ATTI(1):directionOfTravel[true],IMU_ATTI(1):temperature,IMUEX(0):err,IMUEX(0):rtk_Longitude,IMUEX(0):rtk_Latitude,IMUEX(0):rtk_Alti,IMUEX(1):err,IMUEX(1):rtk_Longitude,IMUEX(1):rtk_Latitude,IMUEX(1):rtk_Alti,MotorCtrl:Status,MotorCtrl:PWM:RFront,MotorCtrl:PWM:LFront,MotorCtrl:PWM:LBack,MotorCtrl:PWM:RBack,BattInfo:Voltage,BattInfo:BatVoltage,BattInfo:AdVoltage,BattInfo:AvgCurrent,BattInfo:R_time,BattInfo:R_CAP_MAH,BattInfo:LowCellVoltage,BattInfo:LowCellVolThreshold,BattInfo:BatCurrent,BattInfo:Remaining%,BattInfo:Temp,BattInfo:status,battery_info:BatDynCnt,battery_info:Vol1Protect,battery_info:Vol2Protect,battery_info:Cap1Protect,battery_info:Cap2Protect,battery_info:Batpresent,battery_info:sopPercentage,battery_info:sopValue,battery_info:sopScale,battery_info:sopFlg,BattInfo:WindHeading:WindDir,battery_info:home_dir,BattInfo:Wind:rangeMin,BattInfo:Wind:rangeMax,battery_info:cap_speed,battery_info:against_wind,battery_info:emergency_land_cap,battery_info:intel_bat_land_cap,battery_info:intel_bat_gh_cap,BattInfo:Smart:SmartGh,BattInfo:Smart:SmartLand,BattInfo:GoHome:CntDown,BattInfo:GoHome:GhCmd,BattInfo:GoHome:CapLevel,BattInfo:GoHome:LandCapLv,Attribute|Value,ConvertDatV3,3.6.6-Tablet
194053040,.000,10.44169739467253,63.411916329780944,12,42.631187,42.478935,0.09534024,-0.016401246,-0.9762685,0.9810499,0.48857683,-0.077384904,0.16069698,0.52011466,318,-167,1447,1490.0,-0.01948033,-0.014262084,-0.008801322,0.025697347,0.02414312225529756,-0.02414312225529756,0.8923929241044656,5.670775998379918,26.892001086619945,26.892001086619928,7.0824458486023545,17.654375551296965,0.13308336415607552,22.42856968940292,0.2684119479880056,20.244736801302388,11.57383132446186,14.748970071625212,38.17,,,10.4416978,63.4119167,20190511,155246,2019-05-11T15:52:46Z,115.521,0.88,1.51,9.85,8,4,12,-0.01,0.0,0.0,-9998,-9998,9998,-9998,4,4,10.441702510072313,63.411917094613,30,85383,19,53,60,1882,3552,3964,3971,0,15902,26,1,15868,0,false,false,false,false,false,false,false,false,false,false,0,0,0,0,42,55,54,43,944,944,943,945,940,940,940,940,0.0,0.0,0.0,0.0,1664.4,1658.8,1659.4,1664.4,0.0,0.0,0.0,0.0,0,0,0,0,-45.0,10.44169756368671,63.41191606681429,0,42.488503,42.84595,0.09550912,-0.0165807,-0.9765499,0.9813494,0.34368277,-0.013187048,0.14912061,0.37487158,318,-167,1447,1490.0,0.001160363,-0.0027929004,-3.1606812E-4,0.0030408278,0.0030243570333275197,-0.0030243570333275197,0.9630936213912105,6.024425848314911,25.757439094774274,25.75743909477427,6.907086368607309,17.327890344588383,0.3110157314360636,22.241457150213197,0.27140645129148044,7103781.627684867,8.716632101616483,11.891770848779835,38.16,NONE,0.0,0.0,0.0,NONE,-2.6600967167117674E-10,4.2449879763247856E-11,0.0,,,,,,16.729,16.729,5.977,1.29522,0,3068,4.176,12.0,1.306,85,22.6,OK,47,0,0,0,0,0,65,100,0.0,0,0.0,-7.749788E-29,8.8E-44,0.0,-5.9807744E7,62,3.5762787E-7,-3.5762977E-7,3.1395257E-34,False,False,0,None,3.0016177E29,1.0842106E-19,Firmware Date| Oct 17 2018
197906961,1.002,10.441697194901963,63.41191648305722,12,42.475025,42.472958,0.09339566,-0.016237643,-0.97477305,0.97937167,0.06254602,0.12372431,0.5553689,0.57241094,324,-175,1438,1484.0,-0.05392017,-0.031568706,0.004821944,0.06266753,0.062481739684734326,-0.0427821733645115,0.900622868770787,5.676491957808557,26.882123970621123,26.882123970621137,8.028187413386805,17.789888280379422,0.19010163996081653,23.04949711275802,0.2731255153531593,20.277190945539267,10.593057831629018,13.76819657879237,38.42,0.014335177001953525,,10.4416979,63.411917,20190511,155247,2019-05-11T15:52:47Z,115.541,0.88,1.51,9.66,8,4,12,0.0,-0.01,0.0,0,0,0,0,4,4,10.441702510072313,63.411917094613,30,88247,16,53,61,1883,3552,3919,3926,0,15690,24,1,17518,0,false,false,false,false,false,false,false,false,false,false,538,538,529,536,46,60,58,47,1331,1338,1335,1335,1322,1322,1322,1322,0.1,0.1,0.1,0.1,1631.2,1626.4,1625.1,1631.2,7.66,7.16,7.76,7.33,0,0,0,0,-147.52880770915152,10.441697534320074,63.41191620362374,0,42.475025,42.83422,0.09316022,-0.015769046,-0.97453165,0.9791013,0.22957058,0.33299395,0.13160764,0.42533305,324,-175,1438,1484.0,-0.012722555,-0.006837311,0.016436143,0.021880561,0.014443414618203998,8.144762675633011E-4,0.9433458730246201,6.057094587126445,25.762951977122828,25.76295197712284,7.19888312576959,17.621214367409017,0.43958666210749536,22.755421505628494,0.26671600654580907,7103781.692617633,10.254653083943635,13.429791831106987,38.42,NONE,0.0,0.0,0.0,NONE,-2.647853283199555E-10,-2.9847101130705637E-10,3.0517578E-5,1,22.5,22.5,22.5,22.5,16.72,16.72,5.859,1.297768,0,3068,4.177,12.0,1.319,85,22.6,OK,48,0,0,0,0,0,65,100,0.0,0,0.0,-1.5217821E-24,8.8E-44,0.0,-5.9807744E7,62,3.5762787E-7,-3.5762977E-7,3.1357053E-34,False,False,0,None,2.9960083E29,1.0842106E-19,ACType|MavicEnterprise
201813847,2.017,10.441697434934332,63.41191680785475,12,42.475025,42.46742,0.09524135,-0.017387958,-0.97532177,0.98011523,-1.197225,-1.2787337,3.2405787,3.683729,318,-173,1435,1479.0,-0.041827455,-0.042072766,0.00684246,0.059719954,0.05932666833300927,-0.021862727234505004,0.9486874442333668,5.6010370795737545,26.959506566435834,26.959506566435834,7.936667605000416,18.611866160492653,0.4573115927264388,23.326204227016014,0.25458347365089,20.32995369639471,-127.79576343873248,-124.62062469156912,38.73,0.014335177001953525,,10.441698,63.4119172,20190511,155248,2019-05-11T15:52:48Z,115.529,0.88,1.51,9.48,8,4,12,0.0,0.0,0.02,0,0,0,0,4,4,10.441702510072313,63.411917094613,30,88249,18,53,62,1868,3559,3970,3976,3560,15891,24,1,15963,0,false,false,false,false,false,false,false,false,false,false,2036,1989,2122,2126,47,59,59,47,1208,1207,1217,1219,1201,1200,1205,1205,0.0,0.0,0.0,0.0,1658.2,1652.7,1650.2,1656.4,0.6,0.22,0.82,0.44,0,0,0,0,-12.881977789885184,10.44169742353731,63.411916319362014,0,42.475025,42.810265,0.09280083,-0.016726796,-0.97800976,0.9825451,1.9373605,0.87797517,-2.83467,3.543947,318,-173,1435,1479.0,-0.026849603,-0.01852047,0.010256736,0.034192245,0.03261761843516585,-0.018828930336535845,0.9460529398374691,6.118281392808232,25.904980349579652,25.90498034957966,5.920623413594225,17.86463364823809,0.7895243877669705,22.75855869705991,0.26742101752481573,7103781.750168919,,,38.72,NONE,0.0,0.0,0.0,NONE,-1.7911679537803032E-9,-1.2007777643987817E-9,5.340576E-5,2,10.13,10.0,11.43,11.71,16.475,16.475,5.949,1.3786095,0,3066,4.177,12.0,5.191,85,22.6,OK,49,0,0,0,0,0,65,100,0.0,0,0.0,-2.425459E-20,8.8E-44,0.0,-5.9807744E7,62,3.5762787E-7,-3.5762977E-7,3.1365282E-34,False,False,0,None,2.9972172E29,1.0842106E-19,dateTime|2015-10-24 15:52:6 GMT
205663608,3.018,10.44169755591353,63.411916784547344,12,42.475025,42.472267,0.09267692,-0.019693311,-0.9778815,0.9824607,1.950013,-0.09191678,0.73455155,2.085801,321,-173,1438,1483.0,-0.025656024,-0.0140540805,-0.0029977392,0.02940638,0.02925318301101846,-0.022701718951864396,0.953233486386424,5.617272060396673,26.906409707193966,26.906409707193973,8.065377399447378,18.856066442923993,0.6040230913661838,23.17685240711862,0.2489568202521132,20.36850368164156,-156.08603291030417,-152.91089416314082,39.07,0.014335177001953525,,10.441698,63.4119171,20190511,155249,2019-05-11T15:52:49Z,115.571,0.88,1.51,9.35,8,4,12,-0.01,-0.01,0.0,0,0,0,0,4,4,10.441702510072313,63.411917094613,30,90992,114,99,63,3559,3559,4382,4390,304,17586,26,3562,17571,0,false,false,false,false,false,false,false,false,false,false,2044,2002,2119,2116,48,60,60,48,1205,1206,1211,1213,1203,1200,1211,1213,0.0,0.0,0.0,0.0,1657.6,1651.5,1651.5,1657.6,0.65,0.28,0.78,0.38,0,0,0,0,-11.659292653522982,10.441697504500297,63.41191635863749,0,42.475025,42.81486,0.096894205,-0.013398718,-0.9707599,0.9756756,0.5878638,0.34379762,-0.68548506,0.9662662,321,-173,1438,1483.0,-0.019930895,-0.013769889,-0.0025815961,0.024362165,0.02422499643419646,-0.018286087188871758,0.9178190234176462,6.072230794055708,25.91366385501819,25.91366385501817,6.296310429173516,18.262339007288638,0.7998943962252597,22.595155919633104,0.2622142890002071,7103781.792756565,-139.72773557970515,-136.5525968325418,39.08,NONE,0.0,0.0,0.0,NONE,-1.5285041960620096E-9,-8.393597866658107E-10,-1.1444092E-5,2,10.0,10.2,10.43,10.39,16.631,16.631,5.95,1.590794,0,3066,4.1,12.0,1.797,85,22.6,OK,50,0,0,0,0,0,65,100,0.0,0,0.0,-2.4250289E-19,8.8E-44,0.0,-5.9807744E7,62,3.5762787E-7,-3.5762977E-7,3.1161334E-34,False,False,0,None,2.967526E29,1.0842106E-19,geoDeclination|318 degrees
209561358,4.031,10.441697689874289,63.41191658466744,12,42.475025,42.468784,0.09763847,-0.012490056,-0.97120804,0.97618353,1.0603722,4.1129174,-2.1967652,4.7818675,321,-173,1435,1480.0,-0.051472735,-0.03233902,-9.6400804E-4,0.06079625,0.0607886064963598,-0.03788253900893738,0.9170694873117626,5.622728120853687,26.887577256298293,26.8875772562983,8.297837963736713,19.274856063684858,0.5901966274931829,23.08304815743345,0.2465013810319209,20.40399062519302,,,39.31,0.014335177001953525,,10.4416982,63.4119171,20190511,155250,2019-05-11T15:52:50Z,115.598,0.88,1.52,9.27,8,4,12,0.0,0.01,0.0,0,0,0,0,4,4,10.441702510072313,63.411917094613,30,91509,48,99,64,3538,3538,4389,4396,167,17544,25,212,17550,0,false,false,false,false,false,false,false,false,false,false,2044,1984,2122,2145,48,59,59,47,1205,1206,1216,1211,1200,1200,1208,1210,0.0,0.0,0.0,0.0,1657.6,1651.5,1652.7,1657.6,0.64,0.28,0.85,0.36,0,0,0,0,-19.15110876839242,10.441697643075543,63.411916183340395,0,42.475025,42.761826,0.09001889,-0.020067431,-0.9836063,0.98792076,-0.38224626,-3.6581237,2.560184,4.481353,321,-173,1435,1480.0,-0.07731882,-0.037551213,0.04620597,0.097587325,0.08595518179535343,-0.06554444164126447,0.9640267034780505,6.1407952068003535,25.93527096389719,25.93527096389721,6.398410770494159,18.608709916129346,0.7492763344550684,22.652391304674985,0.2625606150123038,7103781.838396651,-174.18892302248418,-171.01378427532083,39.31,NONE,0.0,0.0,0.0,NONE,-3.767015533461901E-9,-3.4074353281648904E-9,2.2888184E-4,2,10.19,10.0,11.25,11.28,16.662,16.662,5.952,1.8137559,0,3065,4.1,12.0,1.904,85,22.6,OK,51,0,0,0,0,0,65,100,0.0,0,0.0,-3.4908042E-25,8.8E-44,0.0,-5.9807744E7,62,3.5762787E-7,-3.5762977E-7,3.1174852E-34,False,False,0,None,2.9695087E29,1.0842106E-19,geoInclination|7478 degrees
213480027,5.049,10.441698090571641,63.41191686472541,12,42.475025,42.467766,0.094504826,-0.012393694,-0.976167,0.9808093,3.6983712,2.4797773,-4.3379784,6.2165346,321,-173,1438,1483.0,-0.022990864,-0.014843603,-0.005924736,0.028000265,0.02736626277311955,0.0089429545555623,0.9042080936075191,5.641518091086639,26.861426448869988,26.861426448869963,8.5684808638397,19.377202779576738,0.8007445847884888,23.02022175494057,0.22142951953210355,20.456415432146002,4.345146365825688,7.520285112989041,39.67,0.014335177001953525,,10.4416986,63.4119172,20190511,155251,2019-05-11T15:52:51Z,115.63,0.88,1.52,9.2,8,4,12,-0.01,0.01,0.0,0,0,0,0,4,4,10.441702510072313,63.411917094613,30,91509,48,99,65,3538,3538,4389,4396,167,17544,25,212,17550,0,false,false,false,false,false,false,false,false,false,false,2043,1998,2129,2133,47,60,61,47,1208,1207,1220,1223,1201,1200,1201,1201,0.0,0.0,0.0,0.0,1657.0,1650.2,1650.8,1656.4,0.62,0.26,0.78,0.44,0,0,0,0,-12.50135405552038,10.44169806165862,63.41191635755244,0,42.475025,42.750977,0.09157764,-0.013097553,-0.9819849,0.98633283,2.6917999,1.801035,-3.775116,4.974034,321,-173,1435,1480.0,-0.04473196,-0.017567644,0.0072574764,0.048602894,0.048057989156988515,-0.02012627164889785,1.0006470755667893,6.208819444020908,25.948992566315464,25.94899256631544,6.614525773337249,19.01872009622225,1.1175530896741193,22.676334420218588,0.23607132793475377,7103781.8932923265,140.87162803058177,144.04676677774512,39.67,NONE,0.0,0.0,0.0,NONE,-2.145124779819757E-9,-2.4467997314827234E-9,1.0681152E-4,2,10.0,10.0,11.9,12.18,16.662,16.662,5.953,1.9619739,0,3064,4.159,12.0,1.91,85,22.7,OK,52,0,0,0,0,0,65,100,0.0,0,0.0,-4.051828E-22,8.8E-44,0.0,-5.9807744E7,62,3.5762787E-7,-3.5762977E-7,3.0245036E-34,False,False,0,None,2.834109E29,1.0842106E-19,geoIntensity|5185099 nanoTesla
217377911,6.062,10.441698747765926,63.41191702197193,12,42.475025,42.470276,0.09770136,-0.0142915975,-0.9703399,0.97535086,3.3323293,2.8384545,-3.9186954,5.8751526,327,-173,1438,1484.0,-0.025050528,-0.015231747,-0.010098425,0.031008279,0.02931782946635989,0.007292192981106418,0.8822287044749312,5.583926960283624,26.82794404634099,26.827944046340974,8.542102561889612,19.80906257452819,0.8606756758280693,22.759430763111993,0.18741607100701543,20.506706431715372,45.22455338758818,48.39969213475153,39.99,0.014335177001953525,,10.4416993,63.4119174,20190511,155252,2019-05-11T15:52:52Z,115.651,0.88,1.52,9.14,8,4,12,-0.02,0.01,0.0,0,0,0,0,4,4,10.441702510072313,63.411917094613,30,91509,48,99,66,3538,3538,4389,4396,167,17544,25,212,17550,0,false,false,false,false,false,false,false,false,false,false,2061,2001,2130,2151,48,60,61,48,1205,1206,1219,1213,1200,1200,1206,1208,0.0,0.0,0.0,0.0,1658.2,1650.2,1651.5,1657.0,0.68,0.29,0.87,0.44,0,0,0,0,-20.297569772228712,10.441698904277729,63.41191665396568,0,42.475025,42.750923,0.089671135,-0.016114512,-0.9824962,0.9867114,-3.0990262,-3.78308,4.02804,6.335674,327,-173,1438,1484.0,-0.033439297,-0.018471662,-0.005929067,0.038659316,0.038201950129286295,0.014449060080708363,0.9584835050129108,6.162384885134041,25.950417922318053,25.950417922318024,6.803281989337004,19.47865695844078,1.093606346256177,22.35318501385417,0.18602161576090448,7103781.966503225,143.85619668895328,147.03133543611662,40.01,NONE,0.0,0.0,0.0,NONE,-1.690379278167262E-9,-1.3717820237251797E-9,-2.670288E-5,2,10.0,10.23,10.94,11.06,16.662,16.662,5.948,2.0527177,0,3064,4.16,12.0,1.909,85,22.6,OK,53,0,0,0,0,0,65,100,0.0,0,0.0,-3.987609E-14,8.8E-44,0.0,-5.9807744E7,62,3.5762787E-7,-3.5762977E-7,2.851177E-34,False,False,0,None,2.5815886E29,1.0842106E-19,
221322130,7.087,10.441699272685922,63.41191727318435,12,42.475025,42.467495,0.09877933,-0.018717747,-0.9730021,0.9781824,-0.0044606472,1.8221015,-0.72605103,1.9614341,318,-178,1435,1480.0,-0.057732068,-0.029360885,-0.009895994,0.06552087,0.06476922981160313,-0.027459180813604836,0.9020155655738766,5.556292725363737,27.23864729759955,27.238647297599528,9.580810461157123,20.413231600360245,0.8243541212199044,23.78094754073064,0.1623367203792763,20.55541642499835,87.42711174575685,90.6022504929202,40.26,0.014335177001953525,,10.4416996,63.4119177,20190511,155253,2019-05-11T15:52:53Z,115.659,0.88,1.52,9.07,8,4,12,0.01,0.0,0.01,0,0,0,0,4,4,10.441702510072313,63.411917094613,30,91509,48,99,67,3538,3538,4389,4396,167,17544,25,212,17550,0,false,false,false,false,false,false,false,false,false,false,3071,3018,3220,3255,48,60,61,48,1286,1281,1297,1291,1284,1267,1279,1293,0.0,0.0,0.0,0.0,1651.5,1644.7,1645.9,1651.5,0.84,0.49,0.93,0.56,0,0,0,0,-12.84275404394441,10.441699358794972,63.41191682478472,0,42.475025,42.67805,0.10121662,-0.022553772,-0.97604537,0.9815386,0.30156037,0.7629822,0.466088,0.94356686,318,-178,1435,1480.0,-0.12958696,-0.043310676,0.05785571,0.1483775,0.13663306957488758,-0.1078184426388867,1.0379566123493944,6.18553723458897,26.43895581407533,26.438955814075314,7.671478336372541,19.576306502252507,1.5103476012794514,23.44178961645249,0.1596765172089804,7103782.03233412,152.39075741864,155.56589616580334,40.27,NONE,0.0,0.0,0.0,NONE,-3.588915712081005E-9,-4.4577561639267165E-9,-3.4332275E-5,2,18.76,17.3,23.67,25.91,16.638,16.638,5.877,2.104211,0,3063,4.16,12.0,2.149,85,22.7,OK,54,0,0,0,0,0,65,100,0.0,0,0.0,-8.2740735E-7,8.8E-44,0.0,-5.9807744E7,62,3.5762787E-7,-3.5762977E-7,2.7541986E-34,False,False,0,None,2.440386E29,1.0842106E-19,
225171042,8.087,10.441699615668176,63.41191761151038,12,42.475025,42.615196,-0.005136787,0.0014937744,-0.9348697,0.934885,8.876939,28.221443,4.0133395,29.855598,545,-207,1368,1487.0,0.13787755,0.06359904,-0.66323894,0.6803976,0.15183892113904657,-0.11054040155901929,-0.24430591378788516,-1.1644355850633954,27.48079592944609,27.480795929446117,8.298555018311022,18.358943595134715,-8.387395037131133,21.258443989973543,0.1550917261167744,20.622673227142762,19.398978427171336,22.57411717433469,40.58,0.014335177001953525,,10.4416995,63.4119178,20190511,155254,2019-05-11T15:52:54Z,115.689,0.88,1.52,9.03,8,4,12,-0.03,-0.04,-0.07,0,0,0,1861,4,4,10.441702510072313,63.411917094613,30,91510,19,100,68,3538,3538,4387,4393,152,17544,25,1,17550,0,false,false,false,false,false,false,true,false,false,false,5387,5366,4425,4626,45,59,59,45,1520,1508,1429,1458,1520,1509,1416,1440,0.0,0.0,0.0,0.0,1617.1,1611.6,1611.0,1615.9,3.88,3.1,2.74,3.34,0,0,0,0,-172.56859202882748,10.441699579854715,63.41191719296631,0,42.475025,42.84318,-0.005086068,-0.006385133,-0.92750716,0.9275431,-0.09672151,26.026985,-7.354517,27.046297,545,-207,1368,1487.0,0.09882443,0.051094253,-0.6115102,0.6215478,0.11125147422740628,-0.06887243911753547,-0.013912381545851133,-0.20637144526148493,26.669253718711403,26.66925371871139,9.580084163461173,21.648036612601675,-2.8114435724445626,20.940315473429997,0.14624015886209668,7103782.102350464,18.215780193225513,21.390918940388865,40.61,NONE,0.0,0.0,0.0,NONE,3.3753752111292624E-9,2.5069021858217777E-9,-0.002986908,2,49.53,49.58,37.26,39.43,16.567,16.567,5.749,2.1649144,0,3062,4.159,12.0,3.588,85,22.7,OK,55,0,0,0,0,0,65,100,0.0,0,0.0,0.23474121,2.69E-43,0.0,-5.9807744E7,62,3.5762787E-7,-3.5762977E-7,2.2271658E-34,False,False,0,None,1.6726698E29,1.0842106E-19,
229048973,9.095,10.44170112248597,63.41191880430747,12,42.946384,42.74551,-0.0063093733,0.0022295853,-0.96810985,0.968133,-0.946297,-1.5404465,-0.859156,2.00165,456,-204,1392,1478.0,0.04923281,0.030731987,0.018873304,0.061028898,0.058037269061871975,0.09314020408073725,-0.31212261396874386,0.6802190941196188,27.5091287173823,27.509128717382282,7.942714943684071,17.208210684315702,-4.279956711546602,22.571943962117057,0.22780481782490744,20.78910474511689,37.75912985436963,40.934268601532985,40.86,0.485694429931641,,10.4417013,63.411919,20190511,155255,2019-05-11T15:52:55Z,115.995,0.88,1.52,9.0,8,4,12,0.07,0.04,-0.2,0,0,0,0,4,4,10.44169939139231,63.41191690776792,30,91511,114,100,69,3538,3538,4382,4390,0,17524,25,3559,675,0,false,false,false,false,false,false,true,false,false,false,5475,5484,4588,4761,47,60,60,47,1538,1542,1454,1466,1530,1531,1445,1459,0.0,0.0,0.0,0.0,1609.1,1602.4,1602.4,1607.3,4.46,3.94,3.37,2.88,0,0,0,0,-174.18372121100296,10.441700911261309,63.41191827743722,0,42.95167,43.12225,-0.006124055,0.002684611,-0.9707445,0.9707675,0.15781653,-0.612454,-0.94264764,1.135161,456,-204,1392,1478.0,0.00989583,3.974921E-4,-0.056020044,0.05688876,0.009903810387666568,0.12661694011264482,-0.17905552424258725,1.1849704979137856,26.655691352646933,26.655691352646954,8.911138269944756,21.239607977971595,-0.04533170964111943,22.386760541525383,0.1700496360139217,7103782.298224909,-135.7740621839134,-132.59892343675006,40.83,NONE,0.0,0.0,0.0,NONE,3.637964176830486E-9,2.476248476524796E-9,-4.9972534E-4,2,52.09,51.81,40.31,42.23,16.386,16.386,5.778,2.3632748,0,3061,4.151,12.0,7.273,85,22.7,OK,56,0,0,0,0,0,65,100,0.0,0,0.0,4.148938E-14,2.69E-43,0.0,-5.9807744E7,62,4.5393244E-7,-4.0578206E-7,3.017862E-34,False,False,0,None,2.8244376E29,1.2780355E-19,mcID(SN)|298DG13001W644
232990662,10.120,10.441700946480188,63.411919315325996,12,43.104828,42.756752,-0.0077131344,0.004404681,-0.9830093,0.9830494,4.9287286,0.32862827,6.0759377,7.8305416,493,-201,1383,1481.0,0.025284134,-0.0065331287,0.0076789455,0.027220128,0.026114539294086216,0.03000838126801392,-0.2564739113582789,-0.7092398878257441,27.44253332528356,27.442533325283534,8.26442537183431,17.905808473071005,-7.675268228338794,22.26435642976754,0.278670846509977,20.86285256253722,1.1108435060630684,4.285982253226421,41.13,0.6441378808593754,,10.4417016,63.4119196,20190511,155256,2019-05-11T15:52:56Z,116.022,0.88,1.52,9.01,8,4,12,0.01,0.0,-0.11,0,0,0,0,4,4,10.44169939139231,63.41191690776792,30,353663,16,99,70,3479,3544,4312,4329,-1388,17200,23,0,16654,0,false,false,false,false,false,false,true,false,false,false,5496,5442,4668,4713,46,57,58,47,1537,1539,1456,1460,1534,1532,1452,1449,0.0,0.0,0.0,0.0,1607.3,1601.8,1600.0,1606.7,4.37,3.92,3.5,2.9,0,0,0,0,-176.36181342213536,10.441701220934418,63.411918936010636,0,43.0969,43.07965,-0.0067550447,0.0020779101,-0.9797943,0.97981983,2.611273,3.0282578,1.6054065,4.308877,493,-201,1383,1481.0,-0.0395576,-0.030980846,0.03168618,0.059402276,0.050245561292339425,0.02280423613891827,-0.10017941705887573,-0.19422541162204301,26.557439711851625,26.5574397118516,8.810558325569518,21.070907113850602,-1.881141434402307,22.130245668929973,0.24321688712681963,7103782.379488614,49.35190245819791,52.527041205361265,41.15,NONE,0.0,0.0,0.0,NONE,-3.1961537798473135E-9,-1.8137827314681102E-9,1.1444092E-4,2,51.53,51.39,41.92,41.45,16.22,16.22,5.77,2.810058,0,3059,4.137,12.0,7.231,85,22.7,OK,57,0,0,0,0,0,65,100,0.0,0,0.0,1.5798776E-9,2.69E-43,0.0,2.5102509E-8,63,4.3771433E-7,-3.9767664E-7,3.225278E-34,False,False,0,None,3.126524E29,1.2454115E-19,mcVer|v3.4.1.6
236904045,11.137,10.441701128432884,63.411920870025504,12,43.358593,42.845108,-0.012970438,-9.585968E-4,-0.9934823,0.9935674,-0.28042293,-0.911775,-1.2217734,1.5500648,510,-193,1386,1489.0,0.11296473,4.4825068E-4,-0.15870124,0.1948007,0.11296561680665808,0.05724054320079115,0.08106106673231517,-1.274696061596835,27.45452816843574,27.45452816843573,8.172358263765554,18.445346150128255,-6.792387481125617,22.14514129709449,0.44898409795253275,21.039067734428613,2.195579920997368,5.370718668160721,41.5,0.8979029870605473,,10.4417016,63.4119208,20190511,155257,2019-05-11T15:52:57Z,116.028,0.88,1.52,8.93,8,4,12,0.14,0.03,-0.1,0,0,0,0,4,4,10.44169939139231,63.41191690776792,30,353663,20,99,71,3479,3544,4312,4329,-1388,17200,23,2,16654,0,false,false,false,false,false,false,true,false,false,false,5502,5519,4715,4628,48,58,58,49,1548,1553,1457,1467,1538,1536,1449,1458,0.0,0.0,0.0,0.0,1604.3,1598.1,1597.5,1604.9,4.47,4.16,3.44,2.92,0,0,0,0,176.45342745496106,10.441701134043708,63.41192016721231,0,43.10229,42.967106,-0.013221678,1.2210198E-4,-0.9962936,0.99638134,-4.903485,1.4625697,-5.0706778,7.2038217,505,-193,1389,1490.0,0.0074437065,-0.02491117,-0.0089828335,0.027507572,0.025999522504310493,0.10867317603800829,0.28140005884835895,-0.8498558392118322,26.560656704816093,26.560656704816097,8.364150256568703,22.30781815157947,-2.9518329594424664,22.41840685379035,0.3726659654095496,7103782.522819259,8.887357021409443,12.062495768572795,41.45,NONE,0.0,0.0,0.0,NONE,-3.6550117643521162E-9,-4.757331312095081E-10,9.536743E-5,2,51.79,52.21,41.63,42.14,16.19,16.19,5.758,3.4554276,0,3057,4.062,12.0,7.372,85,22.7,OK,58,0,0,0,0,0,65,100,0.0,0,0.0,7.3093176E-4,2.69E-43,0.0,2.5102509E-8,63,3.9861334E-7,-3.7812615E-7,3.6401687E-34,False,False,0,None,4.2924604E29,1.1667301E-19,
240770601,12.142,10.441703047331643,63.4119231569919,12,43.538166,43.03847,-0.014893591,0.0013199775,-0.9855984,0.9857118,-2.8688958,5.3410397,-1.2828691,6.1970167,490,-199,1389,1486.0,0.122605845,0.018348139,-0.2512794,0.2801967,0.12397115837062742,0.14634389961626895,-0.13587227970437915,-0.9527944736978492,27.64905187881738,27.649051878817374,9.226846304069966,20.131498508433115,-4.073736403220574,22.744635900733712,0.7183078464551028,21.313560447367664,20.823038686125688,23.99817743328904,41.85,1.0774760461425785,,10.4417039,63.4119237,20190511,155258,2019-05-11T15:52:58Z,116.254,0.88,1.52,8.82,8,4,12,0.26,0.11,-0.21,0,0,0,0,4,4,10.44169939139231,63.41191690776792,30,353664,114,99,72,3478,3544,4271,4294,-2890,17270,23,3538,17357,0,false,false,false,false,false,false,true,false,false,false,5412,5588,4630,4785,49,60,59,48,1542,1559,1453,1480,1533,1541,1440,1470,0.0,0.0,0.0,0.0,1601.2,1596.9,1596.9,1602.4,4.43,4.24,3.47,3.01,0,0,0,0,179.2409205219944,10.441703441636562,63.41192276552429,0,43.564606,42.97074,-0.014918258,0.0019092765,-0.98716,0.9872746,-3.8835878,-0.5868319,-3.1916978,5.060984,490,-196,1383,1480.0,0.025970286,0.012095479,-0.045413587,0.053694975,0.02864884479002765,0.28074230906663694,0.1878227859452758,-0.5125227112667649,26.777985754791295,26.777985754791302,9.883392574589704,23.40348046226184,-2.2992745640513856,22.77569791945357,0.6818296800462412,7103782.838908511,34.52658736188749,37.701726109050846,41.8,NONE,0.0,0.0,0.0,NONE,8.095996890116195E-10,1.1891989743945123E-9,-2.0599365E-4,2,51.22,52.35,40.34,44.02,16.164,16.164,5.754,4.1840286,0,3055,4.046,12.0,7.516,85,22.7,OK,59,0,0,0,0,0,65,100,0.0,0,0.0,1.2959936E-6,2.69E-43,0.0,2.5102509E-8,63,4.0438317E-7,-3.8100742E-7,5.7405574E-34,False,False,0,None,8.982222E29,1.1783106E-19,
244641667,13.148,10.441707650378357,63.41192566690367,12,43.91065,43.252193,1.7123832E-4,-0.001081943,-0.94302607,0.94302666,-15.085494,2.7820299,3.1933637,15.668739,453,-126,1423,1498.0,-0.022521157,0.093060456,-0.25267604,0.2702085,0.0957468088840859,0.2631420001900908,3.3143045181709194,0.9656918982241821,33.16831913355841,33.168319133558384,15.260934140233246,24.00343556553094,-2.1892522320584913,23.576597491065062,1.0571507427931846,21.706359497075482,95.58930224569544,98.7644409928588,42.12,1.449958345947266,,10.4417076,63.411926,20190511,155259,2019-05-11T15:52:59Z,116.497,0.88,1.52,8.78,8,4,12,0.26,0.17,-0.23,0,-380,0,0,4,4,10.44169939139231,63.41191690776792,30,354721,48,44,73,1544,3582,3823,3832,-1121,15338,36,212,15332,0,false,false,false,false,false,false,true,false,false,false,5351,5365,4737,4994,50,58,59,49,1541,1531,1454,1477,1513,1440,1466,1556,0.0,0.0,0.0,0.0,1600.0,1594.4,1595.7,1600.0,4.02,3.18,4.07,3.72,0,0,0,0,-166.14182077678976,10.441707900840505,63.41192533239866,0,43.754745,43.044506,-1.6913819E-4,-2.9990636E-4,-0.9349636,0.93496364,-30.25773,-12.880586,-10.132941,34.410988,453,-126,1423,1498.0,-0.10036005,0.09452452,-0.01917561,0.13919313,0.13786596180315916,0.22150006824937177,3.2668328512461717,1.4246000258024865,32.311083827276015,32.311083827276036,15.539128123433706,25.735884036842258,-6.15837336255997,22.974329718859554,1.0280560830273862,7103783.223021144,50.41452635656765,53.589665103731,42.12,NONE,0.0,0.0,0.0,NONE,8.836660311256567E-9,-4.03181817491636E-9,-9.918213E-5,2,46.92,49.8,45.52,47.73,16.145,16.145,5.739,4.9164767,0,3053,4.038,12.0,7.535,85,22.7,OK,60,0,0,0,0,0,65,100,0.0,0,0.0,4.9565685E-11,2.69E-43,0.0,2.5102509E-8,63,4.2854663E-7,-3.930928E-7,8.5221605E-34,False,False,0,None,1.9111086E30,1.2269489E-19,
248585730,14.173,10.441710242440102,63.41192662978307,12,43.807247,43.526405,-0.0100958655,0.010514836,-0.9998234,0.99992967,-6.4613085,10.843702,-11.970352,17.396084,229,-268,1420,1463.0,-0.30369356,-0.11448644,-0.26925698,0.42170635,0.3245565079882063,-0.16100776566274683,-1.5473876593141618,9.251313298950992,33.22081423674788,33.220814236747856,14.50041642515286,20.51743510830157,6.781009420502045,26.7522551853581,1.2084207827111118,21.920994976476944,-99.19047969334136,-96.015340946178,42.38,1.3465571618652348,,10.4417109,63.4119271,20190511,155300,2019-05-11T15:53:00Z,116.784,0.88,1.52,8.7,8,4,12,-0.04,0.06,-0.31,0,-7312,0,0,4,4,10.44169939139231,63.41191690776792,30,354721,17,44,74,1544,3582,3824,3832,-1047,15338,36,0,15336,0,false,false,false,false,false,false,true,false,false,false,5543,5522,4648,4886,49,61,61,49,1552,1551,1458,1483,1544,1542,1448,1476,0.0,0.0,0.0,0.0,1597.5,1592.0,1591.4,1596.3,4.72,3.98,3.38,3.18,0,0,0,0,-170.3981542002358,10.44171063460242,63.41192599096672,0,44.134777,43.09771,-0.010707035,0.015485966,-1.0030084,1.003185,1.9300057,8.293472,0.6658056,8.541072,229,-268,1420,1463.0,-0.37022564,-0.18407017,0.00640873,0.41350928,0.41345960882330307,-0.26272546354178317,-0.9597448133335361,9.952839414784718,32.36988021680795,32.36988021680793,13.751641508539352,21.152502984228576,0.49786806867865074,27.367328705602755,1.1546462716537624,7103783.471062834,-172.57098460810067,-169.39584586093733,42.38,NONE,0.0,0.0,0.0,NONE,-7.074652017998581E-10,-9.459512788625145E-9,7.6293945E-6,2,53.1,52.93,41.1,44.02,16.133,16.133,5.741,5.596206,0,3051,4.034,12.0,7.535,85,22.8,OK,61,0,0,0,0,0,65,100,0.0,0,0.0,2.2472042E-14,2.69E-43,0.0,2.5102509E-8,63,4.459871E-7,-4.018094E-7,1.0772762E-33,False,False,0,None,2.598204E30,1.2620544E-19,
252435013,15.173,10.441705740934788,63.411924831816016,12,43.868958,43.82895,-0.007853654,0.014010492,-0.6722506,0.67244244,2.77641,-7.019183,1.1782196,7.6397376,508,-245,1377,1488.0,0.03239751,-0.088948555,-0.088929445,0.12988414,0.09466490262659812,0.20547727442235486,-0.9809736714963935,-2.7786365577235115,33.05602550551568,33.05602550551566,13.468886428569194,20.256227450509492,-6.248941020038945,26.68578496803533,0.9360660970077884,22.27409548595544,-37.2475842745731,-34.07244552740975,42.69,1.4082675195312504,,10.4417061,63.4119252,20190511,155301,2019-05-11T15:53:01Z,117.045,0.88,1.52,8.74,8,4,12,-0.06,-0.09,-0.32,0,0,0,-6287,4,4,10.44169939139231,63.41191690776792,30,358586,16,44,75,1558,3596,3857,3861,0,15435,27,1,16858,0,false,false,false,false,false,false,true,false,false,false,4634,4495,3952,4056,49,61,61,50,1469,1464,1372,1396,1463,1463,1390,1400,0.0,0.0,0.0,0.0,1614.1,1612.9,1611.6,1615.3,3.54,2.51,1.63,1.57,0,0,0,0,-167.76918183788598,10.441705020740917,63.41192443903965,0,44.16501,43.146473,-0.012421669,0.014494541,-0.68935287,0.6896171,3.3776286,-3.5332422,2.5370815,5.5071735,508,-245,1377,1488.0,-0.07003278,-0.12025836,0.25338575,0.2890865,0.1391641582783572,0.1890874856432183,-0.6938459826331584,-1.6056121495039115,32.532413974318914,32.5324139743189,15.838314203276395,23.66595447705885,-10.730555349739962,25.950012532011392,0.8830596713017892,7103783.877390408,-74.84424805271549,-71.66910930555213,42.71,NONE,0.0,0.0,0.0,NONE,-1.2235513302671037E-8,-3.2728404041237172E-9,0.0010414124,2,46.62,46.23,37.26,39.35,16.113,16.113,5.765,6.189829,0,3049,4.029,12.0,7.631,85,22.8,OK,62,0,0,0,0,0,65,100,0.0,0,0.0,1.368171E-7,2.69E-43,0.0,2.5102509E-8,63,4.6297646E-7,-4.1030043E-7,7.270346E-34,False,False,0,None,1.4201493E30,1.2962335E-19,
256336513,16.187,10.441708010363804,63.411925876519426,12,44.13771,43.850227,-0.01665326,0.014339699,-0.8139078,0.81420445,0.89023036,-1.0644937,-0.1253756,1.3933326,453,-268,1383,1479.0,0.0803448,0.14245671,0.2288965,0.2813233,0.1635518300690826,-0.0037645731101337843,-1.6932295533113875,-0.49441766269004594,33.94187430594173,33.941874305941724,11.432125435121439,17.79236906312209,-7.060429732188395,27.239240011763265,1.0856163452824203,22.502253114223365,60.24827542381491,63.42341417097826,43.01,1.677020571289063,,10.4417082,63.4119259,20190511,155302,2019-05-11T15:53:02Z,117.04,0.88,1.52,8.71,8,4,12,0.09,0.16,-0.12,0,0,0,-4823,4,4,10.44169939139231,63.41191690776792,30,358587,18,44,76,1560,3602,3896,3900,3585,15583,27,1,15672,0,false,false,false,false,false,false,true,false,false,false,4981,4918,4272,4452,49,58,58,49,1506,1508,1435,1458,1501,1503,1432,1449,0.0,0.0,0.0,0.0,1600.0,1595.0,1594.4,1600.0,4.44,3.91,3.63,3.4,0,0,0,0,-168.31546822467143,10.441707377530664,63.411925247530704,0,44.296246,43.117157,-0.01610029,0.015397432,-0.8346917,0.83498895,-1.8965229,0.8305694,-3.4294693,4.005984,453,-268,1383,1479.0,0.035621777,0.06525257,0.42684308,0.43326876,0.0743425146702198,0.07140164642006383,-1.5119206183371188,0.5955016700142525,32.78687152802247,32.78687152802246,19.520545150556714,27.047917595673052,-8.753065294217421,26.33978778824674,1.0089237045549466,7103784.068518622,27.843079749147513,31.018218496310865,43.01,NONE,0.0,0.0,0.0,NONE,8.928327026027816E-9,1.6860817039872932E-9,-2.632141E-4,2,48.47,48.15,38.35,41.54,16.08,16.08,5.785,6.6799574,0,3047,4.025,12.0,7.41,85,22.8,OK,63,0,0,0,0,0,65,100,0.0,0,0.0,1.6159518E-10,2.69E-43,0.0,2.5102509E-8,63,4.5244815E-7,-4.050399E-7,8.494419E-34,False,False,0,None,1.9029846E30,1.2750577E-19,
260210668,17.194,10.441709213614168,63.41192559355856,12,44.1918,43.44397,-0.011084586,0.022759799,-0.9884718,0.98879594,5.7627826,-14.643123,3.9529805,16.22519,401,-265,1392,1472.0,-0.25174257,-0.14164937,0.35983178,0.46143013,0.28885786442545586,-0.22167390160476494,-1.635339391634081,0.9964359660555528,34.379824134432816,34.379824134432795,11.29285527312801,18.25195762392125,-3.2144165972120957,27.899894868030533,1.0824767355832967,22.635583506672628,-156.6653353430607,-153.49019659589734,43.28,1.7311091638183598,,10.4417089,63.4119262,20190511,155303,2019-05-11T15:53:03Z,116.58,0.88,1.52,8.67,8,4,12,-0.13,-0.11,0.27,0,-2772,0,-4381,4,4,10.44169939139231,63.41191690776792,30,358588,114,44,77,1561,3602,3897,3901,3596,15606,27,3544,15606,0,false,false,false,false,false,false,true,false,false,false,5550,5416,4682,4806,49,59,59,49,1554,1541,1449,1477,1542,1531,1452,1470,0.0,0.0,0.0,0.0,1596.3,1592.0,1590.8,1596.3,4.52,3.79,3.21,3.01,0,0,0,0,-170.09820530543033,10.441708311839152,63.41192474458212,0,43.771603,42.753094,-0.012079639,0.019585207,-0.9948216,0.99508774,-0.62796867,-9.228733,-2.7036269,9.637088,401,-265,1392,1472.0,-0.24874198,-0.16173951,0.45397717,0.5423353,0.29670228451426917,-0.22446823109437394,-1.3182699298507414,2.2330928733730615,32.761326974340385,32.76132697434036,20.797313042006,28.513772332940377,-8.787467332839253,27.09893069087989,0.977985295346914,7103784.274067669,-154.65350388527145,-151.4783651381081,43.27,NONE,0.0,0.0,0.0,NONE,-1.5756241397575408E-8,-1.0904114292815448E-8,0.0022277832,2,52.74,51.25,41.5,43.52,16.057,16.057,5.733,7.0438104,0,3043,4.009,12.0,6.734,85,22.8,OK,64,0,0,0,0,0,65,100,0.0,0,0.0,3.939904E-13,2.69E-43,0.0,2.5102509E-8,63,3.5762787E-7,-3.5762977E-7,7.6583765E-34,False,False,0,None,1.6462281E30,1.0842106E-19,
264079991,18.200,10.441705832646708,63.411925263249856,12,43.752563,43.195866,-0.017404284,0.0224878,-1.0102395,1.0106397,4.21541,2.8378022,5.466378,7.4635177,533,-242,1359,1479.0,0.126483,0.068844385,-0.09516747,0.17261039,0.1440051982950505,0.02725774410647175,-0.8862838624732793,-3.8052520621897186,34.62171698505791,34.6217169850579,11.424866499184484,19.655902622814597,-8.701981149909077,26.591183656164304,0.9828359371446744,22.836779941274624,-9.624842774140308,-6.449704026976956,43.55,1.2918734765625004,,10.4417062,63.411925,20190511,155304,2019-05-11T15:53:04Z,116.375,0.88,1.52,8.64,8,4,12,-0.03,-0.05,0.2,0,0,0,0,4,4,10.44169939139231,63.41191690776792,30,361359,114,99,78,3602,3602,4381,4391,372,17591,31,3596,17575,0,false,false,false,false,false,false,true,false,false,false,5617,5467,4698,4854,49,62,61,49,1556,1548,1458,1480,1545,1535,1456,1468,0.0,0.0,0.0,0.0,1595.7,1588.3,1588.9,1595.0,4.56,3.84,3.31,3.12,0,0,0,0,-168.70445260715206,10.441705087909343,63.41192420049708,0,43.691822,42.386597,-0.016530233,0.018661305,-1.009298,1.0096058,1.9050777,12.2306595,-0.020639552,12.378158,533,-242,1359,1479.0,-0.09552741,-0.05521193,0.021163778,0.11234656,0.11033514204483347,0.060181853909775374,-0.6694949929627264,-2.3169579182170073,32.735451096310996,32.73545109631101,19.062866948320412,26.60085808871225,-12.548384908090966,25.337732893367825,0.8590439381267476,7103784.50617083,-85.0324039313013,-81.85726518413794,43.59,NONE,0.0,0.0,0.0,NONE,-1.1746823816610224E-8,-7.685620702328558E-9,3.9291382E-4,2,53.15,51.22,41.79,44.17,16.088,16.088,5.723,7.286401,0,3040,4.002,12.0,7.757,85,22.8,OK,65,0,0,0,0,0,65,100,0.0,0,0.0,5.4548764E-8,2.69E-43,0.0,2.5102509E-8,63,3.5762787E-7,-3.5762977E-7,6.7668815E-34,False,False,0,None,1.1972234E30,1.0842106E-19,
267933581,19.201,10.4417077710531,63.41192572144271,12,43.641922,43.23796,-0.017860707,0.011212959,-0.9723753,0.9726039,1.8091745,3.347757,-1.5426857,4.10615,444,-245,1389,1478.0,0.22122084,0.12341192,-0.047630884,0.25775543,0.25331632600704884,-0.14438544980972787,-0.7506720282507902,-0.32293457062558467,34.967210092618465,34.96721009261847,12.781189349111452,22.879738758907024,-1.2492356930234159,27.472870577106896,1.0650778639440153,23.005388592676425,43.43193001686208,46.607068764025435,43.86,1.181231997070313,,10.441708,63.4119258,20190511,155305,2019-05-11T15:53:05Z,116.514,0.88,1.52,8.6,8,4,12,0.11,0.09,0.04,0,0,0,0,4,4,10.44169939139231,63.41191690776792,30,361891,19,100,79,3610,3610,4385,4393,124,17550,31,1,17539,0,false,false,false,false,false,false,true,false,false,false,5425,5356,4664,4726,49,61,60,50,1538,1540,1461,1464,1531,1522,1449,1467,0.0,0.0,0.0,0.0,1595.7,1590.8,1590.2,1595.7,4.26,3.78,3.36,2.88,0,0,0,0,-174.61993222814394,10.44170770163301,63.41192513944788,0,43.663063,42.46228,-0.01892495,0.01370458,-0.9742697,0.97454983,0.58143187,-6.636906,0.29532307,6.668868,444,-245,1389,1478.0,0.040644377,0.014015975,0.004792449,0.043259457,0.042993174189534425,0.12354930692694556,-0.5694064350021587,0.5261123982387306,32.663914381766716,32.663914381766745,18.030547109530943,26.053844666219252,-10.948447797076124,26.845910802179198,1.0044219116678568,7103784.686932868,34.126878793547746,37.3020175407111,43.87,NONE,0.0,0.0,0.0,NONE,1.6470137734296363E-9,1.948980012684154E-9,1.5258789E-5,2,51.27,51.12,41.14,42.47,16.063,16.063,5.724,7.453181,0,3038,4.02,12.0,7.455,85,22.8,OK,66,0,0,0,0,0,65,100,0.0,0,0.0,2.8217428E-11,2.69E-43,0.0,2.5102509E-8,63,3.5762787E-7,-3.5762977E-7,7.872347E-34,False,False,0,None,1.7217812E30,1.0842106E-19,
271788608,20.203,10.441708436825992,63.41192560558217,12,43.705566,43.106987,-0.018755265,0.020766925,-0.9931906,0.9935847,1.5367359,2.9260583,1.0382942,3.4643078,456,-256,1380,1475.0,0.0050192717,0.012805076,0.10056282,0.101498984,0.013753656505151217,0.02172932587119561,-1.2182150849614193,-1.070975564774396,35.2629112244692,35.26291122446918,10.67864131277056,22.74153296777093,-3.4837854223074745,27.786799075410876,1.0667892093405988,23.09706843903302,-145.79166082816022,-142.61652208099687,44.19,1.2448764062500004,,10.441708,63.4119258,20190511,155306,2019-05-11T15:53:06Z,116.526,0.88,1.52,8.62,8,4,12,-0.09,-0.04,0.06,0,0,0,0,4,4,10.44169939139231,63.41191690776792,30,361892,114,100,80,3610,3610,4384,4392,3,17533,31,3602,17548,0,false,false,false,false,false,false,true,false,false,false,5505,5467,4647,4829,49,60,60,48,1547,1551,1463,1478,1542,1530,1448,1478,0.0,0.0,0.0,0.0,1594.4,1588.9,1587.7,1594.4,4.4,3.82,3.41,3.1,0,0,0,0,-171.63411387596742,10.441708055735955,63.411925062882645,0,43.694992,42.51044,-0.017815202,0.019768007,-0.99089235,0.9912496,7.2611766,-5.7176876,5.3718424,10.689871,456,-256,1380,1475.0,-0.08857341,-0.017722512,0.11341488,0.1449906,0.09032904645782704,-0.07079456840361614,-1.0540870994870437,-0.47254067870763306,32.77996391026065,32.779963910260676,20.182562126010755,26.200010454258624,-11.912638302835727,27.413058653677794,1.0041105740592347,7103784.775146577,151.65603477237514,154.83117351953848,44.21,NONE,0.0,0.0,0.0,NONE,-7.177833711567163E-10,-3.230541425055244E-9,5.1116943E-4,2,53.31,51.82,41.0,44.24,16.076,16.076,5.719,7.56248,0,3036,3.995,12.0,7.262,84,22.9,OK,67,0,0,0,0,0,65,100,0.0,0,0.0,5.441203E-12,2.69E-43,0.0,1.4640026E-27,64,3.5762787E-7,-3.5762977E-7,7.938175E-34,False,False,0,None,1.7409306E30,1.0842106E-19,
275688276,21.217,10.44170660093613,63.41192478237849,12,43.8288,43.047466,-0.022405637,0.026398968,-0.994319,0.99492174,-4.1266985,7.683454,-1.3196788,8.820808,476,-262,1371,1474.0,0.019992879,-0.0017433305,-0.004182704,0.020499986,0.020068742001266692,0.10754069591425812,-1.636765431355713,-1.9213963310124118,35.16164207766049,35.161642077660474,10.022589151524228,21.089794603637976,-4.46611491727062,27.408884056700394,0.9462793667616749,23.231069008170792,-170.85911233946217,-167.68397359229883,44.59,1.368110201416016,,10.4417072,63.4119251,20190511,155307,2019-05-11T15:53:07Z,116.56,0.88,1.52,8.58,8,4,12,-0.09,-0.06,0.03,0,0,0,0,4,4,10.44169939139231,63.41191690776792,30,949175,48,100,81,3542,3611,4357,4365,0,17422,20,212,5,0,false,false,false,false,false,false,true,false,false,false,5537,5346,4700,4837,50,62,61,49,1554,1537,1465,1475,1543,1529,1450,1465,0.0,0.0,0.0,0.0,1594.4,1588.9,1587.7,1593.2,4.45,3.55,3.37,3.11,0,0,0,0,-166.30479881093237,10.441706598251955,63.41192423359137,0,43.459003,42.4254,-0.020546388,0.023055475,-0.99344426,0.99392414,2.3572195,6.7855597,-0.47963297,7.19933,476,-262,1374,1477.0,-0.0735613,-0.032357853,0.036491122,0.0882604,0.0803635239078057,0.035395980389989284,-1.4091423308928284,-1.3349854687785034,32.65027657675847,32.65027657675847,22.00873096301513,27.74330817230657,-13.71180480879492,27.20930232929378,0.890060758546498,7103784.908569149,-140.52353447830774,-137.3483957311444,44.53,NONE,0.0,0.0,0.0,NONE,-3.311074818775813E-9,-3.3603842388373375E-9,1.9836426E-4,2,52.73,50.75,42.03,43.38,16.078,16.078,5.715,7.616152,0,3034,4.014,12.0,7.453,84,22.9,OK,68,0,0,0,0,0,65,100,0.0,0,0.0,5.6144422E-11,2.69E-43,0.0,1.4640026E-27,64,3.5762787E-7,-3.5762977E-7,7.0048016E-34,False,False,0,None,1.2665287E30,1.0842106E-19,
279585708,22.230,10.441706394495936,63.411924812670804,12,43.64442,43.060963,-0.01651319,0.029966086,-0.84682333,0.8475142,2.426592,4.3088694,0.7522414,5.0020566,476,-268,1374,1478.0,0.049647987,0.043187708,0.08956231,0.11113734,0.06580349908358181,-0.05512931431179318,-1.9026518953884732,-1.5834026006576716,35.26599191216697,35.26599191216695,9.910245253289085,19.609164393388323,-3.938670859376084,26.92214321128211,0.9455620325734346,23.264558302832913,24.503323318718607,27.67846206588196,44.85,1.1837306237792973,,10.4417065,63.4119249,20190511,155308,2019-05-11T15:53:08Z,116.607,0.88,1.52,8.56,8,4,12,-0.06,-0.04,0.01,0,0,0,-3397,4,4,10.44169939139231,63.41191690776792,30,949175,48,100,82,3542,3611,4357,4365,0,17422,20,212,5,0,false,false,false,false,false,false,true,false,false,false,5128,4987,4267,4561,49,61,61,50,1511,1489,1421,1458,1504,1495,1422,1450,0.0,0.0,0.0,0.0,1600.0,1597.5,1596.3,1600.6,3.67,2.7,2.68,2.82,0,0,0,0,-161.32498646662236,10.441706019232077,63.41192410805868,0,43.554523,42.404896,-0.014923179,0.02834804,-0.84344375,0.84405196,1.0037713,-3.8484964,-0.8282596,4.0625725,476,-268,1374,1478.0,-0.015521507,0.012028929,0.13978648,0.14115903,0.0196370137134456,0.011973740736768951,-1.8414577441000655,-1.1292804579709104,32.75419839634755,32.75419839634753,26.8422896050952,32.17637599041694,-13.658828925665777,26.50098975718924,0.8659220055630396,7103784.97579452,-178.67268646450597,-175.49754771734263,44.85,NONE,0.0,0.0,0.0,NONE,-8.335259242997804E-10,-1.924885494185744E-9,8.392334E-5,2,46.24,44.87,35.31,38.99,16.061,16.061,5.717,7.6320047,0,3032,4.015,12.0,7.372,84,22.9,OK,69,0,0,0,0,0,65,100,0.0,0,0.0,7.3244166E-10,2.69E-43,0.0,1.4640026E-27,64,3.5762787E-7,-3.5762977E-7,6.8894856E-34,False,False,0,None,1.2329496E30,1.0842106E-19,
283530126,23.255,10.44170630954486,63.411924531082306,12,43.710304,42.994,-0.027758034,0.02957527,-0.9803272,0.98116595,0.65095544,-0.9741423,-31.787315,31.808899,516,-239,1368,1481.0,0.04948267,0.026648667,-0.03453942,0.0659671,0.05620218842794265,-0.0253815562986007,-2.1816060694788217,-2.204589604556015,25.706120949143966,25.70612094914395,1.702535899556882,20.99491222970872,-5.138224962409901,21.980340424525465,0.9149287396402838,23.31853706334103,174.71332729241988,177.88846603958322,45.11,1.2496142602539067,,10.4417063,63.4119246,20190511,155309,2019-05-11T15:53:09Z,116.558,0.88,1.52,8.57,8,4,12,-0.05,-0.04,0.03,0,0,-9998,0,4,4,10.44169939139231,63.41191690776792,30,949175,48,100,83,3542,3611,4357,4365,0,17422,20,212,5,0,false,false,false,false,false,false,true,false,false,false,5502,5405,4710,4822,50,62,61,50,1560,1538,1458,1487,1552,1520,1440,1481,0.0,0.0,0.0,0.0,1592.0,1587.0,1587.0,1592.6,4.6,3.58,3.18,3.1,0,0,0,0,-171.3571974199955,10.441705831289216,63.41192385740821,0,43.921616,42.29995,-0.026976252,0.03468753,-0.9828847,0.9838665,3.6298802,-4.5930777,-24.47774,25.168077,516,-239,1368,1481.0,-0.012593411,-0.00828195,0.002187706,0.015230586,0.015072647553501557,0.013605198914025307,-2.121303745482864,-1.8988510603842799,22.878219495008288,22.878219495008295,17.19422876250566,32.05046880977616,-15.20833618826484,21.81706511714156,0.8365915935622612,7103785.043369507,-56.79773599798146,-53.62259725081811,45.12,NONE,0.0,0.0,0.0,NONE,3.047588528240735E-10,-1.0274980057180562E-9,1.5258789E-5,2,52.0,51.35,41.99,43.4,16.057,16.057,5.71,7.623314,0,3030,4.009,12.0,7.392,84,22.9,OK,70,0,0,0,0,0,65,100,0.0,0,0.0,2.3070612E-10,2.69E-43,0.0,1.4640026E-27,64,3.5762787E-7,-3.5762977E-7,6.6061915E-34,False,False,0,None,1.1504138E30,1.0842106E-19,
287379373,24.255,10.441705967097052,63.41192467084147,12,43.520214,42.96084,-0.027877156,0.0128083145,-0.9961892,0.9966615,-0.67428756,6.963383,-29.634756,30.449337,571,-37,1368,1482.0,0.08025599,0.033660002,0.009861395,0.08758578,0.08702884820144295,-0.0639736958816166,-0.5097062571188157,-1.7883184231726297,1.7564818585553794,1.7564818585553894,-23.669164593943652,22.90851765486632,-4.870985710630214,2.692204945493325,0.9231670197532306,23.385906819715228,-16.158474683979403,-12.983335936816049,45.41,1.0595240808105473,,10.4417058,63.4119249,20190511,155310,2019-05-11T15:53:10Z,116.561,0.88,1.52,8.53,8,4,12,0.02,-0.05,0.05,0,0,-9998,-757,4,4,10.44169939139231,63.41191690776792,30,949175,48,100,84,3542,3611,4357,4365,0,17422,20,212,5,0,false,false,false,false,false,false,true,false,false,false,5392,5513,4752,4972,51,62,61,51,1535,1551,1478,1501,1528,1539,1467,1494,0.0,0.0,0.0,0.0,1588.9,1584.6,1584.6,1588.9,4.24,3.87,3.64,3.34,0,0,0,0,-175.20825443257095,10.441705586676518,63.41192405885929,0,43.604755,42.25338,-0.026742073,0.01875674,-0.99257416,0.9931115,0.7528749,-1.3954655,-19.965519,20.028381,571,-37,1368,1482.0,0.032190032,-0.022654535,0.038054477,0.054750063,0.0393627518524294,-0.013878337899466943,-0.6860255805199766,-1.5769011467778575,-0.850971190292051,359.14902880970794,-7.169159728764834,31.603098302553278,-12.515839374424349,2.2147424201936023,0.85284958885768,7103785.113120937,4.367688261961334,7.542827009124686,45.45,NONE,0.0,0.0,0.0,NONE,-1.9939423858998476E-9,1.2754039915808711E-9,6.1035156E-4,2,51.48,52.86,42.62,47.85,16.025,16.025,5.698,7.623314,0,3030,4.008,12.0,7.392,84,22.9,OK,70,0,0,0,0,0,65,100,0.0,0,0.0,2.316142E-9,2.69E-43,0.0,1.4640026E-27,64,3.5762787E-7,-3.5762977E-7,6.662615E-34,False,False,0,None,1.1668552E30,1.0842106E-19,
291257098,25.263,10.441706701406998,63.41192541327678,12,43.02648,42.9706,-0.026440421,0.0013259649,-0.9814723,0.9818293,5.419334,11.853681,-19.640894,23.572096,551,141,1402,1512.0,0.055127427,0.046596542,-0.038347457,0.081736155,0.07218220767730958,0.017400928888999134,0.012986901001380816,-1.2616071804394755,-22.566378110976,337.433621889024,-47.65636558799924,24.387824295021417,-5.489681208315106,-15.138628621354423,1.0133276712242247,23.47967372234955,16.23962996811955,19.414768715282904,45.74,0.5657916284179692,,10.4417059,63.4119254,20190511,155311,2019-05-11T15:53:11Z,116.61,0.88,1.52,8.51,8,4,12,0.03,-0.01,0.0,0,0,-9998,0,4,4,10.44169939139231,63.41191690776792,30,949177,114,99,85,3542,3611,4357,4365,0,17422,20,3610,4,0,false,false,false,false,false,false,true,false,false,false,5158,5292,4705,4695,51,63,63,50,1507,1524,1463,1464,1507,1518,1443,1455,0.0,0.0,0.0,0.0,1595.7,1590.2,1589.5,1594.4,3.68,3.44,3.53,3.06,0,0,0,0,172.19100753970426,10.441706026324558,63.411924742818826,0,43.13483,42.277,-0.024589762,0.0014191354,-0.97390896,0.9742204,4.9823217,0.608963,-28.899776,29.33243,551,141,1402,1512.0,0.0366209,-0.018214865,-0.022543784,0.046702184,0.040900753583245304,0.03762422837475179,-0.163847799148856,-1.224876820771073,-24.975927308131688,335.0240726918683,-31.593784086153665,31.265242214769195,-12.18797226630662,-15.555826758843471,0.9316956929542818,7103785.1991345305,-56.62879006548912,-53.45365131832577,45.74,NONE,0.0,0.0,0.0,NONE,-1.2178391482756357E-9,1.9302398785472298E-9,-8.392334E-5,2,47.65,48.65,41.67,43.16,16.02,16.02,5.716,7.598112,0,3028,4.001,12.0,7.36,84,22.9,OK,71,0,0,0,0,0,65,100,0.0,0,0.0,3.6810661E-9,2.69E-43,0.0,1.4640026E-27,64,3.5762787E-7,-3.5762977E-7,7.289624E-34,False,False,0,None,1.4314069E30,1.0842106E-19,
295198577,26.287,10.441707008664986,63.41192550500947,12,43.12228,42.9306,-0.027199293,-0.010028867,-0.9865722,0.986998,1.8911437,1.8639224,-21.232124,21.397516,479,309,1386,1498.0,-0.002815045,0.093963206,0.042536687,0.10318129,0.0940053660637857,-0.07606129978635595,0.8078762913968167,-1.5104431526066562,-46.77680929743671,313.2231907025633,-71.72580007972344,25.539293514815427,-3.235359366084973,-33.20608706879869,1.0283925315688447,23.56351147864703,-9.867422545704825,-6.692283798541472,46.05,0.6615901208496098,,10.4417059,63.4119258,20190511,155312,2019-05-11T15:53:12Z,116.669,0.88,1.52,8.52,8,4,12,0.01,0.0,0.0,0,0,-9998,0,4,4,10.44169939139231,63.41191690776792,30,966692,181,99,86,3540,3613,4356,4365,0,17420,19,58118,5,0,false,false,false,false,false,false,true,false,false,false,5297,5294,4871,4835,52,64,63,50,1526,1534,1477,1478,1516,1531,1484,1469,0.0,0.0,0.0,0.0,1590.8,1585.8,1585.8,1590.8,4.27,3.63,3.56,3.1,0,0,0,0,177.86453655762335,10.441706484949705,63.41192496058276,0,43.238533,42.287838,-0.029727468,-0.012153536,-0.99179894,0.9923188,-4.5475116,2.9695265,-26.53547,27.085587,479,309,1386,1498.0,0.01523772,0.012080879,0.051448118,0.055000406,0.019445712567672312,0.013038678786381316,0.5662310726817636,-1.6246570722597302,-49.02742078867255,310.97257921132746,-54.51816150892514,33.87951141928919,-9.905079625712533,-33.90045367296299,0.9625121876980156,7103785.267944231,-148.68335241302637,-145.50821366586302,46.03,NONE,0.0,0.0,0.0,NONE,1.9930452112352485E-9,5.531034085738516E-10,1.7547607E-4,2,49.53,50.95,44.82,44.43,16.039,16.039,5.715,7.5287952,0,3024,4.006,12.0,7.013,84,23.0,OK,73,0,0,0,0,0,65,100,0.0,0,0.0,1.7985258E-9,2.69E-43,0.0,1.4640026E-27,64,3.5762787E-7,-3.5762977E-7,7.5485853E-34,False,False,0,None,1.5822808E30,1.0842106E-19,
299112064,27.304,10.441707569958236,63.41192580007701,12,43.20415,42.915115,-0.031580985,-0.0053183325,-0.9760089,0.9765342,2.5084522,5.1139483,-6.4720416,8.621608,324,404,1408,1500.0,-0.032614734,0.14476189,-0.008521484,0.14863493,0.14839044879277463,-0.10602392698472785,0.4303663426461174,-1.0031492509660822,-70.30865739283266,289.69134260716737,-96.11054605734041,25.663661298881095,-3.037543664474481,-52.74174054552854,1.069279357268326,23.632846346664017,60.73608193459701,63.91122068176036,46.37,0.7434611535644535,,10.4417059,63.4119259,20190511,155313,2019-05-11T15:53:13Z,116.716,0.88,1.52,8.56,8,4,12,0.01,-0.02,0.01,0,0,-7046,0,4,4,10.44169939139231,63.41191690776792,30,1153648,16,98,87,3520,3611,4297,4319,-1390,17117,19,0,16624,0,false,true,false,false,false,false,true,false,false,false,5189,5314,4777,4749,52,64,65,52,1516,1532,1473,1466,1515,1524,1455,1454,0.0,0.0,0.0,0.0,1592.0,1587.7,1587.7,1592.0,3.7,3.65,3.78,2.84,0,0,0,0,171.099663258863,10.441706735042015,63.41192530976592,0,43.17766,42.296616,-0.029140908,-0.013175722,-0.9853398,0.9858587,-0.70774335,-6.6092277,-18.949623,20.08161,335,404,1405,1499.0,0.034247633,0.022553738,0.009523243,0.04209826,0.041006967221162316,-9.18822741351466E-4,0.42962087908327046,-1.1597817286807415,-70.7729344955901,289.2270655044099,-78.0388959009078,32.707827531011425,-8.318831987017449,-52.087536542377684,1.0032022888079914,7103785.328146248,144.7543793531197,147.92951810028305,46.36,NONE,0.0,0.0,0.0,NONE,1.5282804917532746E-9,1.669483472718808E-9,1.0681152E-4,2,47.92,49.3,44.45,41.92,16.052,16.052,5.711,7.477788,0,3022,4.007,12.0,7.242,84,23.0,OK,74,0,0,0,0,0,65,100,0.0,0,0.0,2.2192808E-9,2.69E-43,0.0,1.4640026E-27,64,3.5762787E-7,-3.5762977E-7,7.990837E-34,False,False,0,None,1.7562887E30,1.0842106E-19,
302978641,28.309,10.441708079478968,63.41192600248771,12,43.38494,42.89656,-0.027966097,-0.0012464905,-0.9950202,0.99541396,0.4457716,-2.209258,-3.5521572,4.2068224,315,390,1408,1494.0,-0.0735338,0.17329493,0.0033471137,0.18828052,0.18825077704602344,-0.1545108152175113,-0.29855373719440054,-1.1165860494198088,-71.03023706706365,288.96976293293636,-97.13561682614119,25.756182595433945,-3.7025106549898505,-54.10731683277491,1.0998452853842642,23.69806464140147,85.55264078197717,88.72777952914053,46.64,0.9242511010742192,,10.4417063,63.4119263,20190511,155314,2019-05-11T15:53:14Z,116.782,0.88,1.52,8.65,8,4,12,0.05,0.01,0.0,0,0,0,0,4,4,10.44169939139231,63.41191690776792,30,1153648,20,98,88,3520,3611,4297,4319,-1390,17117,19,2,16624,0,false,true,false,false,false,false,true,false,false,false,5357,5290,4841,4794,51,63,63,51,1535,1523,1471,1477,1523,1511,1470,1471,0.0,0.0,0.0,0.0,1590.2,1586.4,1587.0,1590.8,4.44,3.35,3.19,2.96,0,0,0,0,-178.8678197248687,10.441707179439629,63.41192573841623,0,43.260593,42.302074,-0.028743915,-0.00857503,-0.9931584,0.9936113,0.24182536,-4.552663,0.16649184,4.56212,312,390,1408,1493.0,0.02299242,0.021715054,0.030755917,0.044114865,0.031625858513978554,0.02066264967104605,-0.42631001843649285,-1.2957612067310482,-72.64911951690935,287.35088048309063,-79.87670914313703,32.18872694391695,-7.375887714041892,-55.025138307855514,1.0556527603386863,7103785.405063053,-1.8877861347571274,1.2873526124062251,46.63,NONE,0.0,0.0,0.0,NONE,1.6790150274944263E-9,7.040958188783159E-10,1.296997E-4,2,50.59,51.36,43.67,41.67,16.036,16.036,5.703,7.4209914,1465,3020,4.004,12.0,7.215,84,23.0,OK,75,0,0,0,0,0,65,100,0.0,0,0.0,1.7187176E-9,2.69E-43,0.0,1.4640026E-27,64,3.5762787E-7,-3.5762977E-7,8.763137E-34,False,False,0,None,1.9812843E30,1.0842106E-19,
306849747,29.315,10.441708650268382,63.411926288893554,12,43.563236,42.86585,-0.037142023,0.016107362,-0.99349767,0.9943222,-5.8427196,-0.99930555,5.2315702,7.90603,347,381,1408,1499.0,-0.067283124,0.22090279,0.043368787,0.23495938,0.2309221882576989,-0.18850494559065523,-0.38415333720690803,-1.5009441837482107,-67.18936868878596,292.810631311214,-92.4061099389431,26.62620870301107,-8.290849086321344,-51.54451895556434,1.1403767359136416,23.786623010318653,59.32948292101182,62.50462166817517,46.98,1.102546236572266,,10.441707,63.4119264,20190511,155315,2019-05-11T15:53:15Z,116.827,0.88,1.52,8.72,8,4,12,-0.02,0.04,0.0,0,0,6704,0,4,4,10.44169939139231,63.41191690776792,30,1153648,20,98,88,3520,3611,4297,4319,-1390,17117,19,2,16624,0,false,true,false,false,false,false,true,false,false,false,5342,5210,4770,4954,52,65,64,51,1521,1524,1485,1491,1512,1524,1482,1478,0.0,0.0,0.0,0.0,1587.7,1584.0,1584.0,1588.3,4.05,3.32,3.52,3.44,0,0,0,0,-159.1110195025509,10.441707899121992,63.41192589356238,0,43.19596,42.30866,-0.03779158,0.015696451,-0.99580413,0.9966446,0.8455745,3.8057528,19.728615,20.11012,347,381,1408,1499.0,0.022130333,0.056239817,0.052120987,0.07980768,0.06043731097642518,-0.02092251650039735,-0.5595274810243661,-1.8625150313699474,-68.5616981170725,291.4383018829275,-77.69353780892703,30.154385902156793,-7.1492364106722865,-52.65657297159023,1.085185433666586,7103785.473195414,57.751216546568195,60.92635529373155,46.96,NONE,0.0,0.0,0.0,NONE,4.513362280662195E-9,3.897960117662689E-10,2.0980835E-4,2,51.13,50.0,43.05,45.28,16.029,16.029,5.705,7.4209914,1465,3020,4.004,12.0,7.215,84,23.0,OK,75,0,0,0,0,0,65,100,0.0,0,0.0,2.3781155E-10,2.69E-43,0.0,1.4640026E-27,64,3.5762787E-7,-3.5762977E-7,9.135063E-34,False,False,0,None,2.0896428E30,1.0842106E-19,
310793624,30.340,10.441710418149054,63.41192629394662,12,43.76535,42.873753,-0.023637049,0.017164852,-0.99734396,0.9977717,13.344776,-2.0723572,33.938915,36.52708,456,265,1405,1500.0,-0.09059209,0.15361439,0.0063519366,0.17845072,0.17833762445218884,-0.09249787209406671,-1.9878339055689689,-1.5863198607151372,-48.26840115609526,311.73159884390475,-75.1601049519626,26.50411893738006,-9.375046757683894,-36.92871874477281,1.179176605098913,23.885813093622442,91.79944802962358,94.97458677678694,47.26,1.3046603417968754,,10.4417093,63.4119266,20190511,155317,2019-05-11T15:53:17Z,116.885,0.88,1.52,8.77,8,4,12,0.01,0.09,0.0,0,0,9998,0,4,4,10.44169939139231,63.41191690776792,30,1153959,48,95,89,3407,3611,4272,4283,-1155,17109,22,212,17094,0,false,true,false,false,false,false,true,false,false,false,5370,5464,4788,5021,51,64,64,51,1542,1553,1462,1491,1532,1542,1456,1486,0.0,0.0,0.0,0.0,1587.0,1582.2,1582.2,1588.3,4.32,3.86,3.38,3.18,0,0,0,0,-172.277243877244,10.441709803901853,63.41192588359993,0,43.69923,42.288128,-0.024806827,0.012944843,-1.0026044,1.0029948,5.9341063,2.9414272,25.938486,26.770704,456,265,1405,1500.0,-0.0057772086,0.014490187,0.030569214,0.03431936,0.015599412381442506,0.07689193370377503,-2.0665433531684325,-1.877876605060863,-49.41325686004308,310.5867431399569,-56.70767233804537,31.48512420337846,-10.854500463040708,-37.57416001072881,1.124578791545042,7103785.582774147,98.40570300484701,101.58084175201037,47.25,NONE,0.0,0.0,0.0,NONE,1.738232170902402E-9,-2.5085086835520146E-10,1.6784668E-4,2,50.76,52.11,44.17,47.23,16.037,16.037,5.692,7.366128,1474,3018,4.001,12.0,7.094,84,23.1,OK,76,0,0,0,0,0,65,100,0.0,0,0.0,2.2327279E-13,2.69E-43,0.0,-3.3654391E38,63,3.5762787E-7,-3.5762977E-7,9.750787E-34,False,False,0,None,2.2689893E30,1.0842106E-19,
