Tick#,offsetTime,IMU_ATTI(0):Longitude,IMU_ATTI(0):Latitude,IMU_ATTI(0):numSats,IMU_ATTI(0):barometer:Raw,IMU_ATTI(0):barometer:Smooth,IMU_ATTI(0):accel:X,IMU_ATTI(0):accel:Y,IMU_ATTI(0):accel:Z,IMU_ATTI(0):accel:Composite,IMU_ATTI(0):gyro:X,IMU_ATTI(0):gyro:Y,IMU_ATTI(0):gyro:Z,IMU_ATTI(0):gyro:Composite,IMU_ATTI(0):mag:X,IMU_ATTI(0):mag:Y,IMU_ATTI(0):mag:Z,IMU_ATTI(0):mag:Mod,IMU_ATTI(0):velN,IMU_ATTI(0):velE,IMU_ATTI(0):velD,IMU_ATTI(0):velComposite,IMU_ATTI(0):velH,IMU_ATTI(0):GPS-H,IMU_ATTI(0):roll,IMU_ATTI(0):pitch,IMU_ATTI(0):yaw,IMU_ATTI(0):yaw360,IMU_ATTI(0):totalGyro:Z,IMU_ATTI(0):totalGyro:X,IMU_ATTI(0):totalGyro:Y,IMU_ATTI(0):magYaw,IMU_ATTI(0):distanceHP,IMU_ATTI(0):distanceTravelled,IMU_ATTI(0):directionOfTravel[mag],IMU_ATTI(0):directionOfTravel[true],IMU_ATTI(0):temperature,General:relativeHeight,General:absoluteHeight,GPS(0):Long,GPS(0):Lat,GPS(0):Date,GPS(0):Time,GPS:dateTimeStamp,GPS(0):heightMSL,GPS(0):hDOP,GPS(0):pDOP,GPS(0):sAcc,GPS(0):numGPS,GPS(0):numGLNAS,GPS(0):numSV,GPS(0):velN,GPS(0):velE,GPS(0):velD,RC:Aileron,RC:Elevator,RC:Rudder,RC:Throttle,Controller:navHealth,Controller:ctrl_level,HP:Longitude,HP:Latitude,HP:rthHeight,BatBlackBox:tick,BatBlackBox:id,BatBlackBox:rsoc,BatBlackBox:index,BatBlackBox:rm,BatBlackBox:fcc,BatBlackBox:cell_min,BatBlackBox:cell_max,BatBlackBox:current,BatBlackBox:voltage,BatBlackBox:temp,BatBlackBox:flag,BatBlackBox:reserve,BatBlackBox:user_data,OA:avoidObst,OA:emergBrake,OA:radiusLimit,OA:airportLimit,OA:groundForceLanding,OA:horizNearBoundary,OA:vertLowLimit,OA:vertAirportLimit,OA:roofLimit,OA:hitGroundLimit,Motor:Speed:RFront,Motor:Speed:LFront,Motor:Speed:LBack,Motor:Speed:RBack,Motor:EscTemp:RFront,Motor:EscTemp:LFront,Motor:EscTemp:LBack,Motor:EscTemp:RBack,Motor:PPMrecv:RFront,Motor:PPMrecv:LFront,Motor:PPMrecv:LBack,Motor:PPMrecv:RBack,Motor:PPMsend:RFront,Motor:PPMsend:LFront,Motor:PPMsend:LBack,Motor:PPMsend:RBack,Motor:V_out:RFront,Motor:V_out:LFront,Motor:V_out:LBack,Motor:V_out:RBack,Motor:Volts:RFront,Motor:Volts:LFront,Motor:Volts:LBack,Motor:Volts:RBack,Motor:Current:RFront,Motor:Current:LFront,Motor:Current:LBack,Motor:Current:RBack,Motor:Status:RFront,Motor:Status:LFront,Motor:Status:LBack,Motor:Status:RBack,Motor:thrustAngle,IMU_ATTI(1):Longitude,IMU_ATTI(1):Latitude,IMU_ATTI(1):numSats,IMU_ATTI(1):barometer:Raw,IMU_ATTI(1):barometer:Smooth,IMU_ATTI(1):accel:X,IMU_ATTI(1):accel:Y,IMU_ATTI(1):accel:Z,IMU_ATTI(1):accel:Composite,IMU_ATTI(1):gyro:X,IMU_ATTI(1):gyro:Y,IMU_ATTI(1):gyro:Z,IMU_ATTI(1):gyro:Composite,IMU_ATTI(1):mag:X,IMU_ATTI(1):mag:Y,IMU_ATTI(1):mag:Z,IMU_ATTI(1):mag:Mod,IMU_ATTI(1):velN,IMU_ATTI(1):velE,IMU_ATTI(1):velD,IMU_ATTI(1):velComposite,IMU_ATTI(1):velH,IMU_ATTI(1):GPS-H,IMU_ATTI(1):roll,IMU_ATTI(1):pitch,IMU_ATTI(1):yaw,IMU_ATTI(1):yaw360,IMU_ATTI(1):totalGyro:Z,IMU_ATTI(1):totalGyro:X,IMU_ATTI(1):totalGyro:Y,IMU_ATTI(1):magYaw,IMU_ATTI(1):distanceHP,IMU_ATTI(1):distanceTravelled,IMU_ATTI(1):directionOfTravel[mag],IMU_ATTI(1):directionOfTravel[true],IMU_ATTI(1):temperature,IMUEX(0):err,IMUEX(0):rtk_Longitude,IMUEX(0):rtk_Latitude,IMUEX(0):rtk_Alti,IMUEX(1):err,IMUEX(1):rtk_Longitude,IMUEX(1):rtk_Latitude,IMUEX(1):rtk_Alti,MotorCtrl:Status,MotorCtrl:PWM:RFront,MotorCtrl:PWM:LFront,MotorCtrl:PWM:LBack,MotorCtrl:PWM:RBack,BattInfo:Voltage,BattInfo:BatVoltage,BattInfo:AdVoltage,BattInfo:AvgCurrent,BattInfo:R_time,BattInfo:R_CAP_MAH,BattInfo:LowCellVoltage,BattInfo:LowCellVolThreshold,BattInfo:BatCurrent,BattInfo:Remaining%,BattInfo:Temp,BattInfo:status,battery_info:BatDynCnt,battery_info:Vol1Protect,battery_info:Vol2Protect,battery_info:Cap1Protect,battery_info:Cap2Protect,battery_info:Batpresent,battery_info:sopPercentage,battery_info:sopValue,battery_info:sopScale,battery_info:sopFlg,BattInfo:WindHeading:WindDir,battery_info:home_dir,BattInfo:Wind:rangeMin,BattInfo:Wind:rangeMax,battery_info:cap_speed,battery_info:against_wind,battery_info:emergency_land_cap,battery_info:intel_bat_land_cap,battery_info:intel_bat_gh_cap,BattInfo:Smart:SmartGh,BattInfo:Smart:SmartLand,BattInfo:GoHome:CntDown,BattInfo:GoHome:GhCmd,BattInfo:GoHome:CapLevel,BattInfo:GoHome:LandCapLv,Attribute|Value,ConvertDatV3,3.6.6-Tablet
360023445,.000,10.465289074457246,63.40471244187919,15,110.75019,110.97176,0.0903235,0.032433495,-0.985141,0.98980457,0.17214982,0.036359772,0.18017836,0.25183693,229,260,1441,1482.0,0.032404866,-0.035737604,-0.009887449,0.049244426,0.0482415973380126,-0.0482415973380126,-1.9236707351811748,5.140033088175486,-34.5247651372717,325.4752348627283,559.2677824953436,491.2643152176537,-32.90779584908271,-40.86025194369362,2.421707078496843,12.733720239522235,,,52.17,-1.7664332651367118,,10.4652888,63.4047127,20190425,161125,2019-04-25T16:11:25Z,157.957,0.69,1.3,7.8,8,7,15,0.01,0.0,0.0,-9997,-9144,9993,-9985,5,5,10.465252283432797,63.404698192868736,40,22171,20,94,44,3462,3726,4271,4287,-1386,17151,24,2,16512,0,false,false,false,false,false,false,false,false,false,false,0,0,0,0,49,61,61,48,944,944,943,944,940,940,940,940,0.0,0.0,0.0,0.0,1699.3,1692.6,1692.6,1698.1,0.0,0.0,0.0,0.0,0,0,0,0,-45.0,10.465289372205147,63.40471196552226,0,110.75019,111.318504,0.09010285,0.033078652,-0.9855338,0.9901967,0.15496528,0.024332289,0.04565006,0.16337143,232,260,1441,1482.0,0.0015144286,-9.237685E-4,-7.0602767E-4,0.0019092715,0.0017739341435954264,-0.0017739341435954264,-1.8673768730159959,4.9951664289110695,-39.35908805217811,320.6409119478219,558.9024373108763,495.8843133471403,-35.28131058822587,-40.77352712773892,2.3987776763781996,7103246.030172199,80.57999848983675,83.76613545749676,52.19,NONE,0.0,0.0,0.0,NONE,4.305570804051173E-11,-3.1590269061385814E-11,0.0,,,,,,17.073,17.073,6.101,1.2885123,0,3429,4.262,12.0,1.275,93,25.3,OK,88,0,0,0,0,0,65,100,0.0,0,0.0,8.2144764E-29,2.69E-43,0.0,-5.9807744E7,62,1.4648587E-4,-1.4648684E-4,7.8477145E-31,False,False,0,None,9.987948E31,1.0842106E-19,Firmware Date| Oct 17 2018
363877206,1.002,10.465289590256074,63.404712248845065,15,110.63524,110.952286,0.08724347,0.022445098,-0.9894857,0.99357796,0.15950203,0.4075088,0.8407481,0.9478194,235,260,1456,1497.0,0.03488587,-0.032220237,-0.0018968908,0.04752647,0.04748860227936495,-0.014074662792637888,-1.9260848179265102,5.130534482633048,-34.52766781085565,325.47233218914437,559.9629695846389,491.0984872731811,-32.89613213674138,-40.35484100046237,2.42730717443065,12.777078854406197,-0.9073063553500496,2.278830612309948,52.4,-1.304618352539066,,10.4652892,63.4047126,20190425,161126,2019-04-25T16:11:26Z,157.984,0.69,1.3,7.8,8,7,15,0.02,0.0,-0.01,0,0,0,0,5,5,10.465252283432797,63.404698192868736,40,22171,20,94,44,3462,3726,4271,4287,-1386,17151,24,2,16512,0,false,false,false,false,false,false,false,false,false,false,543,512,522,556,53,65,65,52,1350,1360,1356,1355,1342,1342,1342,1342,0.1,0.1,0.1,0.1,1673.5,1666.8,1666.8,1672.9,7.94,7.38,7.94,7.54,0,0,0,0,-70.51387042753424,10.465289982949741,63.40471183950363,0,110.63524,111.31485,0.090666346,0.032337133,-0.9860684,0.9907558,0.24451469,-0.4903665,-0.33036834,0.6398359,235,257,1456,1497.0,0.0031822827,0.005222553,0.0034377095,0.007015684,0.006115715827290878,0.027308514426779704,-1.8594046999511313,5.010741434568602,-39.35200150270072,320.6479984972993,558.745915711215,496.08332537967635,-35.26699687837814,-40.15180744658123,2.413421187468824,7103246.0849137455,74.77355324008911,77.9596902077491,52.42,NONE,0.0,0.0,0.0,NONE,4.867686974403794E-10,1.011959467082565E-10,1.5258789E-5,1,22.5,22.5,22.5,22.5,16.978,16.978,5.998,1.3254496,0,3428,4.262,12.0,3.145,93,25.3,OK,89,0,0,0,0,0,65,100,0.0,0,0.0,2.4534422E-29,2.69E-43,0.0,-5.9807744E7,62,1.4648587E-4,-1.4648684E-4,8.704063E-31,False,False,0,None,1.1583405E32,1.0842106E-19,ACType|MavicEnterprise
367776477,2.015,10.465290170994393,63.40471235870804,15,110.63524,110.95451,0.09225054,0.031797945,-0.9818886,0.9867251,3.0239031,1.2022732,2.8011696,4.2937164,235,265,1441,1483.0,0.045867868,-0.031531326,-0.004614356,0.055851392,0.05566045055047898,-0.024691033754890478,-1.9113940288327618,5.046034108431186,-34.7844669372507,325.2155330627493,565.2664214456208,493.7111345854722,-32.33976796338339,-40.99859438428328,2.457309452604727,12.809310066203581,61.9019899555263,65.0881269231863,52.82,-1.304618352539066,,10.4652896,63.4047126,20190425,161127,2019-04-25T16:11:27Z,158.036,0.69,1.3,7.79,8,7,15,-0.03,0.0,0.01,0,0,0,0,5,5,10.465252283432797,63.404698192868736,40,22171,20,94,44,3462,3726,4271,4287,-1386,17151,24,2,16512,0,false,false,false,false,false,false,false,false,false,false,2084,2086,2166,2152,52,65,66,53,1204,1209,1211,1210,1200,1201,1211,1209,0.0,0.0,0.0,0.0,1693.2,1686.4,1686.4,1692.0,0.54,0.27,0.84,0.3,0,0,0,0,6.170175095029606,10.465290258217925,63.40471187405139,0,110.63524,111.2543,0.08710779,0.035475977,-0.9905862,0.99504143,1.5995225,-2.9931638,-2.5819488,4.2642655,235,265,1441,1483.0,0.027394192,-0.0023049018,0.04229699,0.050445907,0.02749098578555963,-0.013447964025505667,-1.8506171373263804,4.956632740647885,-39.59698390214185,320.40301609785814,558.7678711761962,495.84121386243504,-35.15174209508153,-41.031671598388016,2.426498605234708,7103246.124751376,83.69197607265826,86.87811304031825,52.78,NONE,0.0,0.0,0.0,NONE,2.6909817599834815E-11,8.529372698637424E-10,1.5258789E-4,2,10.0,10.22,11.42,11.3,16.936,16.936,6.078,1.4644016,0,3427,4.262,12.0,3.476,93,25.3,OK,90,0,0,0,0,0,65,100,0.0,0,0.0,2.2793766E-29,2.69E-43,0.0,-5.9807744E7,62,1.4648587E-4,-1.4648684E-4,8.94023E-31,False,False,0,None,1.2003067E32,1.0842106E-19,dateTime|2015-10-18 0:0:7 GMT
371652821,3.022,10.465290573459466,63.4047123481313,15,110.63524,110.95222,0.0911062,0.03814197,-0.9840695,0.9890136,0.24632746,3.8673158,1.2737105,4.079111,235,265,1438,1480.0,0.05427639,-0.04055497,-0.009612064,0.06843262,0.06775420229251392,-0.04783315743420947,-1.9362678277954417,5.06169251498773,-34.79663289759126,325.2033671024087,564.5615284866274,494.36002176090324,-32.502589299496414,-41.03723451051746,2.471971127653366,12.83422579474542,103.07728432778993,106.26342129544993,53.07,-1.304618352539066,,10.4652901,63.4047125,20190425,161128,2019-04-25T16:11:28Z,158.029,0.69,1.3,7.77,8,7,15,-0.01,0.01,0.01,0,0,0,0,5,5,10.465252283432797,63.404698192868736,40,22171,20,94,44,3462,3726,4271,4287,-1386,17151,24,2,16512,0,false,false,false,false,false,false,false,false,false,false,2076,2085,2170,2144,53,67,67,53,1203,1208,1216,1209,1200,1201,1206,1205,0.0,0.0,0.0,0.0,1693.2,1687.0,1687.6,1692.0,0.62,0.28,0.84,0.34,0,0,0,0,12.885169399703273,10.465290760993291,63.40471190173819,0,110.63524,111.125084,0.0864587,0.03321669,-0.9917576,0.99607307,0.24397732,-2.7878695,-2.704908,3.8920774,235,265,1441,1483.0,0.059682157,-0.011104062,0.088615134,0.107414626,0.060706341997596495,-0.03567570741116481,-1.784331052346362,4.930456272553211,-39.662697233986094,320.3373027660139,558.4739279256455,496.64701179958064,-35.477541179187234,-40.92888793010199,2.447963522090012,7103246.150230195,66.28394611697286,69.47008308463285,53.06,NONE,0.0,0.0,0.0,NONE,-1.1427702796720043E-9,2.4983084664941098E-9,4.196167E-4,2,10.0,10.29,11.36,11.21,17.012,17.012,6.08,1.6763965,0,3426,4.205,12.0,1.879,93,25.4,OK,91,0,0,0,0,0,65,100,0.0,0,0.0,1.3978785E-29,2.69E-43,0.0,-5.9807744E7,62,1.4648587E-4,-1.4648684E-4,9.412323E-31,False,False,0,None,1.2842638E32,1.0842106E-19,geoDeclination|319 degrees
375689001,4.071,10.46529094441995,63.404712001486054,15,110.63524,110.950645,0.09058638,0.03803774,-0.9870468,0.9919244,-1.693191,1.4988767,-1.515587,2.722229,235,265,1441,1483.0,0.068752214,-0.04284483,-0.013060918,0.08205567,0.0810095448773647,-0.04026498145105335,-1.9284022724199463,5.05956813879352,-34.85731146767136,325.14268853232863,564.7811756728224,494.26614994833824,-32.163735749886506,-41.01159035546302,2.462016688846557,12.883439694238433,77.44460258960723,80.63073955726722,53.39,-1.304618352539066,,10.4652904,63.4047124,20190425,161129,2019-04-25T16:11:29Z,158.009,0.69,1.3,7.74,8,7,15,0.0,0.0,0.0,0,0,0,0,5,5,10.465252283432797,63.404698192868736,40,22171,20,94,44,3462,3726,4271,4287,-1386,17151,24,2,16512,0,false,false,false,false,false,false,false,false,false,false,2089,2086,2170,2151,53,67,66,54,1204,1208,1214,1209,1200,1200,1207,1208,0.0,0.0,0.0,0.0,1693.8,1687.6,1687.0,1692.6,0.62,0.27,0.9,0.3,0,0,0,0,6.2540327439164685,10.46529101043362,63.40471164840683,0,110.63524,110.95395,0.08668688,0.028043896,-0.9878078,0.9920007,-0.62794584,-0.45050433,1.6759061,1.8455166,235,265,1444,1486.0,0.10405656,-0.004250406,0.12920885,0.16595408,0.10414333131797918,-0.0747963347597144,-1.7072790688831911,4.911085958348929,-39.6923446943004,320.3076553056996,558.2461202124911,497.1509718635816,-35.43318835781088,-40.77483445347237,2.4403200691542177,7103246.210338488,90.9252556698656,94.11139263752561,53.4,NONE,0.0,0.0,0.0,NONE,-5.812520800279485E-10,3.89256385105498E-9,5.874634E-4,2,10.0,10.3,11.04,10.65,17.022,17.022,6.08,1.8606079,0,3426,4.243,12.0,1.874,93,25.4,OK,92,0,0,0,0,0,65,100,0.0,0,0.0,4.8874324E-30,2.69E-43,0.0,-5.9807744E7,62,1.4648587E-4,-1.4648684E-4,9.401009E-31,False,False,0,None,1.2822335E32,1.0842106E-19,geoInclination|7478 degrees
379592419,5.086,10.465290935799304,63.40471205234805,15,110.63524,110.95173,0.08471506,0.037357114,-0.9882832,0.99261063,-0.8123827,-1.3503762,-4.5285883,4.7949553,237,268,1438,1481.0,0.008310972,-0.013993789,-0.015518458,0.02248824,0.016275699929782346,-0.010684806027024122,-1.9137105629759685,5.0185717453966,-34.87432731706831,325.1256726829317,564.1531560049766,494.97188738011045,-32.475128750522956,-41.183049755856544,2.4652128276406224,12.911409049720318,141.54037981453232,144.7265167821923,53.69,-1.304618352539066,,10.4652905,63.4047124,20190425,161130,2019-04-25T16:11:30Z,157.988,0.69,1.3,7.72,8,7,15,0.0,0.0,0.0,0,0,0,0,5,5,10.465252283432797,63.404698192868736,40,22171,20,94,44,3462,3726,4271,4287,-1386,17151,24,2,16512,0,false,false,false,false,false,false,false,false,false,false,3336,3459,3504,3419,53,66,66,53,1299,1313,1309,1306,1292,1297,1304,1297,0.0,0.0,0.0,0.0,1687.6,1683.4,1684.0,1687.0,1.1,0.74,1.26,0.68,0,0,0,0,58.392497753751115,10.465291136392233,63.404711685737176,0,110.63524,111.04804,0.08047258,0.027403995,-0.9914331,0.99507105,-2.8359394,-1.5269214,2.6994977,4.202538,237,268,1441,1484.0,0.027751103,0.005593442,-0.009462433,0.029848753,0.028309191995078798,-0.020896785114919394,-1.6704815318557755,4.861564781299044,-39.6907891321843,320.3092108678157,558.7028369926995,497.53615250742126,-35.621346793387495,-40.91541008632685,2.4478186132117163,7103246.270126338,64.78358336800136,67.96972033566135,53.71,NONE,0.0,0.0,0.0,NONE,2.188665229354988E-10,1.189721708701871E-9,-3.8146973E-5,2,22.46,22.51,22.93,22.97,17.003,17.003,6.036,1.9891868,0,3425,4.249,12.0,2.335,93,25.4,OK,93,0,0,0,0,0,65,100,0.0,0,0.0,4.7747655E-30,2.69E-43,0.0,-5.9807744E7,62,1.4648587E-4,-1.4648684E-4,9.468657E-31,False,False,0,None,1.2942663E32,1.0842106E-19,geoIntensity|5185038 nanoTesla
383445954,6.087,10.46529080240652,63.40471211180173,15,110.63524,110.96113,-0.11526879,0.13562599,-1.0020578,1.0177432,11.285597,51.22798,8.930968,53.211212,485,280,1389,1497.0,0.010757184,-0.10933183,0.068159945,0.12928629,0.10985975895639448,-0.10050384827770076,-1.8640706582006823,-1.4343910628022254,-32.590307316537256,327.40969268346277,564.7230553282543,496.82687534780956,-39.970808330367944,-35.82087182830512,0.04182363476593105,12.938883516479848,-145.811280269655,-142.625143301995,54.02,-1.304618352539066,,10.4652905,63.4047123,20190425,161131,2019-04-25T16:11:31Z,157.974,0.69,1.3,7.71,8,7,15,-0.06,-0.07,-0.01,0,0,0,0,5,5,10.46529103108221,63.404711749872995,40,22171,20,94,44,3462,3726,4271,4287,-1386,17151,24,2,16512,0,false,false,false,false,false,false,true,false,false,false,3485,4515,4047,4456,51,65,65,52,1256,1531,1336,1417,1264,1361,1347,1553,0.0,0.0,0.0,0.0,1668.0,1658.2,1659.4,1666.2,1.18,3.49,4.31,5.57,0,0,0,0,50.99308456678364,10.465290877037125,63.40471175368682,0,110.63524,111.0528,-0.12621514,0.1519089,-1.039769,1.0583602,-2.4555144,50.144188,15.529739,52.551327,490,283,1386,1497.0,-0.0021136368,-0.09965955,0.060258187,0.11647979,0.09968195869925287,-0.08474544953887421,-1.725296186619863,-2.3588968814900486,-37.558650585435494,322.4413494145645,559.6402178459881,497.6277144946005,-42.59244725090921,-36.86264907199726,0.007680137391632921,7103246.31749926,-92.36435987986786,-89.17822291220787,54.03,NONE,0.0,0.0,0.0,NONE,-8.025105859740746E-10,-3.9246895255422254E-10,1.5258789E-5,2,19.5,55.59,26.37,30.76,16.954,16.954,6.003,2.1265037,0,3425,4.249,12.0,4.144,93,25.4,OK,94,0,0,0,0,0,65,100,0.0,0,0.0,-2.337792E8,8.8E-44,0.0,-5.9807744E7,62,1.4648587E-4,-1.4648684E-4,2.052329E-32,False,False,0,None,1.6257634E29,1.0842106E-19,mcID(SN)|298DG13001W644
387301736,7.090,10.465289885427106,63.40471208596321,15,110.86183,111.18952,0.008285751,-0.021962866,-1.0745182,1.0747746,8.891524,-4.86795,3.3065479,10.662523,361,309,1420,1497.0,0.016117563,-0.11085205,-0.70956147,0.7183491,0.11201764201672126,-0.06637561579139892,0.5510824263390057,1.1416781065479484,-32.6655785000206,327.3344214999794,563.962764220372,501.32680754387223,-33.13243456562482,-37.18589298405189,0.06818489842592974,13.026209670302094,-102.89938030362666,-99.71324333596667,54.25,-1.078025334960941,,10.4652893,63.4047122,20190425,161132,2019-04-25T16:11:32Z,158.196,0.69,1.3,7.7,8,7,15,-0.12,-0.15,-0.3,0,0,0,4987,5,5,10.46529103108221,63.404711749872995,40,22171,20,94,44,3462,3726,4271,4287,-1386,17151,24,2,16512,0,false,false,false,false,false,false,true,false,false,false,5969,6136,4996,4893,51,65,65,52,1567,1592,1471,1466,1556,1579,1475,1457,0.0,0.0,0.0,0.0,1650.8,1643.5,1644.1,1650.2,5.02,4.86,3.69,2.9,0,0,0,0,173.05325642021603,10.465289895974157,63.404711566415074,0,111.02037,111.308556,0.011405363,-0.017785192,-1.0690609,1.0692697,10.370295,0.8308848,2.3235745,10.659849,361,303,1417,1493.0,-0.0047102314,-0.08671189,-0.74342686,0.7484815,0.08683972984060429,-0.03385917695891529,0.5671694754938205,1.1348223813627631,-37.42622964404158,322.5737703559584,560.5291149459523,502.1851996568351,-36.205930225681996,-36.6022531161597,0.06007563157952266,7103246.4165204,-112.04881709182862,-108.86268012416863,54.24,NONE,0.0,0.0,0.0,NONE,-7.250102839747415E-9,7.769064578790179E-10,-0.003227234,2,54.28,57.35,44.61,41.06,16.863,16.863,5.925,2.3975313,0,3423,4.233,12.0,6.993,93,25.4,OK,95,0,0,0,0,0,65,100,0.0,0,0.0,-1.5428469E-21,8.8E-44,0.0,-3.3654391E38,62,1.4648587E-4,-1.4648684E-4,2.1986545E-32,False,False,0,None,1.9509645E29,1.0842106E-19,mcVer|v3.4.1.6
391188738,8.100,10.4652887113161,63.40471098591754,15,111.64896,111.581024,0.007099079,-0.026885174,-0.95400286,0.954408,-2.434847,-2.9315672,-1.6952293,4.1708956,381,358,1405,1499.0,-0.023973115,-0.03581489,0.129453,0.13643862,0.04309775483092387,0.09109770019182103,2.20084168738935,0.09725979646902996,-32.66251285169986,327.33748714830017,560.5627613682603,500.84479226576485,-35.79849031980307,-38.3905047039894,0.1433579814270815,13.169168088698196,170.32141969585916,173.50755666351915,54.59,-0.2909007011718785,,10.4652883,63.4047113,20190425,161133,2019-04-25T16:11:33Z,158.754,0.69,1.3,7.69,8,7,15,-0.04,0.01,-0.36,0,0,0,0,5,5,10.46529103108221,63.404711749872995,40,22171,20,94,44,3462,3726,4271,4287,-1386,17151,24,2,16512,0,false,false,false,false,false,false,true,false,false,false,5609,5770,4691,4578,52,65,64,51,1540,1563,1445,1436,1532,1549,1434,1437,0.0,0.0,0.0,0.0,1653.9,1648.4,1648.4,1653.9,4.46,4.67,3.6,2.35,0,0,0,0,172.60109895163168,10.465288719076094,63.40471033073414,0,111.4427,111.801384,0.004918566,-0.02149612,-0.9819607,0.9822083,-13.082577,5.431449,-8.97244,16.7678,390,358,1408,1504.0,-0.053282525,-0.003567387,0.0663662,0.08518349,0.0534018139061235,0.09445831603762267,2.067954670456896,-0.11250280741510595,-37.43111676513449,322.5688832348655,563.4352746295384,505.66105113412556,-38.1674702843915,-38.40543463437638,0.19531373049455064,7103246.596742116,-110.45832504045524,-107.27218807279525,54.6,NONE,0.0,0.0,0.0,NONE,-7.881585512190671E-10,-4.808145669861858E-9,6.1035156E-4,2,51.59,54.5,39.62,39.52,16.671,16.671,5.945,2.3975313,0,3423,4.197,12.0,6.993,93,25.4,OK,95,0,0,0,0,0,65,100,0.0,0,0.0,6.605362E-30,8.8E-44,0.0,-3.3654391E38,62,2.3719668E-4,-1.9184225E-4,3.035842E-32,False,False,0,None,3.1857613E29,1.4324205E-19,
395040787,9.101,10.465288856393641,63.404710646902366,15,111.63892,111.68753,-0.0016625903,-0.021782491,-1.0573231,1.0575488,-7.128489,3.4487135,-0.04819083,7.9190474,404,346,1402,1499.0,0.054908175,0.0054154415,-0.27526367,0.2807389,0.05517458492433722,-0.016835582979870894,1.4544685597991684,-0.5053769389529689,-32.622808918955364,327.37719108104466,560.0431412108613,499.71722920412134,-33.73950181734803,-38.39710133935134,0.16358870298454103,13.257582009558275,26.221591066042105,29.407728033702103,54.89,-0.30093335498047225,,10.4652884,63.4047109,20190425,161134,2019-04-25T16:11:34Z,158.82,0.69,1.3,7.67,8,7,15,-0.01,0.04,-0.16,0,0,0,2812,5,5,10.46529103108221,63.404711749872995,40,22171,20,94,44,3462,3726,4271,4287,-1386,17151,24,2,16512,0,false,false,false,false,false,false,true,false,false,false,5883,6053,4958,4890,53,66,66,52,1561,1588,1472,1465,1554,1582,1465,1454,0.0,0.0,0.0,0.0,1646.6,1640.5,1641.1,1645.9,4.88,4.78,3.94,3.02,0,0,0,0,173.49722476541916,10.465288842657111,63.40471018410918,0,111.65214,111.87842,-5.0999154E-4,-0.024069976,-1.0594783,1.0597517,5.641225,2.786944,5.8874636,8.617001,404,346,1402,1499.0,0.006618753,0.040358078,-0.27444544,0.27747592,0.04089721691756804,-0.023490910248169267,1.6337332690396782,-0.511701592398739,-37.37853655403409,322.6214634459659,565.5817279788661,508.13639877987964,-36.064160220815246,-38.00986839486947,0.20537916684200763,7103246.666975304,-4.525942107572477,-1.3398051399124788,54.89,NONE,0.0,0.0,0.0,NONE,3.5281755615212565E-9,-7.683395329552403E-10,-7.9345703E-4,2,53.32,56.58,42.56,41.03,16.731,16.731,5.932,2.8816607,0,3421,4.156,12.0,6.911,93,25.4,OK,96,0,0,0,0,0,65,100,0.0,0,0.0,5.304418E-35,8.8E-44,0.0,-3.3654391E38,62,2.445802E-4,-1.9542225E-4,3.2918553E-32,False,False,0,None,3.7546335E29,1.459916E-19,
399079959,10.151,10.465288882006814,63.40471081565395,15,111.84097,112.100075,0.004588859,-0.015818628,-0.9955173,0.99565357,-8.372834,5.6735897,-7.9496264,12.864312,378,341,1408,1497.0,0.068638586,-0.013647237,-0.417447,0.42327237,0.06998215998831915,-0.05206612182397912,1.4493179237701084,0.5638049984223058,-32.78072070324099,327.219279296759,562.1831255434747,502.0296470469585,-34.7922318305254,-37.916361028342514,0.14911819802523832,13.296367996091508,-5.626945282329572,-2.4408083146695745,55.2,-0.0988840996093785,,10.4652888,63.4047111,20190425,161135,2019-04-25T16:11:35Z,159.223,0.69,1.3,7.64,8,7,15,0.03,0.03,-0.35,0,0,0,3137,5,5,10.46529103108221,63.404711749872995,40,22171,20,94,44,3462,3726,4271,4287,-1386,17151,24,2,16512,0,false,false,false,false,false,false,true,false,false,false,5739,5831,4822,4677,51,66,68,52,1538,1560,1459,1444,1535,1552,1454,1434,0.0,0.0,0.0,0.0,1650.2,1643.5,1645.3,1649.6,4.5,4.36,3.66,2.68,0,0,0,0,173.47161554615283,10.465289064022894,63.40471031810027,0,112.03122,112.2556,0.00603594,-0.021234214,-0.99172884,0.99197453,2.721906,3.201282,1.6748147,4.5234923,378,341,1411,1500.0,0.032653537,0.0066008214,-0.40144262,0.40282255,0.033314025320403874,-0.015660970459436714,1.5962480307311253,0.5122199993765052,-37.49216618941355,322.5078338105865,564.0756046592512,505.5601782309066,-34.919678757442504,-37.664320030102864,0.18690910838442615,7103246.713102272,136.81291987157604,139.99905683923603,55.23,NONE,0.0,0.0,0.0,NONE,1.1864237132145956E-9,2.80671468150103E-9,-0.004058838,2,52.11,53.24,41.58,40.14,16.661,16.661,5.932,3.533582,0,3419,4.173,12.0,7.712,93,25.4,OK,97,0,0,0,0,0,65,100,0.0,0,0.0,8.848061E-28,8.8E-44,0.0,-3.3654391E38,62,3.7740916E-4,-2.2862949E-4,3.4503683E-32,False,False,0,None,4.1070595E29,1.7148531E-19,
402948795,11.156,10.465288952756394,63.404711110728,15,112.37402,112.48645,0.0029275373,-0.02069646,-1.1316223,1.1318153,-7.7008624,-8.044447,-3.03961,11.543641,378,326,1411,1496.0,0.035748925,-0.007025376,-0.28678894,0.28909382,0.03643269875886143,-0.0036137575626581514,0.9691012578740779,0.4029886485734193,-32.67680021563123,327.32319978436874,562.0135414369006,500.9712188181022,-35.380346196685565,-37.90701758862658,0.12551825582499723,13.354958546820434,-37.106213829762915,-33.92007686210292,55.5,0.4341664374999965,,10.4652888,63.4047112,20190425,161136,2019-04-25T16:11:36Z,159.67,0.69,1.3,7.61,8,7,15,-0.05,0.01,-0.39,0,0,0,2146,5,5,10.46529103108221,63.404711749872995,40,22171,20,94,44,3462,3726,4271,4287,-1386,17151,24,2,16512,0,false,false,false,false,false,false,true,false,false,false,6168,6200,5104,5063,52,66,66,51,1624,1634,1512,1519,1617,1639,1512,1504,0.0,0.0,0.0,0.0,1625.7,1621.4,1623.2,1626.4,6.54,6.5,5.26,4.28,0,0,0,0,178.100381984032,10.465289265944408,63.40471075893844,0,112.20492,112.61354,0.002359391,-0.020201758,-1.0876886,1.0878787,12.059022,-0.12172464,12.249908,17.18997,381,326,1411,1497.0,0.014835267,0.020862328,-0.24303296,0.24437746,0.025599255262588605,0.02416632435572648,1.1230564400311447,0.47097439322620727,-37.40489419196673,322.5951058080333,564.0861694482754,505.0223930456274,-34.97214039907659,-37.22363007651318,0.14093313349917772,7103246.800673073,22.871365757146243,26.05750272480624,55.49,NONE,0.0,0.0,0.0,NONE,4.164442761994583E-9,2.0887053515061893E-9,-0.0038986206,2,60.62,63.5,48.16,46.61,16.633,16.633,5.939,4.2731404,0,3417,4.154,12.0,7.805,93,25.4,OK,98,0,0,0,0,0,65,100,0.0,0,0.0,6.0903973E-15,8.8E-44,0.0,-3.3654391E38,62,5.415529E-4,-2.8187232E-4,3.6103108E-32,False,False,0,None,4.4624837E29,1.9787899E-19,
406871090,12.175,10.465289197134021,63.40471078096809,15,112.8654,113.08625,5.9360685E-4,-0.019494388,-0.79785085,0.7980892,0.37853777,-4.7763653,-0.76911354,4.852679,390,329,1408,1497.0,3.42465E-4,-0.017678238,-0.26840892,0.26899067,0.01768155514084287,0.020216696741658883,1.1795386577710836,-0.025056976254863694,-32.72444365156246,327.27555634843753,561.7195875795762,499.9114404728238,-39.10432440476583,-37.60757732636559,0.14121626386620567,13.426829006784526,-169.1651800514115,-165.97904308375152,55.85,0.925545221679684,,10.4652888,63.4047111,20190425,161137,2019-04-25T16:11:37Z,160.258,0.69,1.3,7.6,8,7,15,0.0,-0.06,-0.55,0,0,0,1145,5,5,10.46529103108221,63.404711749872995,40,22171,20,94,44,3462,3726,4271,4287,-1386,17151,24,2,16512,0,false,false,false,false,false,false,true,false,false,false,5209,5288,4402,4266,53,66,67,53,1506,1527,1433,1420,1505,1532,1435,1416,0.0,0.0,0.0,0.0,1649.0,1644.1,1643.5,1649.0,4.49,4.32,3.58,2.76,0,0,0,0,173.29561595175264,10.465289632935564,63.40471021098507,0,112.86012,113.19898,0.0018483587,-0.01840254,-0.77923775,0.7794572,1.7169305,2.259696,2.7265532,3.935501,390,326,1411,1499.0,-0.03163344,0.008828089,-0.26105273,0.2631105,0.03284219429928111,0.029557618808808035,1.270440227081537,0.06156189937102415,-37.44077424941298,322.559225750587,565.7334785930296,506.37983858724107,-37.09115887781584,-36.96282314525246,0.18472969805033784,7103246.90621064,128.56205083099786,131.74818779865785,55.82,NONE,0.0,0.0,0.0,NONE,8.515459234446769E-10,-1.408711414384416E-9,-0.0015106201,2,48.16,50.22,38.21,36.39,16.713,16.713,5.954,5.6991024,0,3411,4.161,12.0,7.272,93,25.5,OK,100,0,0,0,0,0,65,100,0.0,0,0.0,-0.45381927,8.7E-44,0.0,-3.3654391E38,62,0.0010281503,-3.970732E-4,4.3782754E-32,False,False,0,None,6.169197E29,2.673597E-19,
410725309,13.177,10.465289201501752,63.404710492312546,17,112.88327,113.10695,-0.0025061397,-0.018660285,-1.0054057,1.005582,-10.48517,-4.7962327,-9.68067,15.055166,401,341,1402,1497.0,0.03285457,-0.0033691144,-0.036803827,0.049449928,0.033026862008423745,-9.833839117209878E-4,1.4711803075393994,-0.38110145391641986,-32.79573408901405,327.20426591098595,561.2318186816125,500.18904684465787,-38.8994781383256,-37.90290502512432,0.16687928508734154,13.483612886572546,175.59748372202117,178.78362068968116,56.15,0.9434132636718715,,10.4652886,63.4047106,20190425,161138,2019-04-25T16:11:38Z,160.355,0.63,1.18,7.55,8,9,17,0.02,0.03,-0.14,2767,0,0,0,5,5,10.46529103108221,63.404711749872995,40,22171,20,94,44,3462,3726,4271,4287,-1386,17151,24,2,16512,0,false,false,false,false,false,false,true,false,false,false,5733,5768,4837,4713,52,66,65,53,1546,1561,1469,1442,1544,1541,1447,1447,0.0,0.0,0.0,0.0,1647.2,1641.7,1641.1,1647.2,4.4,4.18,3.64,2.5,0,0,0,0,175.34088148546482,10.465289158775901,63.40470981181446,0,112.93083,113.18434,-0.002563093,-0.019512974,-1.0039626,1.0041555,7.2258244,-5.4857397,7.1192746,11.532126,401,341,1402,1497.0,-0.007671564,0.016396182,0.023859985,0.029949734,0.018102144964504744,0.03208444603544834,1.5986669267839309,-0.29943510835500187,-37.45498932520774,322.54501067479225,564.6103263247091,505.8098626495905,-38.95689371825681,-37.474153598862195,0.23479402300271246,7103247.00577411,-143.69102490544293,-140.50488793778294,56.13,NONE,0.0,0.0,0.0,NONE,5.824478375052051E-10,-1.626630663431003E-9,3.2806396E-4,2,51.4,55.48,43.07,37.53,16.708,16.708,5.912,5.6991024,0,3411,4.161,12.0,7.272,93,25.5,OK,100,0,0,0,0,0,65,100,0.0,0,0.0,-8.1885594E8,8.7E-44,0.0,-3.3654391E38,62,9.797215E-4,-3.9102332E-4,4.6104402E-32,False,False,0,None,7.032273E29,2.6271424E-19,
414624433,14.191,10.465293712841072,63.40471180056782,17,113.05097,113.13138,-0.0060320403,-0.008588647,-1.0326002,1.0326535,11.910688,-3.4823735,-7.1438293,14.31872,418,-48,1417,1478.0,-0.04234527,-0.1182142,-0.041227996,0.13216455,0.1255695806978122,0.13847640930197247,-14.092825447395324,-0.3342366080432773,-33.51745112435094,326.48254887564906,560.8471659539338,487.902876918158,-41.46168174356357,-36.06032292819586,0.13361788672089328,13.795278126831091,-127.02137702495381,-123.83524005729382,56.41,1.1111149848632778,,10.4652925,63.404712,20190425,161139,2019-04-25T16:11:39Z,160.373,0.63,1.18,7.5,8,9,17,0.36,0.41,-0.03,-3426,0,0,0,5,5,10.46529103108221,63.404711749872995,40,22171,20,94,44,3462,3726,4271,4287,-1386,17151,24,2,16512,0,false,false,false,false,false,false,true,false,false,false,5568,5999,4872,4736,53,67,68,53,1545,1586,1454,1445,1541,1566,1443,1445,0.0,0.0,0.0,0.0,1645.9,1639.8,1639.8,1644.1,4.48,4.9,3.72,2.36,0,0,0,0,163.8577917287518,10.465293660052229,63.40471128212197,0,113.23329,113.202736,-0.005740583,-0.011147314,-1.0300652,1.0301415,-0.33744133,-6.0131364,-0.22258072,6.0267086,416,-34,1417,1477.0,-0.027577568,-0.020967908,-0.008724845,0.035725318,0.034643547429090066,0.23907684733330883,-13.946712003760837,-0.2255110810479856,-36.98152041103638,323.0184795889636,565.8767269332197,493.41449682405886,-40.694622521564696,-36.924603318028986,0.14082769728015868,7103247.305182234,73.44258850772744,76.62872547538743,56.42,NONE,0.0,0.0,0.0,NONE,2.0117175156546717E-8,6.465830111972865E-9,-7.6293945E-5,2,51.43,58.09,43.79,38.47,16.616,16.616,5.91,6.2669425,0,3409,4.152,12.0,7.47,93,25.5,OK,101,0,0,0,0,0,65,100,0.0,0,0.0,-1.26452005E-23,2.68E-43,0.0,-3.3654391E38,62,0.0010097325,-3.9477096E-4,4.1106012E-32,False,False,0,None,5.5744053E29,2.6559283E-19,
418510295,15.200,10.465282281257434,63.404713969478536,17,113.189804,113.14829,-0.018306017,-0.008784527,-1.0328362,1.0330358,10.164974,-1.4431812,11.542454,15.447903,783,352,1256,1521.0,1.1798122,-1.3588419,-0.020827089,1.7996782,1.79955774808259,-1.187563944794398,1.3452101751411727,-16.438999401119577,-36.04312628666183,323.95687371333815,557.4873022379346,502.563400041487,-60.68782621473804,-39.343227710776006,0.5006349477912734,14.493711821143492,-53.2745822043448,-50.088445236684805,56.75,1.249947077148434,,10.4652833,63.4047133,20190425,161140,2019-04-25T16:11:40Z,160.334,0.63,1.18,7.46,8,9,17,0.73,-0.95,0.01,0,9937,0,0,5,5,10.46529103108221,63.404711749872995,40,22171,20,94,44,3462,3726,4271,4287,-1386,17151,24,2,16512,0,false,false,false,false,false,false,true,false,false,false,5663,5753,5035,4954,53,68,69,53,1539,1559,1472,1474,1532,1549,1476,1465,0.0,0.0,0.0,0.0,1643.5,1638.0,1638.6,1642.9,4.39,4.16,3.74,3.03,0,0,0,0,173.16672627439038,10.46528282935106,63.404713234264385,0,112.73268,113.2039,-0.01851287,-0.004939541,-1.0303196,1.0304977,-0.2086405,8.27331,-0.95331043,8.330666,786,352,1253,1520.0,1.1183378,-1.1997453,0.003530588,1.6401465,1.6401427513890618,-1.0646380792885703,1.3726683626723217,-15.889562887597378,-37.56227746635092,322.4377225336491,566.4542094581528,513.650372930214,-61.33947506262038,-38.08687566209713,0.4403867610020475,7103247.951396736,-51.764657010991606,-48.57852004333161,56.78,NONE,0.0,0.0,0.0,NONE,-7.327959518767736E-8,1.923418473757598E-8,-3.0517578E-5,2,52.09,53.6,43.14,43.06,16.597,16.597,5.897,6.72721,0,3407,4.144,12.0,7.64,93,25.5,OK,102,0,0,0,0,0,65,100,0.0,0,0.0,-2.1719925E34,8.8E-44,0.0,-3.3654391E38,62,0.0010116994,-3.9501683E-4,6.3550063E-32,False,False,0,None,1.16203884E30,2.6577812E-19,
422614008,16.267,10.46524307380482,63.404731511230345,17,112.423744,113.1138,-0.07225157,-0.019085623,-1.0697167,1.0723238,4.537326,80.88724,10.418463,81.68156,611,341,1335,1507.0,2.6824272,-2.505834,-0.048237145,3.671096,3.670779190501314,-1.083570346602063,1.2921186008745391,-4.698789239840005,-40.5297468377922,319.47025316220777,556.9738962439919,502.73575740877544,-50.42603589575932,-31.91809809874807,3.2446488964646636,17.258916029042904,-42.51192187753758,-39.325784909877584,57.09,0.48388720166015275,,10.4652458,63.4047305,20190425,161141,2019-04-25T16:11:41Z,160.297,0.63,1.18,7.48,8,9,17,2.54,-2.34,0.0,-760,0,0,1922,5,5,10.46529103108221,63.404711749872995,40,22171,20,94,44,3462,3726,4271,4287,-1386,17151,24,2,16512,0,false,false,false,false,false,false,true,false,false,false,5284,5454,5276,5200,54,69,67,54,1493,1520,1510,1496,1486,1512,1499,1479,0.0,0.0,0.0,0.0,1645.9,1639.2,1639.2,1643.5,3.42,3.45,4.93,3.92,0,0,0,0,136.80399511620058,10.465244397088847,63.40473069618104,0,112.53736,113.20757,-0.0763927,-0.023129985,-1.0846148,1.0875477,-6.7369423,72.5914,-10.805385,73.69975,643,343,1322,1509.0,2.842615,-2.48204,-0.0517591,3.7740774,3.773722572694509,-1.2179139273405646,1.2376383655504102,-5.450743776105962,-38.20621375251626,321.79378624748375,567.1595050541836,513.9301965853317,-50.676397216781986,-31.458112861150568,3.134881945403765,7103250.68029524,-45.5428527666018,-42.3567157989418,57.04,NONE,0.0,0.0,0.0,NONE,-2.40222208653334E-7,1.2264302583523082E-7,-9.918213E-5,2,45.77,47.6,47.97,47.73,16.591,16.591,5.915,7.0938435,0,3404,4.142,12.0,7.716,92,25.5,OK,103,0,0,0,0,0,65,100,0.0,0,0.0,4.0322625E-27,9.0E-44,0.0,-3.3654391E38,62,0.0010163486,-3.9559798E-4,3.588514E-30,False,False,0,None,1.2616689E33,2.662281E-19,
426469190,17.269,10.465214363275017,63.40474630719433,17,113.227776,113.22038,-0.00447236,-0.01752967,-0.974501,0.9746689,-12.628942,-19.407606,-6.3028865,23.997328,76,338,1441,1482.0,0.5981103,-0.50813806,-0.032669485,0.78549826,0.7848185861735374,1.3902796207057166,1.750235343053447,10.848171396489176,-39.79594492722139,320.2040550727786,557.9296854915812,502.9596212621318,-30.34604146834191,-40.20297669308123,5.415866631861826,19.440828403566844,-42.342625432701645,-39.15648846504165,57.36,1.2879185737304653,,10.4652137,63.4047458,20190425,161142,2019-04-25T16:11:42Z,160.461,0.63,1.18,7.43,8,9,17,0.72,-0.71,-0.1,0,-329,0,0,5,5,10.46529103108221,63.404711749872995,40,22171,20,94,44,3462,3726,4271,4287,-1386,17151,24,2,16512,0,false,false,false,false,false,false,true,false,false,false,5480,5635,4928,4843,53,69,70,54,1522,1535,1485,1456,1529,1557,1446,1423,0.0,0.0,0.0,0.0,1645.3,1640.5,1639.8,1645.9,3.76,3.77,4.06,2.96,0,0,0,0,169.87532834460217,10.465213676213345,63.40474540160873,0,112.80236,113.28331,-0.007842094,-0.022820987,-0.9805419,0.9808388,5.920268,-18.335575,2.1969957,19.392515,71,338,1444,1484.0,0.5591176,-0.5364451,-0.0029870127,0.77485144,0.7748456524384997,1.4596751191457416,1.9764326372722794,10.8149368389582,-38.46518986199472,321.5348101380053,566.1825969379923,515.87737565168,-30.86618323862146,-40.041859886444186,5.369368412271785,7103252.9201181065,-49.78870954168932,-46.602572574029324,57.39,NONE,0.0,0.0,0.0,NONE,-9.100070986573504E-8,3.8662193928885656E-8,1.2207031E-4,2,50.23,53.18,42.08,40.77,16.603,16.603,5.913,7.3728385,0,3402,4.136,12.0,7.487,92,25.6,OK,104,0,0,0,0,0,65,100,0.0,0,0.0,9.10803E-26,9.0E-44,0.0,2.214234E-27,64,0.0011281371,-4.0957527E-4,1.8950923E-28,False,False,0,None,1.2404519E36,2.7695498E-19,
430368405,18.282,10.465211416841372,63.404746474901266,17,113.021774,113.15523,0.00501631,-0.015687313,-1.0022385,1.0023738,-17.246172,-2.7980728,-6.9008746,18.785147,375,326,1408,1493.0,-0.041650765,0.07742759,0.0074166097,0.088231646,0.08791938152356922,0.057982279260134204,0.6522106439323586,0.31462616850559494,-39.723415773576086,320.2765842264239,556.4848508092688,500.2974073340276,-39.618469178522346,-39.000917074714344,5.53320590879294,19.752745007669496,133.82428093124426,137.01041789890425,57.67,1.081917291992184,,10.4652109,63.4047467,20190425,161143,2019-04-25T16:11:43Z,160.394,0.63,1.18,7.41,8,9,17,-0.07,0.08,0.02,0,0,0,0,5,5,10.46529103108221,63.404711749872995,40,22171,20,94,44,3462,3726,4271,4287,-1386,17151,24,2,16512,0,false,false,false,false,false,false,true,false,false,false,5779,5752,4697,4584,53,68,68,53,1550,1569,1423,1415,1529,1542,1455,1439,0.0,0.0,0.0,0.0,1643.5,1639.2,1638.0,1643.5,4.74,4.41,3.01,1.94,0,0,0,0,177.81109352051178,10.465211283725118,63.40474597173731,0,113.17767,113.24781,0.009564091,-0.02379886,-0.99224085,0.9925723,8.670532,1.0591292,8.503546,12.1905775,372,326,1411,1495.0,-0.072564036,0.07467824,0.033770517,0.1094661,0.10412674576004541,0.02901108071820016,0.7457950872383166,0.40781825712796127,-38.278157508099895,321.72184249190013,563.737346347272,511.72643287776026,-40.28186842742914,-38.838230274204285,5.4990907736216466,7103253.185407126,108.16386400923778,111.35000097689779,57.66,NONE,0.0,0.0,0.0,NONE,8.792940146135286E-9,-3.6666118040880045E-9,3.2806396E-4,2,52.58,54.65,39.91,38.06,16.601,16.601,5.906,7.572471,0,3400,4.135,12.0,7.832,92,25.6,OK,105,0,0,0,0,0,65,100,0.0,0,0.0,4.6409476E-26,9.0E-44,0.0,2.214234E-27,64,0.0010879636,-4.0455358E-4,2.4570097E-28,False,False,0,None,1.9326702E36,2.7310363E-19,
434312148,19.307,10.465212706757033,63.40474519429942,17,112.65326,113.1749,0.0071339235,-0.01507285,-1.0013644,1.0015032,-5.963338,0.9697428,-68.320335,68.58695,249,398,1432,1506.0,-0.016207777,0.019077774,-0.0446063,0.051150516,0.025033049140314314,0.12736776285241483,1.0173529779866701,-0.13388919450597925,-67.51241572188614,292.48758427811384,523.751392141914,495.755321690839,-39.88370425807571,-56.59884556473681,5.388147763737148,19.909597806498844,150.22619323439358,153.41233020205357,57.94,0.7134022773437465,,10.4652124,63.4047455,20190425,161144,2019-04-25T16:11:44Z,160.389,0.63,1.18,7.34,8,9,17,-0.08,0.04,0.02,0,0,-9998,0,5,5,10.46529103108221,63.404711749872995,40,22171,20,94,44,3462,3726,4271,4287,-1386,17151,24,2,16512,0,false,false,false,false,false,false,true,false,false,false,5684,5844,4553,4675,54,70,70,54,1539,1561,1424,1436,1532,1561,1427,1421,0.0,0.0,0.0,0.0,1644.1,1638.6,1639.8,1644.1,4.46,4.21,2.88,2.4,0,0,0,0,179.05346019632444,10.465213207613038,63.40474471026819,0,112.82765,113.238014,0.0076182717,-0.016138159,-1.0010641,1.0012231,5.688057,-2.7754624,-56.478977,56.83249,255,395,1429,1504.0,-0.017315863,0.011165216,-0.021250831,0.02959897,0.020603425367560674,0.1451061058411018,0.9516665761477363,-0.24619955532487497,-65.18060590167077,294.8193940983292,537.9560233239571,513.7289164439152,-43.560950427302984,-56.165310978362534,5.3330027249689245,7103253.362624334,115.98423665018223,119.17037361784223,57.96,NONE,0.0,0.0,0.0,NONE,1.4064876456704114E-9,-7.838667794660088E-10,-1.0681152E-4,2,52.38,54.06,37.17,39.5,16.581,16.581,5.904,7.7039824,0,3398,4.141,12.0,7.312,92,25.6,OK,106,0,0,0,0,0,65,100,0.0,0,0.0,2.5176101E-26,9.0E-44,0.0,2.214234E-27,64,0.0010583401,-4.0085064E-4,1.8621512E-28,False,False,0,None,1.2029903E36,2.7026475E-19,
438247906,20.330,10.46521247293276,63.404744769142006,17,113.06035,113.18724,0.011101953,0.01611372,-0.9959077,0.99609995,-8.778589,-6.428898,-67.552864,68.42356,-170,297,1429,1469.0,0.01092533,-0.042644087,-0.011531781,0.045506734,0.04402136976155299,0.0035765209845056017,-0.6218417109449765,0.7501534375923053,-127.38368695313376,232.61631304686625,463.94662305966733,494.91425979917454,-39.661226016947325,-115.83797895162253,5.364108024588207,19.995476276761156,-111.17360982597364,-107.98747285831365,58.27,1.120491510742184,,10.465212,63.4047446,20190425,161145,2019-04-25T16:11:45Z,160.372,0.63,1.19,7.28,8,9,17,-0.05,-0.02,0.01,0,0,-9998,0,5,5,10.46529103108221,63.404711749872995,40,22171,20,94,44,3462,3726,4271,4287,-1386,17151,24,2,16512,0,false,false,false,false,false,false,true,false,false,false,5753,5771,4371,4697,54,70,70,55,1546,1551,1413,1449,1540,1554,1419,1431,0.0,0.0,0.0,0.0,1644.1,1639.2,1638.6,1643.5,4.6,3.93,2.74,2.76,0,0,0,0,-172.85201480906824,10.465212537170848,63.40474437615037,0,113.10262,113.25898,0.013406126,0.008505098,-0.9972841,0.9974105,1.7020955,2.1647718,-59.348927,59.41278,-161,303,1426,1466.0,0.046209652,-0.045855418,-0.0064169983,0.06541582,0.06510031768229463,-0.016276087861495238,-0.4191062772809433,0.6515381304760244,-124.91900065677537,235.08099934322462,477.24266912108754,511.88913269856863,-44.162658196801175,-114.79671991322793,5.331948803943961,7103253.459207768,-54.15769835884502,-50.97156139118502,58.28,NONE,0.0,0.0,0.0,NONE,-4.1046475523588796E-9,2.2702152555073517E-9,-4.5776367E-5,2,53.52,53.84,35.77,39.71,16.574,16.574,5.906,7.767943,0,3396,4.136,12.0,7.345,92,25.6,OK,107,0,0,0,0,0,65,100,0.0,0,0.0,1.2097379E-26,9.0E-44,0.0,2.214234E-27,64,0.0010927022,-4.0514217E-4,1.7993505E-28,False,False,0,None,1.1315151E36,2.7355362E-19,
442135938,21.341,10.46521116196301,63.404744451500974,17,112.820175,113.1861,-0.011112201,0.030740231,-1.0049742,1.0055057,-5.131959,8.606574,-61.81597,62.622875,-279,-103,1423,1453.0,-0.016075296,-0.058860876,-0.02318805,0.06527407,0.06101653768757985,0.012419072530896913,-1.8742973087430461,-0.31762036512276953,172.33229208961058,172.33229208961052,402.33956774721105,491.2933814278058,-40.70381584065606,168.87772841600395,5.387970219101266,20.082757675877147,-128.85319618561905,-125.66705921795905,58.63,0.880318170898434,,10.4652113,63.4047442,20190425,161146,2019-04-25T16:11:46Z,160.338,0.63,1.19,7.19,8,9,17,-0.04,-0.02,0.03,0,0,-9998,0,5,5,10.46529103108221,63.404711749872995,40,22171,20,94,44,3462,3726,4271,4287,-1386,17151,24,2,16512,0,false,false,false,false,false,false,true,false,false,false,5794,5622,4691,4975,54,70,70,55,1546,1532,1445,1473,1541,1534,1442,1461,0.0,0.0,0.0,0.0,1641.7,1638.0,1637.3,1640.5,4.58,3.66,3.06,3.12,0,0,0,0,-165.39512073840265,10.465210948072196,63.404743976076745,0,113.15046,113.23989,-0.0104713375,0.036551714,-1.0069598,1.0076773,10.257544,4.8440046,-49.502644,50.78576,-279,-95,1420,1450.0,0.030728726,-0.07602706,0.0028361247,0.08205128,0.08200224295425576,0.007812840535388249,-1.6964538173691226,-0.27071961849406523,174.87463703119482,174.87463703119488,419.21297585608335,512.6148088965288,-43.0992042929642,169.50665101695003,5.3603488084737,7103253.557804209,-125.05867428113831,-121.8725373134783,58.6,NONE,0.0,0.0,0.0,NONE,-7.596946675845896E-9,1.3535623072341696E-9,1.5258789E-5,2,53.11,50.94,39.72,43.54,16.569,16.569,5.889,7.7715926,0,3394,4.135,12.0,7.209,92,25.6,OK,108,0,0,0,0,0,65,100,0.0,0,0.0,3.8910564E-27,9.0E-44,0.0,2.214234E-27,64,0.0010680556,-4.0206508E-4,1.8714265E-28,False,False,0,None,1.2135371E36,2.711912E-19,
446014364,22.349,10.465218491249116,63.404745892895384,17,113.86181,113.20553,-0.03507187,0.049266264,-1.048463,1.0502056,36.021507,0.5758987,-3.7748427,36.223335,-181,89,1462,1475.0,0.14377572,0.4369442,-0.00985688,0.46009654,0.4599909519518521,-0.06464228916270742,15.774185606393788,-1.0870951857655873,146.7063338396232,146.7063338396232,378.6113742405773,506.84639012284305,-38.064321449472416,123.72291106101777,5.239597270294772,20.531592005144336,67.20763073148575,70.39376769914576,58.9,1.9219517768554653,,10.4652171,63.404745,20190425,161147,2019-04-25T16:11:47Z,160.283,0.63,1.19,7.16,8,9,17,0.31,0.83,0.02,9981,0,0,0,5,5,10.46529103108221,63.404711749872995,40,22171,20,94,44,3462,3726,4271,4287,-1386,17151,24,2,16512,0,false,false,false,false,false,false,true,false,false,false,6020,5510,4950,5267,54,70,70,54,1574,1537,1475,1517,1565,1525,1482,1514,0.0,0.0,0.0,0.0,1636.1,1631.2,1631.2,1635.5,5.02,3.72,3.58,3.92,0,0,0,0,-147.79500801171952,10.465218242046673,63.404745193739615,0,113.72176,113.230515,-0.032958176,0.049166527,-1.0384815,1.040167,45.934326,-1.2705485,1.3904116,45.972927,-181,58,1462,1474.0,0.2007549,0.44615442,0.014580062,0.48945773,0.4892405280374165,-0.10479088314905183,15.498333940155169,-0.9317504596282317,148.24685159328217,148.24685159328214,392.3973927954067,528.7658156622311,-41.34551502882922,121.37417954911749,5.192192849447563,7103254.011124722,66.57135569180332,69.75749265946331,58.91,NONE,0.0,0.0,0.0,NONE,8.445623414127361E-8,1.9412482240764123E-8,-2.593994E-4,2,57.17,50.37,43.5,48.94,16.562,16.562,5.887,7.734562,0,3392,4.134,12.0,7.363,92,25.6,OK,109,0,0,0,0,0,65,100,0.0,0,0.0,3.3336E-25,9.0E-44,0.0,2.214234E-27,64,0.001050055,-3.99815E-4,1.5566525E-28,False,False,0,None,8.553295E35,2.6946404E-19,
449879050,23.353,10.465203156185787,63.404739657062215,17,112.99274,113.26954,-0.017100243,0.010087959,-1.0539725,1.0541595,18.400991,9.022642,15.949089,25.96879,-184,-629,1304,1459.0,-0.7562836,-0.96285444,-0.013532322,1.2244332,1.2243583945238286,-0.19760582378710323,-15.814272945957732,-0.2718210324371063,146.72521248838387,146.72521248838387,374.8035524600917,468.80009843380793,-35.573151171083104,127.36475996235771,5.363320609822581,21.634239636445756,-131.03113880774683,-127.84500184008684,59.16,1.0528798164062465,,10.4652077,63.4047409,20190425,161148,2019-04-25T16:11:48Z,160.253,0.63,1.19,7.14,8,9,17,-1.04,-1.41,0.0,0,0,0,0,5,5,10.46529103108221,63.404711749872995,40,22171,20,94,44,3462,3726,4271,4287,-1386,17151,24,2,16512,0,false,false,false,false,false,false,true,false,false,false,5656,5755,5065,4978,55,70,70,55,1537,1556,1476,1476,1529,1549,1474,1469,0.0,0.0,0.0,0.0,1638.0,1633.1,1633.1,1637.3,4.47,4.08,3.81,3.26,0,0,0,0,172.25726333236202,10.465203882877123,63.40473941518981,0,112.90554,113.25478,-0.018042358,0.007079147,-1.052984,1.0531623,-4.7191086,3.2850926,-8.519897,10.278642,-181,-623,1307,1459.0,-0.76014185,-1.008412,0.0032632477,1.2628226,1.2628184625059575,-0.30589293504315196,-16.264766542707463,-0.27983461966391626,148.064179606041,148.06417960604097,393.13198976636704,497.0797963665944,-40.81206686997234,129.01536624470918,5.318254604416358,7103255.062206836,-138.79674410390479,-135.6106071362448,59.15,NONE,0.0,0.0,0.0,NONE,-1.0565877710513421E-7,-3.549674308183245E-8,3.0517578E-5,2,52.46,52.61,43.58,44.57,16.523,16.523,5.886,7.6898794,0,3390,4.131,12.0,7.961,92,25.6,OK,110,0,0,0,0,0,65,100,0.0,0,0.0,1.9317604E-32,9.0E-44,0.0,2.214234E-27,64,0.0010832846,-4.0396498E-4,1.8590389E-28,False,False,0,None,1.19944086E36,2.7265364E-19,
453733327,24.355,10.465197591759388,63.40473737411726,17,113.10585,113.232056,-0.020984951,0.040520713,-0.9768873,0.9779525,-2.4728892,-9.150911,-12.028455,15.314636,-184,-343,1414,1466.0,0.091522016,0.223225,-0.0017216286,0.24126467,0.24125853157770116,0.13382519614645932,-4.670999566131309,-0.6640721764751348,145.85196996122872,145.85196996122875,374.19289955498357,477.5995207527387,-34.41731625888909,131.5094127710181,5.454753566931222,22.074403680474838,70.94934423885715,74.13548120651716,59.45,1.165993219726559,,10.4651977,63.4047367,20190425,161149,2019-04-25T16:11:49Z,160.236,0.63,1.19,7.11,8,9,17,-0.08,0.05,0.02,2104,0,-4560,0,5,5,10.46529103108221,63.404711749872995,40,22171,20,94,44,3462,3726,4271,4287,-1386,17151,24,2,16512,0,false,false,false,false,false,false,true,false,false,false,5632,5545,4786,5097,56,71,71,55,1551,1520,1443,1506,1537,1532,1463,1478,0.0,0.0,0.0,0.0,1639.8,1633.7,1633.7,1638.0,4.87,3.72,3.21,3.81,0,0,0,0,-162.90349409810173,10.465197666930138,63.404736492966315,0,113.224754,113.24037,-0.020497069,0.039850082,-0.9724983,0.97353023,13.715444,1.9555364,5.756271,15.002405,-184,-337,1417,1468.0,0.067013085,0.20441513,0.0011988244,0.21512261,0.21511927190643237,0.23281510063797844,-4.448794554565257,-0.5832696106679868,147.06425535789626,147.0642553578963,393.80295940135665,509.5675119885552,-41.52332793729276,131.30429026390553,5.40099955485812,7103255.606415555,89.38901338674316,92.57515035440316,59.43,NONE,0.0,0.0,0.0,NONE,2.0197922205958756E-8,-2.098878260150541E-10,9.1552734E-5,2,56.42,47.21,32.41,52.39,16.518,16.518,5.886,7.6644845,0,3388,4.122,12.0,7.637,92,25.7,OK,111,0,0,0,0,0,65,100,0.0,0,0.0,8.9631444E-35,9.0E-44,0.0,2.214234E-27,64,0.0010582507,-4.008432E-4,1.940082E-28,False,False,0,None,1.291665E36,2.7025813E-19,
457632475,25.368,10.465201030694107,63.4047370835996,17,113.027794,113.23134,-0.028569108,0.033989597,-1.0040421,1.0050235,3.2712624,3.072674,2.2183821,5.0063663,-101,-349,1438,1483.0,0.026230365,0.02243863,-0.013364868,0.037015457,0.03451846182350378,0.1373953838055474,-0.8919009865777203,-0.9883880565779581,129.5774481137397,129.5774481137397,360.46751225895036,484.157488355095,-35.171618386614725,111.07960927775741,5.292261009262636,22.288551767933726,138.96194418130762,142.1480811489676,59.8,1.0879368842773403,,10.4652018,63.404737,20190425,161150,2019-04-25T16:11:50Z,160.147,0.63,1.19,7.07,8,9,17,0.07,0.11,0.01,0,0,0,0,5,5,10.46529103108221,63.404711749872995,40,22171,20,94,44,3462,3726,4271,4287,-1386,17151,24,2,16512,0,false,false,false,false,false,false,true,false,false,false,5694,5335,5003,4968,55,72,72,56,1548,1518,1468,1487,1544,1496,1454,1489,0.0,0.0,0.0,0.0,1641.1,1635.5,1635.5,1638.6,4.2,3.78,3.16,3.25,0,0,0,0,-162.97341155690816,10.46520132731685,63.404736545046006,0,113.29996,113.238335,-0.027685637,0.03273789,-0.9996428,1.0005618,1.8147428,-14.571997,-4.3203526,15.306921,-101,-349,1438,1483.0,0.029394232,0.039480668,-0.010295014,0.05028649,0.04922137688635465,0.13068035691214036,-1.0356360942774792,-1.0175472695207881,130.69079341241488,130.6907934124149,371.5240278800081,511.8404021385861,-42.38185041458729,111.41003209139453,5.248060011052378,7103255.817000348,138.54219928008158,141.72833624774157,59.79,NONE,0.0,0.0,0.0,NONE,6.0469383714903605E-9,1.482065058280833E-9,-7.6293945E-5,2,51.11,49.57,43.39,44.82,16.536,16.536,5.89,7.6508293,0,3386,4.121,12.0,7.554,92,25.7,OK,112,0,0,0,0,0,65,100,0.0,0,0.0,3.6034192E-34,9.0E-44,0.0,2.214234E-27,64,0.0010621846,-4.0132747E-4,1.6216411E-28,False,False,0,None,9.2929944E35,2.706287E-19,
461518278,26.378,10.46520150410729,63.40473679709116,17,113.022766,113.23796,-0.025299782,0.032611594,-0.9982411,0.99909407,7.159711,4.665627,2.0477846,8.78766,-86,-355,1435,1480.0,-0.014656452,-0.030708812,-0.008730147,0.035129167,0.03402708934561399,0.005211822572921111,-1.1827931526477524,-1.4276980319983856,129.61118980981698,129.611189809817,360.2698409654921,483.9520691565182,-35.756621528371234,110.54266715199952,5.25537244790169,22.351435442293763,-56.21574115503001,-53.02960418737001,60.08,1.0829091132812465,,10.465202,63.4047365,20190425,161151,2019-04-25T16:11:51Z,160.034,0.63,1.19,7.01,8,9,17,0.0,-0.02,0.01,0,0,0,0,5,5,10.46529103108221,63.404711749872995,40,22171,20,94,44,3462,3726,4271,4287,-1386,17151,24,2,16512,0,false,false,false,false,false,false,true,false,false,false,5727,5454,4852,5117,56,72,71,56,1559,1513,1445,1499,1542,1513,1449,1477,0.0,0.0,0.0,0.0,1639.8,1635.5,1633.7,1639.2,4.77,3.43,2.92,3.62,0,0,0,0,-156.06383374003838,10.465201381791475,63.40473614657438,0,112.78496,113.23567,-0.0254391,0.041129578,-0.99906117,1.000231,14.93886,-7.5805283,10.925038,19.99976,-86,-355,1438,1483.0,-0.0026287194,-0.005659704,-0.003205025,0.007015312,0.006240385943386884,0.037715260032492995,-1.3722657327859822,-1.4826504331531711,130.54340205260135,130.54340205260132,372.4108000061491,512.277526754848,-42.00722964619527,111.05831708759979,5.222601166095501,7103255.907713968,169.39540715556674,172.58154412322673,60.08,NONE,0.0,0.0,0.0,NONE,2.4398247927146934E-9,1.4006799830573153E-9,-3.8146973E-5,2,54.0,47.57,39.79,47.34,16.539,16.539,5.888,7.63138,1596,3384,4.123,12.0,7.326,92,25.7,OK,113,0,0,0,0,0,65,100,0.0,0,0.0,1.917437E-34,9.0E-44,0.0,2.214234E-27,64,0.0010583401,-4.0085064E-4,1.5607509E-28,False,False,0,None,8.600147E35,2.7026475E-19,
465622185,27.445,10.465200749317544,63.404735939839156,17,113.02722,113.247025,-0.020646565,0.032835726,-0.99826175,0.99901503,9.40415,-0.2636641,10.558453,14.141727,-89,-381,1426,1478.0,-0.027941898,-0.020319188,-0.023247533,0.04164213,0.034548793037919044,0.06151475124422528,-2.3430909612851307,-1.4067908128534383,129.83470522027267,129.83470522027267,358.76019452747096,480.9352187432348,-34.325528452386195,111.09052123625648,5.237688308816955,22.454743419795665,-166.7163857725064,-163.53024880484642,60.44,1.0873646796874965,,10.4652012,63.4047358,20190425,161152,2019-04-25T16:11:52Z,159.917,0.63,1.19,6.96,8,9,17,-0.02,-0.05,0.03,0,0,0,0,5,5,10.46529103108221,63.404711749872995,40,22171,20,94,44,3462,3726,4271,4287,-1386,17151,24,2,16512,0,false,false,false,false,false,false,true,false,false,false,5691,5493,4840,5100,56,72,71,56,1545,1530,1444,1494,1533,1528,1453,1476,0.0,0.0,0.0,0.0,1639.2,1633.7,1635.5,1638.6,4.41,3.79,3.22,3.35,0,0,0,0,-159.78794791073466,10.465200534410759,63.404735485005766,0,113.119705,113.228775,-0.022199625,0.032214895,-1.0004562,1.001221,-12.981886,8.086113,-7.1964436,16.902761,-92,-381,1423,1475.0,-0.016643155,-0.010722578,-0.009165504,0.021816846,0.01979818913727962,0.05970708902128668,-2.4578742360645225,-1.43094986834138,130.6582622845121,130.6582622845121,372.77992288086057,512.0791654963963,-42.13197790689509,111.80640465393118,5.221124155514611,7103256.011078205,178.5594793972153,-178.2543836351247,60.41,NONE,0.0,0.0,0.0,NONE,-1.9422918456983036E-9,-1.1051236578125624E-9,-4.5776367E-5,2,53.07,49.67,39.6,45.77,16.537,16.537,5.89,7.5983496,1602,3382,4.126,12.0,7.296,92,25.7,OK,114,0,0,0,0,0,65,100,0.0,0,0.0,4.6002237E-35,9.0E-44,0.0,-1.4206529E23,63,0.0010481775,-3.995766E-4,1.555728E-28,False,False,0,None,8.542951E35,2.6927875E-19,
469477342,28.447,10.465200640392183,63.40473557355651,17,112.91951,113.24208,-0.0217827,0.035922952,-1.003138,1.0040172,-3.5921245,2.4614832,0.008037852,4.3545747,-92,-375,1426,1477.0,0.01688277,0.012042194,-0.023385633,0.031255882,0.020737462734781525,0.020271193865438776,-2.199374662424096,-1.4624910504086814,129.7035437195125,129.70354371951248,359.5754487235709,483.70755194208755,-35.34326386855562,111.91034810276821,5.2215612110045955,22.50485070445678,165.0612625920877,168.2473995597477,60.68,0.979652887695309,,10.4652009,63.4047354,20190425,161153,2019-04-25T16:11:53Z,159.776,0.63,1.19,6.92,8,9,17,0.01,-0.01,0.02,0,0,0,0,5,5,10.46529103108221,63.404711749872995,40,22171,20,94,44,3462,3726,4271,4287,-1386,17151,24,2,16512,0,false,false,false,false,false,false,true,false,false,false,5672,5409,4869,5017,56,71,71,56,1537,1524,1467,1475,1531,1518,1455,1468,0.0,0.0,0.0,0.0,1640.5,1635.5,1634.9,1638.6,4.22,3.4,3.37,3.15,0,0,0,0,-161.02021283993122,10.46520016688979,63.404735041025205,0,113.038414,113.22675,-0.022677397,0.02822268,-1.002769,1.0034224,10.744639,-5.2875686,1.456137,12.063416,-95,-372,1429,1479.0,0.017797899,0.010272541,-0.014333351,0.025054645,0.020549703002715816,0.03199782603250379,-2.2656125583037805,-1.482405004295632,130.56394718483028,130.56394718483028,373.91250437729195,513.5641941917551,-43.04122370272563,112.76640119909109,5.212212603312941,7103256.076666011,174.7553625977894,177.9414995654494,60.68,NONE,0.0,0.0,0.0,NONE,1.3682154118959777E-9,8.995192568066647E-10,-6.1035156E-5,2,52.27,49.14,41.93,44.34,16.533,16.533,5.9,7.554302,1610,3380,4.125,12.0,7.337,92,25.7,OK,115,0,0,0,0,0,65,100,0.0,0,0.0,1.9599899E-35,9.0E-44,0.0,-1.4206529E23,63,0.0010451078,-3.991966E-4,1.5340036E-28,False,False,0,None,8.295708E35,2.689942E-19,
473376472,29.460,10.465200455239641,63.404735279674476,17,113.14655,113.215836,-0.027989194,0.027386755,-1.0103923,1.0111508,-2.090983,7.9105663,-4.455784,9.316828,-86,-369,1426,1475.0,-0.012411299,0.016669292,-0.009928471,0.023032155,0.0207823397650494,0.012722963906347886,-2.018480025213584,-1.677224072885354,129.70634199279277,129.70634199279277,361.94317961629935,484.6372674565526,-36.742144480492115,111.90014950317413,5.213028620512439,22.558463275690844,176.2658006174882,179.4519375851482,61.06,1.2066960395507778,,10.465201,63.4047352,20190425,161155,2019-04-25T16:11:55Z,159.628,0.63,1.19,6.88,8,9,17,0.03,0.02,0.03,0,0,0,0,5,5,10.46529103108221,63.404711749872995,40,22171,20,94,44,3462,3726,4271,4287,-1386,17151,24,2,16512,0,false,false,false,false,false,false,true,false,false,false,5723,5488,4866,5057,56,73,73,57,1550,1529,1461,1479,1539,1522,1457,1471,0.0,0.0,0.0,0.0,1638.0,1634.3,1633.1,1638.6,4.45,3.66,3.14,3.08,0,0,0,0,-161.69860753078393,10.465200002786485,63.40473483005075,0,113.20469,113.21578,-0.026659554,0.043900833,-1.0160453,1.0173427,20.390589,2.937602,23.360645,31.146835,-86,-369,1429,1478.0,0.0021818336,0.013439867,-0.007312494,0.015455193,0.01361581471962505,0.010897478616682823,-2.1348700763593,-1.7180967580931608,130.58399826152694,130.58399826152697,368.2663582309535,508.9157226126481,-42.098894646131775,112.26695568134221,5.207702653781674,7103256.141224373,-33.76120226342432,-30.575065295764325,61.08,NONE,0.0,0.0,0.0,NONE,9.280901700653645E-10,6.039629301315212E-10,1.5258789E-5,2,51.88,48.4,42.72,45.38,16.528,16.528,5.883,7.5058436,1619,3377,4.123,12.0,7.241,92,25.7,OK,116,0,0,0,0,0,65,100,0.0,0,0.0,1.19424716E-35,9.0E-44,0.0,-1.4206529E23,63,0.0010325611,-3.97632E-4,1.5137582E-28,False,False,0,None,8.0653E35,2.6778982E-19,
477415959,30.510,10.465200289026688,63.40473500624245,17,113.15897,113.22971,-0.024344277,0.03307785,-1.01098,1.0118139,-5.4419637,2.9865062,-5.1431637,8.061409,-86,-369,1411,1460.0,-0.0067468584,0.04041951,-0.030044585,0.050812736,0.040978738683365566,-0.010964773805440503,-2.086556509967946,-1.68157944056806,129.69310223615736,129.69310223615736,360.13855742857214,482.54034179815517,-34.983507978748065,111.92310287119074,5.205014493667398,22.601061554679756,179.5158743523815,-177.2979886799585,61.44,1.2191166938476528,,10.4652005,63.4047349,20190425,161155,2019-04-25T16:11:55Z,159.481,0.63,1.19,6.86,8,9,17,0.01,0.0,0.02,0,0,0,0,5,5,10.46529103108221,63.404711749872995,40,22171,20,94,44,3462,3726,4271,4287,-1386,17151,24,2,16512,0,false,false,false,false,false,false,true,false,false,false,5698,5507,4889,5064,58,71,72,57,1538,1521,1466,1495,1537,1516,1456,1486,0.0,0.0,0.0,0.0,1637.3,1633.1,1633.1,1636.7,4.24,3.52,3.54,3.42,0,0,0,0,-163.70465529025955,10.465199648055362,63.404734479968674,0,112.894745,113.210846,-0.024640104,0.033205613,-1.0153233,1.0161649,0.89117724,15.911136,4.355013,16.520428,-83,-372,1414,1464.0,0.0018498274,0.02702498,-0.019639414,0.0334586,0.027088215511884107,0.013627678304561793,-2.1183473169996168,-1.6728630541804346,130.6521880004401,130.6521880004401,368.1428358798417,509.478331171204,-41.123692543001866,111.30884003062899,5.204058563963012,7103256.214877941,-176.37220981515947,-173.18607284749947,61.41,NONE,0.0,0.0,0.0,NONE,2.6311834434731623E-9,1.3706960136380817E-10,-9.1552734E-5,2,51.78,49.59,42.3,45.3,16.527,16.527,5.883,7.454773,1629,3375,4.123,12.0,7.209,92,25.8,OK,117,0,0,0,0,0,65,100,0.0,0,0.0,7.33435E-36,9.0E-44,0.0,-1.4206529E23,63,0.0010228157,-3.964101E-4,1.5210305E-28,False,False,0,None,8.1480524E35,2.6685015E-19,
