Tick#,offsetTime,IMU_ATTI(0):Longitude,IMU_ATTI(0):Latitude,IMU_ATTI(0):numSats,IMU_ATTI(0):barometer:Raw,IMU_ATTI(0):barometer:Smooth,IMU_ATTI(0):accel:X,IMU_ATTI(0):accel:Y,IMU_ATTI(0):accel:Z,IMU_ATTI(0):accel:Composite,IMU_ATTI(0):gyro:X,IMU_ATTI(0):gyro:Y,IMU_ATTI(0):gyro:Z,IMU_ATTI(0):gyro:Composite,IMU_ATTI(0):mag:X,IMU_ATTI(0):mag:Y,IMU_ATTI(0):mag:Z,IMU_ATTI(0):mag:Mod,IMU_ATTI(0):velN,IMU_ATTI(0):velE,IMU_ATTI(0):velD,IMU_ATTI(0):velComposite,IMU_ATTI(0):velH,IMU_ATTI(0):GPS-H,IMU_ATTI(0):roll,IMU_ATTI(0):pitch,IMU_ATTI(0):yaw,IMU_ATTI(0):yaw360,IMU_ATTI(0):totalGyro:Z,IMU_ATTI(0):totalGyro:X,IMU_ATTI(0):totalGyro:Y,IMU_ATTI(0):magYaw,IMU_ATTI(0):distanceHP,IMU_ATTI(0):distanceTravelled,IMU_ATTI(0):directionOfTravel[mag],IMU_ATTI(0):directionOfTravel[true],IMU_ATTI(0):temperature,General:relativeHeight,General:absoluteHeight,GPS(0):Long,GPS(0):Lat,GPS(0):Date,GPS(0):Time,GPS:dateTimeStamp,GPS(0):heightMSL,GPS(0):hDOP,GPS(0):pDOP,GPS(0):sAcc,GPS(0):numGPS,GPS(0):numGLNAS,GPS(0):numSV,GPS(0):velN,GPS(0):velE,GPS(0):velD,RC:Aileron,RC:Elevator,RC:Rudder,RC:Throttle,Controller:navHealth,Controller:ctrl_level,HP:Longitude,HP:Latitude,HP:rthHeight,BatBlackBox:tick,BatBlackBox:id,BatBlackBox:rsoc,BatBlackBox:index,BatBlackBox:rm,BatBlackBox:fcc,BatBlackBox:cell_min,BatBlackBox:cell_max,BatBlackBox:current,BatBlackBox:voltage,BatBlackBox:temp,BatBlackBox:flag,BatBlackBox:reserve,BatBlackBox:user_data,OA:avoidObst,OA:emergBrake,OA:radiusLimit,OA:airportLimit,OA:groundForceLanding,OA:horizNearBoundary,OA:vertLowLimit,OA:vertAirportLimit,OA:roofLimit,OA:hitGroundLimit,Motor:Speed:RFront,Motor:Speed:LFront,Motor:Speed:LBack,Motor:Speed:RBack,Motor:EscTemp:RFront,Motor:EscTemp:LFront,Motor:EscTemp:LBack,Motor:EscTemp:RBack,Motor:PPMrecv:RFront,Motor:PPMrecv:LFront,Motor:PPMrecv:LBack,Motor:PPMrecv:RBack,Motor:PPMsend:RFront,Motor:PPMsend:LFront,Motor:PPMsend:LBack,Motor:PPMsend:RBack,Motor:V_out:RFront,Motor:V_out:LFront,Motor:V_out:LBack,Motor:V_out:RBack,Motor:Volts:RFront,Motor:Volts:LFront,Motor:Volts:LBack,Motor:Volts:RBack,Motor:Current:RFront,Motor:Current:LFront,Motor:Current:LBack,Motor:Current:RBack,Motor:Status:RFront,Motor:Status:LFront,Motor:Status:LBack,Motor:Status:RBack,Motor:thrustAngle,IMU_ATTI(1):Longitude,IMU_ATTI(1):Latitude,IMU_ATTI(1):numSats,IMU_ATTI(1):barometer:Raw,IMU_ATTI(1):barometer:Smooth,IMU_ATTI(1):accel:X,IMU_ATTI(1):accel:Y,IMU_ATTI(1):accel:Z,IMU_ATTI(1):accel:Composite,IMU_ATTI(1):gyro:X,IMU_ATTI(1):gyro:Y,IMU_ATTI(1):gyro:Z,IMU_ATTI(1):gyro:Composite,IMU_ATTI(1):mag:X,IMU_ATTI(1):mag:Y,IMU_ATTI(1):mag:Z,IMU_ATTI(1):mag:Mod,IMU_ATTI(1):velN,IMU_ATTI(1):velE,IMU_ATTI(1):velD,IMU_ATTI(1):velComposite,IMU_ATTI(1):velH,IMU_ATTI(1):GPS-H,IMU_ATTI(1):roll,IMU_ATTI(1):pitch,IMU_ATTI(1):yaw,IMU_ATTI(1):yaw360,IMU_ATTI(1):totalGyro:Z,IMU_ATTI(1):totalGyro:X,IMU_ATTI(1):totalGyro:Y,IMU_ATTI(1):magYaw,IMU_ATTI(1):distanceHP,IMU_ATTI(1):distanceTravelled,IMU_ATTI(1):directionOfTravel[mag],IMU_ATTI(1):directionOfTravel[true],IMU_ATTI(1):temperature,IMUEX(0):err,IMUEX(0):rtk_Longitude,IMUEX(0):rtk_Latitude,IMUEX(0):rtk_Alti,IMUEX(1):err,IMUEX(1):rtk_Longitude,IMUEX(1):rtk_Latitude,IMUEX(1):rtk_Alti,MotorCtrl:Status,MotorCtrl:PWM:RFront,MotorCtrl:PWM:LFront,MotorCtrl:PWM:LBack,MotorCtrl:PWM:RBack,BattInfo:Voltage,BattInfo:BatVoltage,BattInfo:AdVoltage,BattInfo:AvgCurrent,BattInfo:R_time,BattInfo:R_CAP_MAH,BattInfo:LowCellVoltage,BattInfo:LowCellVolThreshold,BattInfo:BatCurrent,BattInfo:Remaining%,BattInfo:Temp,BattInfo:status,battery_info:BatDynCnt,battery_info:Vol1Protect,battery_info:Vol2Protect,battery_info:Cap1Protect,battery_info:Cap2Protect,battery_info:Batpresent,battery_info:sopPercentage,battery_info:sopValue,battery_info:sopScale,battery_info:sopFlg,BattInfo:WindHeading:WindDir,battery_info:home_dir,BattInfo:Wind:rangeMin,BattInfo:Wind:rangeMax,battery_info:cap_speed,battery_info:against_wind,battery_info:emergency_land_cap,battery_info:intel_bat_land_cap,battery_info:intel_bat_gh_cap,BattInfo:Smart:SmartGh,BattInfo:Smart:SmartLand,BattInfo:GoHome:CntDown,BattInfo:GoHome:GhCmd,BattInfo:GoHome:CapLevel,BattInfo:GoHome:LandCapLv,Attribute|Value,ConvertDatV3,3.6.6-Tablet
127349387,.000,9.294992356762494,62.64868278127076,16,503.90887,503.98972,0.060049735,0.025490183,-0.9839336,0.9860939,0.16125818,0.06063834,-0.0012731833,0.17228705,346,165,1473,1522.0,-0.029191712,-0.03578129,-0.003419628,0.046304975,0.04617853126375565,-0.04617853126375565,-1.5688136776272519,3.4864374085069594,-21.2774687347868,338.7225312652132,1.0372287278047845,5.856584631371382,0.5524138313087127,-25.280347858412703,0.26131745390502564,4.647607110634507,159.2568408547724,161.85110918031174,35.05,,,9.2949923,62.6486833,20190821,141707,2019-08-21T14:17:07Z,590.031,0.92,1.85,12.81,9,7,16,0.0,0.01,0.02,-9997,-9997,9987,-9997,5,5,9.294989375894705,62.64868469104596,120,2277042,48,13,226,508,3718,3685,3689,-1250,14775,43,212,14770,0,false,false,false,false,false,false,false,false,false,false,0,0,0,0,45,58,58,46,944,945,944,945,940,940,940,940,0.0,0.0,0.0,0.0,1721.4,1715.3,1715.3,1722.0,0.0,0.0,0.0,0.0,0,0,0,0,-45.0,9.294992543271151,62.648682469015334,0,503.94058,504.4865,0.059999336,0.025413,-0.98354095,0.985697,0.18940677,-0.0032522855,0.0541379,0.1970188,346,165,1473,1522.0,-1.51803E-4,-0.0016282632,4.2647464E-4,0.0016900194,0.0016353241398277534,-0.0016353241398277534,-1.4480304149822623,3.0387511210874467,-26.954410751306444,333.04558924869355,0.6827563411670067,4.328843081401013,0.27870343485988863,-25.526586003389728,0.29535038952783205,7009414.594163762,159.29639969674517,161.8906680222845,35.07,NONE,0.0,0.0,0.0,NONE,2.7970096884422676E-11,-1.3669310903281181E-11,0.0,,,,,,17.312,17.312,6.184,1.2270061,0,3632,4.325,12.0,1.248,99,23.2,OK,30,0,0,0,0,0,65,100,0.0,0,0.0,5.89489E-8,2.68E-43,0.0,-1.05007105E-23,62,2.1362212E-5,-2.1362333E-5,1.1915612E-32,False,False,0,None,8.935993E29,1.0842106E-19,Firmware Date| Oct 17 2018
131203309,1.002,9.294993336591498,62.64868195247988,16,504.07086,503.94382,0.061421182,0.019436188,-0.98079175,0.98290527,0.5531347,-0.37851617,-0.9122517,1.1320052,346,162,1467,1515.0,-0.021519357,-0.01383278,0.016152956,0.030254696,0.025581801285819012,0.07912370055717134,-1.5756404273314353,3.5041448560638004,-21.275756136866327,338.72424386313367,1.4346838102840915,5.737227197106485,0.49190909697021934,-24.953128947571116,0.365612186108516,4.757797907708302,175.40783260193263,178.00210092747196,35.36,,,9.2949927,62.6486823,20190821,141708,2019-08-21T14:17:08Z,589.651,0.92,1.85,12.72,9,7,16,-0.02,0.0,0.02,0,0,0,0,5,5,9.294989375894705,62.64868469104596,120,2277042,17,13,227,508,3718,3685,3689,-1250,14775,43,0,14770,0,false,false,false,false,false,false,false,false,false,false,453,479,464,483,50,63,63,51,1400,1208,1205,1404,1392,1392,1392,1392,0.1,0.1,0.1,0.1,1681.5,1676.0,1676.6,1681.5,7.92,7.44,8.13,7.58,0,0,0,0,25.01689347810003,9.294993247919125,62.64868147139662,0,504.15543,504.48145,0.061277244,0.017950289,-0.98058754,0.9826642,0.2892093,-0.10242359,-1.2637666,1.3004763,346,162,1467,1515.0,-0.00658983,-0.0045836754,0.0059536747,0.009994107,0.008027199937641352,0.10840966941877678,-1.4607555030530721,3.050417719700661,-26.966176270745418,333.0338237292546,0.9785718795178361,4.415320321063151,0.16296529701549473,-25.215535103364743,0.4090239031388204,7009414.713829778,177.2627418369479,179.85701016248723,35.36,NONE,0.0,0.0,0.0,NONE,-3.786955281859155E-10,-3.2530282995633654E-10,0.0,1,22.5,22.5,22.5,22.5,17.268,17.268,6.044,1.2330645,0,3632,4.325,12.0,1.245,99,23.2,OK,31,0,0,0,0,0,65,100,0.0,0,0.0,5.972306E-13,2.68E-43,0.0,-1.05007105E-23,62,2.1362212E-5,-2.1362333E-5,1.6198975E-32,False,False,0,None,1.3604187E30,1.0842106E-19,ACType|MavicEnterprise
135065280,2.005,9.294993448508238,62.648680817522,16,504.02728,503.94864,0.06000122,0.021340765,-0.9835791,0.98563856,-0.3616809,-0.13337252,-0.99037874,1.0627565,346,158,1470,1518.0,0.006609191,0.015709992,0.008938231,0.019245187,0.01704362853329649,0.10882055636635285,-1.503069966095868,3.4569666979172085,-21.420245934777217,338.5797540652228,1.6051426001018754,5.208057318144149,2.10221924658141,-24.37327822732922,0.47833679455512396,4.89154670942541,131.96219134790647,134.5564596734458,35.59,,,9.2949928,62.6486812,20190821,141709,2019-08-21T14:17:09Z,589.282,0.92,1.85,12.65,9,7,16,-0.01,-0.01,0.02,0,0,0,0,5,5,9.294989375894705,62.64868469104596,120,2352577,48,13,228,412,3615,3737,3738,0,14950,24,212,1,0,false,false,false,false,false,false,false,false,false,false,2090,2088,2153,2134,50,63,64,50,1204,1206,1209,1206,1200,1200,1206,1207,0.0,0.0,0.0,0.0,1712.8,1706.7,1707.9,1714.0,0.6,0.25,0.74,0.35,0,0,0,0,8.864623388410791,9.29499336288643,62.648680802031876,0,504.02728,504.47806,0.060234137,0.022350311,-0.98210114,0.98420036,-1.1565208,-0.45658427,0.963165,1.572799,349,158,1464,1513.0,-0.004878933,0.0012826899,0.007963172,0.009426632,0.0050447281864501965,0.06934072620749406,-1.479173842017826,3.031211290057962,-27.08028546650862,332.9197145334914,-2.824219658839753,3.7771985161575947,0.8012397506177088,-24.69383840783787,0.47800807010685403,7009414.79096103,163.325932427021,165.92020075256033,35.5,NONE,0.0,0.0,0.0,NONE,-1.0583818850398636E-10,6.242374443471247E-11,6.1035156E-5,2,10.0,10.26,10.53,10.27,16.978,16.978,6.157,1.3081203,0,3630,4.326,12.0,4.738,99,23.2,OK,32,0,0,0,0,0,65,100,0.0,0,0.0,-4.6535515E21,2.66E-43,0.0,-1.05007105E-23,62,2.1362212E-5,-2.1362333E-5,2.959181E-32,False,False,0,None,4.099361E30,1.0842106E-19,dateTime|2019-8-21 14:16:42 GMT
138942862,3.013,9.294992992919907,62.64867944426902,16,504.02728,503.9465,0.057400577,0.030937482,-0.9882086,0.99035764,0.44621903,-1.5820545,-2.9443774,3.3721457,346,155,1467,1515.0,0.004185142,0.004875228,0.0038623186,0.007496717,0.00642520502660643,0.14684688435347065,-1.538895678138387,3.4692130546401367,-21.432149956332516,338.5678500436675,1.3539002417573316,5.925208551275365,2.610448581033582,-24.12961616214276,0.6119796526502574,5.051387965777292,-178.15227142769663,-175.5580031021573,35.97,,,9.2949928,62.6486801,20190821,141710,2019-08-21T14:17:10Z,588.957,0.92,1.85,12.57,9,7,16,-0.03,-0.03,0.02,0,0,0,0,5,5,9.294989375894705,62.64868469104596,120,2352577,48,13,228,412,3615,3737,3738,0,14950,24,212,1,0,false,false,false,false,false,false,false,false,false,false,2098,2077,2171,2144,50,63,64,49,1204,1207,1212,1213,1201,1202,1202,1200,0.0,0.0,0.0,0.0,1714.0,1707.3,1707.9,1714.0,0.72,0.25,0.76,0.33,0,0,0,0,2.454031674527073,9.294993122815827,62.648679820193614,0,504.02728,504.4352,0.065004244,0.018589735,-0.9737649,0.9761092,1.888331,2.396211,2.5927641,4.003754,349,155,1461,1510.0,0.015608405,-0.009191861,0.041393712,0.045183536,0.018113879387041135,0.09090166480241064,-1.452390282277019,3.0459831334230802,-27.088127643785228,332.91187235621476,-3.4086250347628706,3.688713724350578,0.4360156160040446,-24.26386735076957,0.5744461921184357,7009414.90090183,-179.36226847775873,-176.7680001522194,35.7,NONE,0.0,0.0,0.0,NONE,-1.1588987815523828E-9,9.282415926687863E-10,1.8310547E-4,2,10.14,10.44,10.45,10.0,17.216,17.216,6.158,1.5245061,0,3629,4.228,12.0,2.889,99,23.2,OK,33,0,0,0,0,0,65,100,0.0,0,0.0,-1.7442645E-14,2.66E-43,0.0,-1.05007105E-23,62,2.1362212E-5,-2.1362333E-5,4.3523957E-32,False,False,0,None,8.119958E30,1.0842106E-19,geoDeclination|259 degrees
142802071,4.016,9.294992818881125,62.64867870482191,16,504.02728,503.94275,0.05963629,0.022789732,-0.9829077,0.9849789,-3.4241724,-0.9139848,1.5551032,3.8702288,349,155,1467,1515.0,0.0074520283,-0.012319821,0.005578828,0.01544131,0.014398288686064015,0.06805718231379812,-1.618149459280306,3.439430303032061,-21.452267714747517,338.5477322852525,1.4058982585835975,5.670436350595491,2.224614064774306,-24.24150932604834,0.6884858316618503,5.150299811245528,-164.5563844921591,-161.96211616661978,36.27,,,9.2949929,62.6486793,20190821,141711,2019-08-21T14:17:11Z,588.674,0.92,1.85,12.48,9,7,16,0.0,0.02,0.0,0,0,0,0,5,5,9.294989375894705,62.64868469104596,120,2352577,48,13,229,412,3615,3737,3738,0,14950,24,212,1,0,false,false,false,false,false,false,false,false,false,false,2084,2084,2146,2139,50,65,65,50,1205,1206,1207,1205,1200,1201,1206,1206,0.0,0.0,0.0,0.0,1712.8,1704.8,1705.5,1712.2,0.68,0.24,0.73,0.37,0,0,0,0,3.4238712449306945,9.294992711431558,62.64867822410475,0,504.02728,504.22775,0.060751166,0.018681109,-0.98119086,0.9832473,0.21404378,0.8993515,1.5840182,1.834056,349,155,1467,1515.0,0.08149805,-0.049168758,0.12101502,0.15396146,0.09518139569564892,0.08300268700492659,-1.4894634754503235,3.0192712492228537,-27.189595836909575,332.8104041630904,-3.111096256435655,4.033723211080462,0.388356258548428,-24.404793648413527,0.739006156512631,7009415.103006158,-157.74620046386266,-155.15193213832333,36.28,NONE,0.0,0.0,0.0,NONE,-2.4000974161757386E-9,1.826634941679555E-9,3.0517578E-4,2,10.0,10.28,10.85,10.62,17.234,17.234,6.153,1.7890671,0,3629,4.3,12.0,1.845,99,23.3,OK,34,0,0,0,0,0,65,100,0.0,0,0.0,-2.9003903E-31,2.66E-43,0.0,-1.05007105E-23,62,2.1362212E-5,-2.1362333E-5,5.847945E-32,False,False,0,None,1.3528209E31,1.0842106E-19,geoInclination|7433 degrees
146918447,5.086,9.294992486693202,62.648677996661284,16,504.02728,503.94193,0.059719913,0.0205733,-0.98481184,0.9868354,1.1224972,2.3875325,1.5087122,3.039165,349,155,1461,1510.0,-0.0062437253,-0.0034743163,6.866689E-4,0.0071781958,0.0071452767510531805,0.06814897949512805,-1.591491917100248,3.4618965286179693,-21.486714519747608,338.5132854802524,1.7506103369263168,5.845037029634181,2.255509006385736,-24.13876385140293,0.7611576440746171,5.262180339382719,-159.5333584343236,-156.93909010878426,36.52,,,9.2949924,62.6486785,20190821,141712,2019-08-21T14:17:12Z,588.388,0.92,1.85,12.37,9,7,16,-0.02,0.0,0.01,0,0,0,0,5,5,9.294989375894705,62.64868469104596,120,2352577,48,13,230,412,3615,3737,3738,0,14950,24,212,1,0,false,false,false,false,false,false,false,false,false,false,2098,2079,2169,2146,50,63,63,50,1205,1206,1207,1206,1200,1202,1210,1207,0.0,0.0,0.0,0.0,1713.4,1707.3,1707.9,1712.8,0.68,0.28,0.81,0.31,0,0,0,0,1.6602823689827915,9.29499264852968,62.64867761083359,0,504.02728,504.28738,0.05768141,0.02345844,-0.988414,0.9903735,2.703436,-1.9080573,1.1866415,3.5153046,349,155,1461,1510.0,0.01273401,-0.009321279,0.008343031,0.017850699,0.01578104066237796,0.048031400989701524,-1.4757011127999573,3.0557265584744444,-27.193529546037443,332.80647045396256,-3.2768085272519576,4.285730353971986,0.31689131344141075,-24.317975291305938,0.8048409103147304,7009415.230309837,68.2193401019272,70.81360842746652,36.51,NONE,0.0,0.0,0.0,NONE,-1.1086448343633256E-9,3.874923506563882E-10,6.1035156E-5,2,10.12,10.0,10.29,10.48,17.236,17.236,6.153,1.984023,0,3628,4.305,12.0,1.836,99,23.3,OK,35,0,0,0,0,0,65,100,0.0,0,0.0,1.1417738E26,2.66E-43,0.0,-1.05007105E-23,62,2.1362212E-5,-2.1362333E-5,7.813898E-32,False,False,0,None,2.0861766E31,1.0842106E-19,geoIntensity|5165643 nanoTesla
150773184,6.088,9.294992399483869,62.64867734792747,16,504.02728,503.94336,0.05929923,0.0260416,-0.9836524,0.98578227,0.63912946,-4.1724353,4.8904243,6.460182,346,155,1458,1506.0,-0.023321206,-0.02307791,-0.0031297286,0.032958515,0.032809581158446566,0.03933184751740407,-1.702851446746138,3.4945345507741816,-21.466833090780042,338.53316690922,3.4292732596743827,5.729948143779125,2.3646086697059,-24.556265171644267,0.83100033753479,5.33960179501847,120.72975613327927,123.32402445881858,36.84,,,9.294992,62.6486778,20190821,141713,2019-08-21T14:17:13Z,588.119,0.92,1.85,12.27,9,7,16,0.0,0.02,0.01,0,0,0,0,5,5,9.294989375894705,62.64868469104596,120,2352577,48,13,231,412,3615,3737,3738,0,14950,24,212,1,0,false,false,false,false,false,false,false,false,false,false,3412,3527,3474,3347,50,65,66,51,1307,1316,1307,1297,1297,1302,1299,1293,0.0,0.0,0.0,0.0,1704.2,1697.5,1698.1,1704.2,1.33,0.83,1.22,0.78,0,0,0,0,115.99401580396318,9.294992050636196,62.64867677024685,0,504.02728,504.27704,0.059186235,0.026165292,-0.9843556,0.9864804,0.79790765,4.0445986,-6.027606,7.302566,346,155,1458,1506.0,-0.019084772,-0.010341839,-0.0060608042,0.02253698,0.021706730926836032,0.07644716005716708,-1.499532427258462,3.0666817020892436,-27.20189671507117,332.79810328492886,-4.001119742218606,4.693838997526452,0.5518799036597728,-24.523514298555988,0.8912899195260213,7009415.395821577,-143.78684281673833,-141.192574491199,36.86,NONE,0.0,0.0,0.0,NONE,-4.566550327553721E-10,-4.0449115208881393E-10,0.0,2,22.85,23.49,22.72,21.86,17.218,17.218,6.101,2.097428,0,3628,4.305,12.0,1.84,99,23.3,OK,36,0,0,0,0,0,65,100,0.0,0,0.0,3.194245E-11,2.66E-43,0.0,-1.05007105E-23,62,2.1362212E-5,-2.1362333E-5,1.0611351E-31,False,False,0,None,3.8218923E31,1.0842106E-19,
154627380,7.089,9.294990993774503,62.64867655962785,16,504.02728,503.93933,0.051540203,0.031473003,-0.9873169,0.9891621,1.6842517,-6.2906165,2.5554047,6.995617,346,152,1464,1511.0,-0.03437851,-0.041608825,-9.942906E-4,0.053983007,0.05397384843519393,0.05915224048932338,-1.5544670056495486,3.385752119109825,-21.184360709806185,338.8156392901938,3.364637188017094,6.430076208796718,1.2300404607763706,-23.945213095237218,0.9079424660216718,5.459056687927902,-105.49983343254883,-102.90556510700951,37.14,,,9.2949912,62.6486772,20190821,141714,2019-08-21T14:17:14Z,587.92,0.92,1.85,12.2,9,7,16,-0.01,-0.01,0.01,0,0,0,9998,5,5,9.294989375894705,62.64868469104596,120,2352579,114,12,232,412,3615,3737,3738,0,14951,24,3593,1,0,false,false,false,false,false,false,false,false,false,false,4428,4438,4237,4185,51,63,63,51,1443,1448,1415,1410,1439,1449,1404,1404,0.0,0.0,0.0,0.0,1673.5,1670.5,1668.7,1674.1,3.92,3.32,3.31,2.7,0,0,0,0,172.05064083025303,9.294991418512678,62.6486762708521,0,504.02728,504.21573,0.048091557,0.029669318,-0.98926395,0.9908765,-4.661081,2.7726777,-0.61558735,5.458238,346,152,1464,1511.0,0.04738503,-0.017613973,0.04519654,0.067810915,0.05055287248916603,0.013576670257004687,-1.4199668829473295,2.911352512876522,-26.98218779161378,333.0178122083862,-5.490572292385988,5.308722393449285,1.1113223397639218,-24.156000204599124,0.9420802261911949,7009415.528862958,92.00510313306687,94.59937145860619,37.12,NONE,0.0,0.0,0.0,NONE,-5.663396336237016E-10,5.953595813436427E-10,6.1035156E-5,2,47.49,48.76,36.9,35.91,17.065,17.065,6.048,2.1648843,0,3627,4.297,12.0,2.611,99,23.3,OK,37,0,0,0,0,0,65,100,0.0,0,0.0,-5.9724395E37,2.65E-43,0.0,1.05007105E-23,63,2.1362212E-5,-2.1362333E-5,1.3155986E-31,False,False,0,None,5.410912E31,1.0842106E-19,
158476347,8.090,9.294990267668808,62.64867563033511,16,504.84238,504.2993,-0.020015083,-0.0037378683,-0.8878991,0.8881325,-0.8116642,-0.7073356,1.8767571,2.1636405,507,232,1404,1510.0,-0.25789827,-0.012009555,-0.22517452,0.34257746,0.2581777441849882,-0.14842456786372968,1.5787439940164687,-2.3810458652154245,-20.942477854352678,339.05752214564734,4.802825454382112,11.315408920994706,-7.807079131002237,-23.33191107928289,0.11693349008568572,5.588425920552703,-171.55714381958686,-168.96287549404752,37.41,,,9.2949908,62.6486761,20190821,141715,2019-08-21T14:17:15Z,588.163,0.92,1.85,12.18,9,7,16,-0.17,0.01,-0.28,0,0,0,2682,5,5,9.294991357619205,62.648676555054756,120,2356966,16,12,233,412,3615,3736,3738,0,14950,25,1,17518,0,false,false,false,false,false,false,true,false,false,false,5338,5405,4731,4695,50,63,63,50,1504,1510,1447,1442,1497,1508,1443,1433,0.0,0.0,0.0,0.0,1665.0,1658.8,1658.2,1663.1,3.89,3.44,3.55,2.84,0,0,0,0,175.52811150149552,9.294990748459929,62.64867538526261,0,504.9507,504.38483,-0.019316904,-0.0054156985,-0.88945365,0.88967985,-2.698611,-0.617933,-0.44354352,2.8037605,507,232,1404,1510.0,-0.109328315,-9.1745536E-4,-0.11522476,0.15884037,0.10933216567516599,-0.005113190854879504,1.6977001128651534,-2.8249546816044666,-26.71410873270845,333.28589126729156,-5.579589754606588,8.109004740537603,-3.5565087613453494,-23.537754877136933,0.13374600069065326,7009415.671533853,101.19574253313974,103.79001085867905,37.4,NONE,0.0,0.0,0.0,NONE,-1.479940937841575E-10,-2.5547724989842605E-9,-3.3569336E-4,2,51.89,53.19,44.23,42.53,16.996,16.996,5.973,2.255433,0,3626,4.252,12.0,3.952,99,23.3,OK,38,0,0,0,0,0,65,100,0.0,0,0.0,8.684326,8.7E-44,0.0,1.05007105E-23,63,2.1362212E-5,-2.1362333E-5,6.5995566E-33,False,False,0,None,3.0221695E29,1.0842106E-19,
162364334,9.100,9.294992538843834,62.648675294696524,16,506.46265,505.51642,-0.03432648,-6.051953E-4,-0.9090363,0.90968436,-29.247349,-10.78941,6.4033866,31.824867,702,143,1329,1509.0,0.09876539,-0.13862665,-2.5902853,2.5958717,0.17021148490108623,-0.049590111522308716,-4.695496521005621,-10.707184249816168,-21.299979645007443,338.70002035499255,7.278737618706496,7.075121339897068,-15.739751129303984,-29.407729984877566,0.15258582015310848,5.737604179977961,15.633705157776046,18.227973483315367,37.74,,,9.294993,62.6486755,20190821,141716,2019-08-21T14:17:16Z,589.312,0.92,1.85,12.17,9,7,16,-0.31,0.13,-1.01,-9998,9015,0,0,5,5,9.294991357619205,62.648676555054756,120,2356966,18,12,234,421,3611,3790,3796,3558,15177,25,1,15274,0,false,false,false,false,false,false,true,false,false,false,5574,5710,5069,5087,50,63,64,50,1510,1515,1440,1457,1500,1505,1441,1445,0.0,0.0,0.0,0.0,1665.6,1658.2,1659.4,1665.6,3.28,2.78,2.65,2.46,0,0,0,0,174.02801364752492,9.29499306537812,62.64867483415818,0,506.40424,505.41138,-0.03364597,-4.185466E-4,-0.9023,0.9029272,-39.245182,7.972838,-0.5801597,40.051056,702,143,1329,1509.0,0.34742385,-0.1917078,-2.3475924,2.3808916,0.39680625740701014,-0.26489853500677724,-4.7180554934179515,-11.13334124750892,-27.16014296913699,332.839857030863,-6.913693056685845,0.3261473033535305,-12.004487802554399,-30.04967043961134,0.2103059313056521,7009415.854996261,77.83603380605533,80.43030213159464,37.72,NONE,0.0,0.0,0.0,NONE,-5.194359077235092E-10,5.33267053514658E-9,-0.015655518,2,43.57,45.03,38.26,38.79,16.794,16.794,5.922,2.4898243,0,3625,4.237,12.0,7.286,99,23.3,OK,39,0,0,0,0,0,65,100,0.0,0,0.0,3.498819E-25,2.68E-43,0.0,1.05007105E-23,63,6.26836E-5,-3.7033355E-5,1.10698206E-32,False,False,0,None,7.42087E29,1.8523967E-19,
166225930,10.104,9.294974833376925,62.64868197390939,16,508.0881,506.80417,-0.081058085,0.029252946,-1.422187,1.4247954,2.270878,-1.7882619,-3.3624558,4.4340587,875,-233,1209,1510.0,1.3707007,-3.0222409,-1.0746799,3.4882226,3.3185478996623683,-2.1523826926199012,-16.58752384883002,-18.11459687518593,-23.749950167900433,336.2500498320996,6.879237034179768,-4.0865570324399,-22.890247790420055,-15.127832346833051,1.0371705419060928,6.956951516907526,-59.47796645167667,-56.88369812613735,38.13,,,9.2949793,62.6486815,20190821,141717,2019-08-21T14:17:17Z,590.584,0.92,1.84,12.19,9,7,16,0.97,-2.03,-1.09,-10000,10000,0,6844,5,5,9.294991357619205,62.648676555054756,120,2361426,114,99,235,3678,3678,4387,4390,244,17562,28,3615,17548,0,false,false,false,false,false,false,true,false,false,false,6838,6844,6395,6585,51,62,62,51,1665,1664,1612,1619,1664,1650,1572,1607,0.0,0.0,0.0,0.0,1616.5,1606.7,1606.1,1613.5,5.94,5.26,5.53,4.96,0,0,0,0,-165.31269615184402,9.294975094031134,62.648681405059,0,508.18182,506.69443,-0.08107112,0.030685313,-1.4134454,1.4161009,9.559909,-8.982324,1.6299677,13.218578,875,-233,1209,1510.0,1.2500864,-2.9323497,-1.0357074,3.3517282,3.187693720895994,-2.018547029326202,-15.86146523039595,-17.8537121191582,-23.8737947926398,336.1262052073602,-7.510535437084465,-9.785150872232238,-17.7533107171472,-13.101008845484866,0.9905511850142837,7009417.086782912,-66.2489788780913,-63.654710552551975,38.14,NONE,0.0,0.0,0.0,NONE,-1.1771937483177347E-7,2.283942004125888E-8,-0.0015258789,2,67.03,66.77,60.57,62.81,16.466,16.466,5.799,3.022071,0,3622,4.178,12.0,10.452,99,23.4,OK,40,0,0,0,0,0,65,100,0.0,0,0.0,3.6795493E-31,9.0E-44,0.0,1.05007105E-23,63,2.0471215E-4,-6.338444E-5,2.2346963E-31,False,False,0,None,1.40001115E32,3.0945326E-19,
170255609,11.151,9.294889479450518,62.64869942848164,15,509.7331,507.86328,-0.15789396,0.0923844,-1.4969664,1.5081027,5.93962,3.889146,-1.0751221,7.180559,866,-233,1209,1505.0,2.5589933,-6.486796,-2.1838412,7.3072658,6.973303979018056,-2.4158630660055396,-16.70768726850854,-18.290169073990043,-26.488519575397433,333.51148042460255,5.608730058539701,-6.520170090333511,-23.311511304983114,-15.862816034329265,5.792956369434937,11.743037052801748,-69.63580457247991,-67.0415362469406,38.33,,,9.2948986,62.6486977,20190821,141718,2019-08-21T14:17:18Z,591.778,0.98,1.95,12.31,8,7,15,2.09,-5.67,-1.14,-10000,9998,0,10000,5,5,9.294991357619205,62.648676555054756,120,2361751,19,100,236,3676,3676,4391,4394,175,17595,28,1,17599,0,false,false,false,false,false,false,true,false,false,false,7580,7431,7138,7510,49,64,64,50,1748,1741,1719,1736,1738,1735,1725,1732,0.0,0.0,0.0,0.0,1567.5,1560.7,1560.7,1566.8,8.32,6.48,6.66,6.84,0,0,0,0,-124.86635555013899,9.29488949469059,62.648698940429846,0,509.81674,508.07446,-0.16009736,0.09189454,-1.5020099,1.5133108,-2.1357584,-0.28180933,-1.9863833,2.93029,866,-233,1209,1505.0,2.3265505,-6.4543266,-2.3028715,7.2370152,6.8608433014378605,-2.2889759137045624,-16.10007991074956,-17.530727488292015,-27.18978927625328,332.8102107237467,-6.54521430279466,-9.005102426164553,-15.984906900747331,-13.717594998498228,5.768633205092436,7009421.880654583,-69.19266411790173,-66.59839579236241,38.33,NONE,0.0,0.0,0.0,NONE,-7.55166139127086E-7,1.2205614809167305E-7,-0.0073242188,2,78.55,77.03,73.89,75.98,16.493,16.493,5.672,3.8470898,0,3620,4.116,12.0,7.981,99,23.4,OK,41,0,0,0,0,0,65,100,0.0,0,0.0,6.2377826E-38,9.0E-44,0.0,1.05007105E-23,63,8.280128E-4,-1.2791627E-4,8.874675E-24,False,False,0,None,-1.0945322E-35,5.665096E-19,
174195964,12.175,9.294734668360936,62.64872951059813,15,514.656,511.58142,-0.048774805,0.26127747,-1.0683961,1.100961,12.828253,-14.557612,63.057236,65.97502,954,-476,1059,1502.0,3.9003918,-8.965498,-4.0493464,10.582553,9.777178322112306,-1.3918550356596757,-17.59449600090432,-17.961584055154244,7.807374157613061,7.807374157613083,37.679487440807264,2.8145564065460764,-35.06864937844083,13.611395597832802,14.375081072521136,20.336166070312046,-65.59445399405358,-63.000185668514256,38.58,,,9.2947499,62.6487277,20190821,141719,2019-08-21T14:17:19Z,594.998,0.98,1.95,12.41,8,7,15,3.38,-8.91,-2.35,-10000,10000,9998,10000,5,5,9.294991357619205,62.648676555054756,120,2361751,48,100,237,3676,3676,4391,4394,175,17595,28,212,17599,0,false,false,false,false,false,false,true,false,false,false,7679,7289,6886,6843,50,62,63,50,1730,1717,1685,1634,1732,1712,1647,1618,0.0,0.0,0.0,0.0,1592.6,1584.6,1585.2,1592.0,6.9,4.8,5.52,4.6,0,0,0,0,-164.3543230686298,9.2947340628757,62.648730288547995,0,514.7382,511.94183,-0.04568455,0.26353168,-1.072491,1.1053385,18.357876,-18.395777,49.240944,55.678425,954,-476,1059,1502.0,4.0243635,-9.044059,-4.105934,10.716772,9.899015173430566,-1.4308514941040045,-17.12961896325861,-18.782031253758234,5.911785297280683,5.911785297280687,25.536656965025905,-1.9894470455896476,-28.840391416745664,15.036672718603839,14.438885830860313,7009430.55897707,-65.51145758397443,-62.917189258435116,38.59,NONE,0.0,0.0,0.0,NONE,-4.389204408761253E-7,8.33159818366924E-8,-0.010192871,2,75.04,73.56,69.76,64.18,16.007,16.007,5.681,4.868794,0,3618,4.069,12.0,13.501,99,23.4,OK,42,0,0,0,0,0,65,100,0.0,0,0.0,NaN,8.8E-44,0.0,1.05007105E-23,63,0.04477501,-9.357372E-4,2.4494015E-10,False,False,0,None,-5.827019E-24,3.1306472E-18,
178051315,13.177,9.294576879874176,62.648787063639084,15,518.238,515.7209,0.05395442,0.33036658,-1.153445,1.2010365,41.524765,-17.266579,-9.047046,45.87254,907,-602,1104,1550.0,7.200983,-7.006241,-4.0639067,10.837753,10.046968023602203,0.2251224339671687,-9.765472613695676,-22.913629553619877,44.746172745320564,44.746172745320564,70.02228821076064,23.283097470823215,-53.22180444942763,47.498531015100845,24.481969117702825,30.688041064791797,-43.98816877227855,-41.393900446739224,38.96,,,9.2945891,62.6487824,20190821,141720,2019-08-21T14:17:20Z,598.928,0.98,1.95,12.44,8,7,15,6.82,-7.84,-3.27,-6145,10000,0,10000,5,5,9.294991357619205,62.648676555054756,120,2361751,48,100,238,3676,3676,4391,4394,175,17595,28,212,17599,0,false,false,false,false,false,false,false,false,false,false,7324,6737,5730,5752,51,64,63,51,1732,1635,1497,1617,1717,1628,1511,1547,0.0,0.0,0.0,0.0,1608.5,1600.0,1600.0,1607.3,7.6,5.3,3.74,4.86,0,0,0,0,-166.7136721937543,9.294575779099032,62.64878829725896,0,518.27594,516.09344,0.05207723,0.3302198,-1.1565206,1.2038676,36.08063,-5.1719713,-8.270283,37.37591,907,-602,1104,1550.0,7.254164,-6.935382,-4.052207,10.823253,10.036055985234913,0.2872816695372986,-9.141798784710025,-23.32372020247872,43.15884815947262,43.1588481594726,54.07268889955403,18.203134492659732,-46.32667784058049,49.05653531578344,24.59962397936891,7009440.972809284,-43.614607968040936,-41.02033964250161,38.99,NONE,0.0,0.0,0.0,NONE,-3.921779180160286E-7,1.4167821249052753E-7,-0.010314941,2,68.93,58.75,48.4,54.15,16.052,16.052,5.759,6.144136,0,3613,3.981,12.0,15.367,99,23.5,OK,43,0,0,0,0,0,65,100,0.0,0,0.0,3.617437E-35,9.0E-44,0.0,1.05007105E-23,63,3.3624878,-0.0081298975,0.13380532,False,False,0,None,-2.2998639E-16,2.1175508E-17,
181950666,14.191,9.29448710170464,62.648864987732786,15,520.23236,520.2982,-0.051522058,0.13079542,-0.9395291,0.9499879,2.7243178,-0.94829255,-7.302835,7.851915,113,327,1467,1507.0,5.2671785,-2.5906463,-4.044491,7.12829,5.869805494786932,3.8041430604557567,23.78690015641921,9.936080888731777,45.2435653979018,45.24356539790182,62.98226412758104,57.336553411412034,-19.95645078151566,38.6521806333065,33.206396097152655,40.53521688440392,-26.55638229697031,-23.962113971430988,39.35,,,9.2944959,62.6488545,20190821,141721,2019-08-21T14:17:21Z,603.0,0.98,1.95,12.47,8,7,15,7.1,-3.26,-3.84,0,0,0,10000,5,5,9.294991357619205,62.648676555054756,120,2361751,48,100,239,3676,3676,4391,4394,175,17595,28,212,17599,0,false,false,false,false,false,false,false,false,false,false,5470,4578,4143,4752,50,64,64,50,1567,1432,1370,1547,1560,1423,1365,1511,0.0,0.0,0.0,0.0,1638.0,1631.2,1631.2,1636.1,5.82,3.78,2.3,5.26,0,0,0,0,-127.52983252793408,9.294491265084472,62.64886026059103,0,520.23035,520.1227,-0.052601945,0.16165614,-1.1282581,1.1409935,18.31913,3.5498388,-5.4428034,19.437489,118,309,1464,1500.0,5.920641,-2.7325613,-4.0762253,7.690026,6.520803758190552,2.4512399374714073,23.513663927493774,9.360037664433493,44.08397602289997,44.08397602289995,46.057452139488845,56.40931189815755,-13.124846718003983,40.28551476887522,32.71086413788632,7009450.112089656,-22.324184384439416,-19.729916058900095,39.33,NONE,0.0,0.0,0.0,NONE,-1.4684795929924242E-7,1.4754602369297387E-7,-0.010498047,2,34.34,12.68,19.25,36.62,16.213,16.213,5.882,7.594733,0,3609,3.998,12.0,11.843,99,23.6,OK,44,0,0,0,0,0,65,100,0.0,0,0.0,1.4003437E-29,9.0E-44,0.0,1.05007105E-23,63,222.42969,-0.066805385,0.10826924,False,False,0,None,-1.9332002E-16,1.2916661E-16,
185810046,15.194,9.294454138392194,62.64890298279656,15,523.66675,522.10956,-0.0147113,0.081467934,-1.0067955,1.0101933,-1.1534728,1.1542672,5.8953857,6.1170583,142,376,1437,1492.0,2.7555308,-1.172152,-0.08235383,2.995609,2.994476637925734,1.5398732616175685,25.097091637672534,7.812573941197259,44.4951487936956,44.49514879369559,62.297976579407226,59.12640106986175,-19.752154213733732,38.41207323715374,37.244589501231246,45.084896230779286,-21.260514942563866,-18.666246617024544,39.62,,,9.2944577,62.6488981,20190821,141722,2019-08-21T14:17:22Z,605.774,0.98,1.95,12.48,8,7,15,4.07,-1.81,-3.24,0,0,0,0,5,5,9.294991357619205,62.648676555054756,120,2361751,48,100,240,3676,3676,4391,4394,175,17595,28,212,17599,0,false,false,false,false,false,false,false,false,false,false,5409,4468,3650,4767,49,65,65,49,1514,1441,1413,1442,1522,1525,1378,1420,0.0,0.0,0.0,0.0,1643.5,1638.6,1638.6,1642.3,4.31,3.06,3.72,3.96,0,0,0,0,-125.35290442690822,9.294452980959761,62.648902837623915,0,523.7438,522.29584,-0.010733764,0.07758364,-1.0068313,1.009873,-6.065926,-5.289377,-0.1937057,8.050496,142,376,1437,1492.0,2.5487554,-1.1504539,-0.030206453,2.7965355,2.796372352484596,2.310566176876155,25.117449315532006,7.625358345607953,43.62857946668622,43.62857946668623,47.45970377832387,56.837633747034175,-14.802407112622978,38.854121187664965,37.27728630489704,7009455.240658545,-28.63321507409538,-26.038946748556057,39.62,NONE,0.0,0.0,0.0,NONE,-5.8358899015182706E-8,5.90218115792469E-8,-1.2207031E-4,2,48.0,42.78,35.91,43.4,16.469,16.469,5.988,8.872399,0,3606,4.034,12.0,8.62,99,23.6,OK,45,0,0,0,0,0,65,100,0.0,0,0.0,4.7944994E-27,9.0E-44,0.0,1.05007105E-23,63,2349.1875,-0.22169213,0.09301426,False,False,0,None,-1.6971491E-16,3.659674E-16,
189941050,16.267,9.294452067266374,62.64890805512603,15,525.0924,522.5465,-0.021882227,0.10273966,-1.0277522,1.0331063,-17.875916,-6.5000124,-5.0085597,19.669373,384,-353,1407,1500.0,0.07819344,-0.023073712,-0.35835528,0.36751205,0.0815267461069696,0.45297450565400615,-2.8475671463942622,-1.0608818410502037,46.49628711401932,46.49628711401931,62.34016926636097,31.251236713959333,-29.40084980907432,38.32537493512393,37.7054080247547,46.07146493487687,142.68772893065884,145.28199725619817,39.99,,,9.2944511,62.6489079,20190821,141723,2019-08-21T14:17:23Z,605.873,0.98,1.95,12.45,8,7,15,0.09,0.02,-1.68,0,0,0,0,5,5,9.294991357619205,62.648676555054756,120,2361752,114,100,241,3676,3676,4386,4390,80,17531,28,3678,17587,0,false,false,false,false,false,false,false,false,false,false,6068,5765,4826,5295,51,65,65,50,1585,1556,1445,1501,1578,1532,1438,1501,0.0,0.0,0.0,0.0,1638.6,1633.1,1633.7,1638.0,4.94,3.84,2.98,2.93,0,0,0,0,-155.72774014928103,9.294451073684757,62.64890690359095,0,525.1352,522.2328,-0.02313411,0.10397809,-1.0292494,1.0347469,-0.72802216,-17.843876,3.209223,18.14478,384,-353,1407,1500.0,-0.03615909,0.05099601,0.002782165,0.06257646,0.06251457908583023,0.3682629925111954,-2.5477166559641,-1.163662226716045,45.438184537625396,45.438184537625375,47.8863513544391,31.176477667036085,-24.586351408074623,39.251412821286756,37.655299967207924,7009456.127920686,162.268834863585,164.86310318912433,39.98,NONE,0.0,0.0,0.0,NONE,-1.1187011692631036E-10,4.471609017702912E-9,1.8310547E-4,2,57.69,53.43,39.83,45.88,16.735,16.735,5.874,9.670591,0,3604,4.106,12.0,5.349,99,23.6,OK,46,0,0,0,0,0,65,100,0.0,0,0.0,1.2352576E-26,9.0E-44,0.0,1.05007105E-23,63,2280.3125,-0.21959023,0.09832051,False,False,0,None,-1.7792435E-16,3.62708E-16,
193795500,17.269,9.29446147406762,62.64890123016091,16,525.03125,523.0529,-0.04381012,0.09904421,-0.9663975,0.97244704,-3.6975946,0.5353749,-4.1145,5.557692,475,-574,1344,1536.0,-0.26822597,0.24196544,-0.3741739,0.52009475,0.361237385671476,0.53545447467984,-10.032674596342941,-2.4693024823399417,45.92937737147341,45.92937737147338,64.03158221755264,24.855761818738827,-29.279592380381736,38.70204972679243,36.83684907878829,46.9852278323483,139.26549433545597,141.8597626609953,40.23,,,9.2944609,62.648902,20190821,141724,2019-08-21T14:17:24Z,606.126,0.91,1.84,12.43,9,7,16,-0.54,0.41,-1.01,0,0,0,0,5,5,9.294991357619205,62.648676555054756,120,2966552,181,100,242,3619,3681,4361,4366,0,17427,21,58118,2,0,false,false,false,false,false,false,false,false,false,false,5884,5418,4798,5320,51,65,65,52,1565,1527,1463,1500,1561,1504,1445,1507,0.0,0.0,0.0,0.0,1639.8,1633.7,1633.7,1639.2,4.33,3.19,3.34,3.34,0,0,0,0,-140.15637127167588,9.294460933289376,62.64890019491388,0,525.0771,522.42126,-0.043694038,0.09776692,-0.9642314,0.9701596,3.21164,1.2143643,6.2707114,7.149205,475,-574,1344,1536.0,-0.19809727,0.17733282,0.004804938,0.2659183,0.2658748853779175,0.6326542614448292,-10.089600068983387,-2.5398284155850406,44.994079516460836,44.99407951646083,46.60068192528046,22.869320288419374,-26.622200136931376,38.70376299868262,36.77922677703722,7009457.0398363825,122.75537154531378,125.3496398708531,40.24,NONE,0.0,0.0,0.0,NONE,9.136056829585478E-9,-4.625802267493547E-9,0.0,2,56.13,49.81,38.91,47.13,16.538,16.538,5.884,9.952972,0,3600,4.143,12.0,7.935,98,23.7,OK,47,0,0,0,0,0,65,100,0.0,0,0.0,7.697113E-27,9.0E-44,0.0,3.474554E-12,64,2884.5,-0.23802666,0.08690884,False,False,0,None,-1.602688E-16,3.9123607E-16,
197654022,18.272,9.294468372562552,62.6488991617374,16,526.0386,523.4363,-0.021644425,0.09232771,-0.95784104,0.96252394,8.539809,-2.7726867,10.2568865,13.631576,521,-528,1344,1535.0,0.13974038,0.04510753,-0.12495817,0.19281237,0.14684026084110627,0.27281713619554493,-7.63562548949498,-4.943129563341349,46.38178688955829,46.38178688955827,66.95261822474203,31.561341186645212,-33.124666588031694,40.881491635801545,36.421940149241976,47.416569356199126,86.16283665905998,88.7571049845993,40.51,,,9.2944687,62.6488998,20190821,141726,2019-08-21T14:17:26Z,606.395,0.91,1.84,12.35,9,7,16,0.09,0.06,-0.53,0,0,0,0,5,5,9.294991357619205,62.648676555054756,120,3222167,80,100,243,3604,3686,4355,4360,0,17407,21,0,4,0,false,false,false,false,false,false,false,false,false,false,5920,5678,4403,5185,51,64,64,51,1576,1568,1413,1486,1570,1536,1405,1499,0.0,0.0,0.0,0.0,1638.6,1634.3,1633.1,1639.2,4.83,4.52,2.05,2.66,0,0,0,0,-153.00330757947822,9.294468047129124,62.648898256723804,0,526.1033,522.6888,-0.022823948,0.090083785,-0.9614717,0.9659523,-2.7334378,2.811841,-7.8763933,8.798619,521,-528,1344,1535.0,0.20453542,-0.036794726,0.13572735,0.24821463,0.20781864824019797,0.2135222940210582,-8.095351092965679,-5.127004986724716,45.294718983115,45.29471898311499,44.569595337914585,26.440728416441882,-28.38598389611191,40.28976213036721,36.365845028993306,7009457.542131008,37.61333890203631,40.207607227575636,40.5,NONE,0.0,0.0,0.0,NONE,-2.6475916889495007E-9,1.9873816458740296E-9,1.8310547E-4,2,54.8,51.77,37.8,45.08,16.532,16.532,5.884,9.911075,0,3598,4.119,12.0,7.489,98,23.7,OK,48,0,0,0,0,0,65,100,0.0,0,0.0,1.0063696E-26,9.0E-44,0.0,3.474554E-12,64,3711.5625,-0.27653703,0.07718899,False,False,0,None,-1.4523227E-16,4.3028768E-16,
201534710,19.280,9.294470704378313,62.6489018760018,16,525.6495,523.919,0.030608706,0.090866104,-1.0024369,1.007012,11.95247,5.0182943,7.493981,14.973462,445,-516,1377,1536.0,0.2628222,-0.056919944,0.004312739,0.2689498,0.26891521875562835,0.05279840577592243,-7.090839973513115,-1.4746078716467657,46.44293653097044,46.44293653097043,68.48770768570598,32.8076680567921,-29.340949354080113,39.97354234896118,36.54091653338698,47.75799666719422,6.44524904882944,9.039517374368762,40.85,,,9.2944715,62.6489017,20190821,141727,2019-08-21T14:17:27Z,606.403,0.91,1.84,12.29,9,7,16,0.25,-0.05,-0.26,0,0,0,0,5,5,9.294991357619205,62.648676555054756,120,3222189,114,98,244,3604,3686,4355,4360,-16,17403,21,3676,5,0,false,false,false,false,false,false,false,false,false,false,6076,5698,4447,4979,52,65,66,52,1597,1559,1420,1472,1600,1548,1389,1468,0.0,0.0,0.0,0.0,1637.3,1630.0,1631.2,1637.3,5.39,4.1,2.91,2.65,0,0,0,0,-158.81546813753312,9.294470879442247,62.64890084248503,0,525.79553,522.8667,0.017976735,0.11024661,-0.9837845,0.99010575,7.842213,-11.032899,6.0138664,14.811879,413,-516,1386,1535.0,0.24684046,-0.092060186,0.27973998,0.3842652,0.2634488469414447,0.05569500757998186,-8.003256314237188,-1.5262069394318927,45.2201246543595,45.220124654359495,43.990575622046464,27.123409936565537,-24.265238984699256,40.34457720075312,36.45569202250051,7009457.88654444,10.517240800941252,13.111509126480575,40.78,NONE,0.0,0.0,0.0,NONE,-4.5120931380588795E-9,5.362503732079466E-9,6.713867E-4,2,58.22,54.31,34.09,42.12,16.524,16.524,5.887,9.694287,0,3596,4.121,12.0,7.275,98,23.7,OK,49,0,0,0,0,0,65,100,0.0,0,0.0,2.149922E-26,9.0E-44,0.0,3.474554E-12,64,4365.625,-0.30822954,0.07423069,False,False,0,None,-1.406549E-16,4.6553275E-16,
205393916,20.283,9.29446913360117,62.64890517250658,16,525.4995,523.6882,0.019894768,0.117619514,-0.9937151,1.0008496,7.767612,-8.029681,11.092517,15.743427,311,-457,1419,1522.0,0.19105785,-0.16230848,0.18156153,0.3095347,0.2506933283949784,0.12342371910438521,-4.774460722099987,2.660125445106138,46.56744273928538,46.56744273928541,69.12511984272805,34.00159301510959,-24.57166862600357,41.73944010495302,36.851269124056266,48.1587194620642,-29.98387556547862,-27.3896072399393,41.12,,,9.2944707,62.6489049,20190821,141728,2019-08-21T14:17:28Z,606.377,0.91,1.84,12.21,9,7,16,0.25,-0.12,-0.04,0,0,0,0,5,5,9.294991357619205,62.648676555054756,120,3225883,114,98,245,3586,3685,4349,4354,-15,17384,26,3686,5,0,false,false,false,false,false,false,false,false,false,false,6093,5633,4268,4947,53,66,66,52,1574,1546,1402,1449,1574,1532,1383,1460,0.0,0.0,0.0,0.0,1642.9,1636.1,1636.7,1642.3,4.71,3.53,2.3,2.26,0,0,0,0,-155.60075916978508,9.29446945036485,62.648904790787256,0,525.46985,522.9138,0.018625367,0.11401561,-0.991008,0.99771905,-12.124084,-2.6783264,-7.46371,14.487022,311,-457,1419,1522.0,0.21008891,-0.1467227,0.27790037,0.3780126,0.2562516386863602,0.18748161803244723,-5.329964602436663,2.0370679817498383,45.34909906388323,45.349099063883216,44.73206905317975,28.978110308805473,-19.90079542847377,41.718062933179986,36.8102785936799,7009458.352865834,-22.355943130685336,-19.761674805146015,41.14,NONE,0.0,0.0,0.0,NONE,-5.220604132900459E-9,6.150603287786257E-9,7.324219E-4,2,56.72,52.72,34.48,40.83,16.523,16.523,5.882,9.363331,0,3594,4.119,12.0,7.182,98,23.8,OK,50,0,0,0,0,0,65,100,0.0,0,0.0,4.00623E-26,9.0E-44,0.0,3.474554E-12,64,4610.25,-0.31569108,0.07638981,False,False,0,None,-1.439956E-16,4.7706595E-16,
209318110,21.303,9.294467806062546,62.648905536613626,16,524.3183,523.52014,0.014751474,0.077841185,-0.9552454,0.9585252,-20.708624,2.397549,-15.354733,25.891373,378,-457,1416,1535.0,0.16778247,-0.18351272,0.28817037,0.38061798,0.24865211777455445,-0.17120545690148664,-5.30976127574888,0.6474395803015972,46.32409516218024,46.32409516218024,68.6033152958484,31.008267649015515,-26.803763249152624,39.4043501296483,36.928302674110626,48.393326959921595,-36.12646190352599,-33.53219357798667,41.49,,,9.2944683,62.6489059,20190821,141729,2019-08-21T14:17:29Z,606.051,0.91,1.84,12.11,9,7,16,0.1,-0.23,0.09,0,0,0,0,5,5,9.294991357619205,62.648676555054756,120,3236669,114,96,246,3541,3695,4334,4339,-15,17322,29,3685,5,0,false,false,false,false,false,false,false,false,false,false,6042,5620,4170,4704,53,66,65,53,1574,1554,1416,1449,1562,1533,1416,1453,0.0,0.0,0.0,0.0,1641.1,1634.9,1634.3,1639.2,4.83,3.86,2.64,2.21,0,0,0,0,-161.0732539891321,9.294467633403581,62.64890556782794,0,524.45795,522.9105,0.014831989,0.079335935,-0.9571648,0.9605617,15.53528,11.662794,16.496792,25.485483,378,-457,1416,1535.0,0.1398071,-0.17322944,0.328606,0.39690855,0.22260832689105076,-0.09826624455285578,-5.614611818739015,0.17788525222501586,45.23336038138933,45.23336038138933,45.779647841546776,27.78192626500944,-22.280900845523263,39.5848087297848,36.93708482197042,7009458.600128328,-29.23009252171593,-26.63582419617661,41.47,NONE,0.0,0.0,0.0,NONE,-7.980066713789573E-9,2.963939738891351E-9,7.9345703E-4,2,55.76,52.89,36.35,38.93,16.525,16.525,5.885,8.982183,0,3592,4.119,12.0,7.405,98,23.8,OK,51,0,0,0,0,0,65,100,0.0,0,0.0,4.007729E-26,9.0E-44,0.0,3.474554E-12,64,4597.125,-0.31529436,0.077589534,False,False,0,None,-1.458523E-16,4.764561E-16,
213263633,22.329,9.29446571073593,62.64890749908406,16,524.43414,523.0217,-0.003094505,0.08698906,-0.97516614,0.97904325,-4.620257,-4.9431963,-15.16497,16.605972,352,-414,1422,1522.0,0.12227293,-0.13708799,0.35088992,0.39606506,0.18369481166215984,0.053337022284425856,-3.5138322551026446,0.9285278442429292,46.30995952390344,46.309959523903444,68.87657606040581,33.06056557493289,-26.55674844668635,40.979811969659686,37.156388100870984,48.64160741011348,-6.464567356985231,-3.870299031445909,41.8,,,9.2944662,62.6489079,20190821,141730,2019-08-21T14:17:30Z,605.775,0.91,1.84,12.0,9,7,16,0.14,-0.16,0.15,0,0,0,0,5,5,9.294991357619205,62.648676555054756,120,3280169,114,91,247,3324,3692,4270,4275,-16,17068,30,3695,4,0,false,false,false,false,false,false,false,false,false,false,6092,5602,4417,5093,53,65,66,54,1616,1530,1391,1487,1612,1526,1372,1467,0.0,0.0,0.0,0.0,1636.7,1630.6,1631.2,1636.1,5.78,3.18,2.22,3.53,0,0,0,0,-151.90300907326233,9.29446587796982,62.64890692661695,0,524.39014,522.7919,-0.0035195262,0.09079974,-0.9722615,0.97649854,19.630852,-3.4597373,13.141891,23.875708,352,-414,1422,1522.0,0.12242385,-0.12118495,0.27685615,0.32607165,0.1722596643242715,-9.144939448846034E-4,-3.7231511478357255,0.404715785467605,45.25126735428853,45.25126735428853,45.90498020017212,29.68004236488254,-21.12592605363956,41.52985582260294,37.10624118227667,7009458.798065271,-15.003637773772486,-12.409369448233162,41.81,NONE,0.0,0.0,0.0,NONE,-7.047816311332144E-9,3.7520393773932775E-9,7.324219E-4,2,60.32,50.36,33.11,45.41,16.513,16.513,5.878,8.605068,0,3590,4.122,12.0,7.331,98,23.8,OK,52,0,0,0,0,0,65,100,0.0,0,0.0,4.4296906E-26,9.0E-44,0.0,3.474554E-12,64,3977.25,-0.2927495,0.08203175,False,False,0,None,-1.5272343E-16,4.4283055E-16,
217203668,23.353,9.294464785474956,62.64890919897115,16,524.34674,522.9882,0.026423305,0.08552638,-0.9404613,0.9447118,-6.034469,4.4545484,-8.700898,11.4875345,370,-473,1401,1524.0,0.2110794,-0.017411118,0.24891019,0.326824,0.21179626636424712,-0.021522653883603277,-5.685825075541888,1.483682026972521,46.542805464933295,46.54280546493328,67.54525181093295,27.57247552856996,-28.62554628071152,39.18124593444695,37.32133165063819,48.846519267849644,14.989716942687025,17.583985268226346,42.07,,,9.2944656,62.6489087,20190821,141731,2019-08-21T14:17:31Z,605.511,0.91,1.84,11.89,9,7,16,0.12,-0.03,0.14,0,0,0,0,5,5,9.294991357619205,62.648676555054756,120,3298169,114,88,248,3238,3693,4244,4249,-16,16966,30,3692,4,0,false,false,false,false,false,false,false,false,false,false,5946,5811,4062,4844,53,66,65,53,1579,1558,1400,1459,1579,1566,1382,1455,0.0,0.0,0.0,0.0,1635.5,1631.2,1630.6,1636.1,5.04,3.76,2.52,3.15,0,0,0,0,-162.17005276143882,9.294464898042902,62.64890836287876,0,524.246,522.70685,0.024869826,0.09267218,-0.94301707,0.947886,8.960819,7.0259356,8.228918,14.0490265,370,-473,1401,1524.0,0.18799552,0.006390296,0.23986942,0.3048286,0.18810410337573452,-0.024658784877424733,-5.878986138528176,1.0871200570642077,45.49146227709394,45.491462277093945,47.67799186950083,28.580783267552395,-19.36080910336527,39.45768506217232,37.25279951770097,7009458.991311173,14.280273890943594,16.874542216482915,42.06,NONE,0.0,0.0,0.0,NONE,2.2374021619394797E-10,3.906232845537615E-9,5.493164E-4,2,56.09,55.24,34.33,41.3,16.516,16.516,5.884,8.265775,0,3588,4.119,12.0,7.502,98,23.8,OK,53,0,0,0,0,0,65,100,0.0,0,0.0,5.1075588E-26,9.0E-44,0.0,3.474554E-12,64,3711.625,-0.27654466,0.08537152,False,False,0,None,-1.5789033E-16,4.3029446E-16,
221059297,24.355,9.294465778863596,62.64890976645131,16,524.1358,522.84186,0.011895531,0.10199219,-0.99435455,0.9996424,-13.673128,4.3489575,-8.856683,16.861456,372,-467,1398,1520.0,0.056125976,0.017723156,0.21788797,0.22569759,0.05885775614583889,0.021952695503258964,-5.958899703334005,0.5450605489544956,46.20627200788594,46.20627200788596,65.657061512061,25.20098352068748,-31.037512609362416,39.62538267636865,37.328575351409704,48.964906642719555,6.502122808273643,9.096391133812965,42.28,,,9.2944658,62.6489103,20190821,141732,2019-08-21T14:17:32Z,605.393,0.91,1.84,11.79,9,7,16,0.05,-0.03,0.12,0,0,0,0,5,5,9.294991357619205,62.648676555054756,120,3316469,114,86,249,3150,3694,4218,4223,-16,16862,30,3693,6,0,false,false,false,false,false,false,false,false,false,false,6051,5724,4234,4938,52,66,66,52,1578,1550,1435,1462,1569,1542,1410,1458,0.0,0.0,0.0,0.0,1637.3,1631.8,1632.5,1638.0,4.7,3.44,2.94,2.92,0,0,0,0,-158.3924005295793,9.294465626415937,62.64890962516085,0,524.096,522.6577,0.013636218,0.10546249,-0.99068266,0.99637365,3.5979908,2.4193072,11.778417,12.551083,372,-467,1398,1520.0,0.03871101,0.017652525,0.18378828,0.18864858,0.04254590398946154,0.1023635931959091,-6.123654668329604,0.0721024730812149,45.260604438675486,45.2606044386755,49.34231216458405,29.157781310019978,-19.147192517652016,40.138147786699825,37.32326706463984,7009459.158555089,30.31078051775963,32.90504884329895,42.29,NONE,0.0,0.0,0.0,NONE,-5.966405989073067E-10,1.73039263295477E-9,4.8828125E-4,2,57.17,52.58,35.11,43.02,16.505,16.505,5.875,7.9818697,0,3586,4.115,12.0,7.427,98,23.9,OK,54,0,0,0,0,0,65,100,0.0,0,0.0,7.361492E-26,9.0E-44,0.0,3.474554E-12,64,3556.1875,-0.2670537,0.08729031,False,False,0,None,-1.6085833E-16,4.2295576E-16,
224958919,25.368,9.294465315655122,62.6489110574296,16,524.3009,522.9183,0.014803509,0.10698524,-0.9905135,0.99638444,-4.725107,-4.8897114,-9.647962,11.80335,370,-488,1401,1529.0,0.024250658,-0.0069670365,0.04360337,0.050377455,0.025231607349207798,0.11831895855942678,-6.2471607317780355,0.5887638968759487,46.371850422944114,46.371850422944135,64.88396128911376,24.35231894334372,-31.375618867295685,40.839764163557106,37.445420876499604,49.12178113189455,13.348509813047347,15.942778138586668,42.67,,,9.2944664,62.6489113,20190821,141733,2019-08-21T14:17:33Z,605.347,0.91,1.84,11.72,9,7,16,0.05,0.01,0.06,0,0,0,0,5,5,9.294991357619205,62.648676555054756,120,3347269,114,82,250,2998,3699,4175,4179,-16,16694,30,3694,3,0,false,false,false,false,false,false,false,false,false,false,5910,5758,4193,4908,53,66,65,53,1586,1532,1393,1486,1586,1538,1360,1469,0.0,0.0,0.0,0.0,1638.0,1633.7,1632.5,1638.0,4.7,3.38,2.99,3.4,0,0,0,0,-161.33768816608745,9.29446539264894,62.648910424028244,0,524.1004,522.5097,0.016701898,0.11803553,-0.97775763,0.98499817,14.728244,-0.2295236,5.8172483,15.837116,364,-482,1395,1520.0,0.019736148,0.0048738713,0.097105265,0.0992104,0.020329048220072497,0.06810677970061571,-6.481535359658851,0.28583397991422016,45.48706037115537,45.487060371155394,49.58950703566156,29.548818011574696,-19.162312452358552,40.892919993821764,37.39358333165385,7009459.2718463205,1.5011592354236036,4.095427560962926,42.66,NONE,0.0,0.0,0.0,NONE,1.4916016004100217E-10,4.454476190966127E-10,3.0517578E-4,2,57.03,52.58,31.85,43.41,16.503,16.503,5.869,7.758103,0,3584,4.118,12.0,7.496,98,23.9,OK,55,0,0,0,0,0,65,100,0.0,0,9.086353E-6,8.372456E-26,1.5858768E-7,1.8047715E-12,3.4745954E-12,64,3092.75,-0.24438195,0.091473125,False,False,0,None,-1.6732966E-16,4.0106843E-16,
228818150,26.371,9.294467446555792,62.64891185666992,16,524.43604,523.0713,0.0063921995,0.13116512,-0.9751319,0.98393464,-7.781122,10.058905,-6.369615,14.2232,358,-497,1401,1529.0,-0.008451664,0.032046594,0.03032364,0.04492146,0.033142340994598105,0.10696960471646445,-6.806335477278685,1.3922615967212288,46.10052241415778,46.10052241415781,66.19053483242902,24.95262287669141,-31.893929183777484,39.79306925410413,37.42943717045057,49.265922249928984,64.22822208856653,66.82249041410584,43.0,,,9.294468,62.648912,20190821,141734,2019-08-21T14:17:34Z,605.39,0.91,1.84,11.7,9,7,16,0.0,0.01,0.0,0,0,0,0,5,5,9.294991357619205,62.648676555054756,120,3371069,114,78,251,2882,3697,4143,4147,-16,16564,30,3699,3,0,false,false,false,false,false,false,false,false,false,false,6038,5550,4276,4950,52,66,66,53,1580,1526,1432,1477,1587,1513,1404,1472,0.0,0.0,0.0,0.0,1636.7,1631.8,1632.5,1637.3,4.86,3.38,2.98,3.05,0,0,0,0,-153.80484508068787,9.294467604355347,62.64891122777838,0,524.43994,522.5084,0.00768781,0.12992746,-0.97484237,0.9834927,6.8987513,-1.3483169,7.937223,10.602369,358,-497,1401,1529.0,-0.012620017,0.026498983,0.10202071,0.10615878,0.02935065459372043,0.11428287970391349,-6.887890420580764,1.075397168801891,45.20784386307577,45.207843863075766,49.14423721587478,29.97598799419055,-17.362436369312828,40.19217656731093,37.3748159725657,7009459.435796373,69.0058555412847,71.60012386682402,43.0,NONE,0.0,0.0,0.0,NONE,1.2678613986654291E-9,-1.884586082795018E-10,2.4414062E-4,2,56.01,48.96,38.3,44.3,16.511,16.511,5.875,7.588031,0,3582,4.114,12.0,7.291,98,23.9,OK,56,0,0,0,0,0,65,100,0.0,0,0.06686414,1.0840446E-25,0.0011670068,1.8047715E-12,3.4745954E-12,64,3078.4375,-0.24394707,0.09145405,False,False,0,None,-1.6730256E-16,4.0039758E-16,mcID(SN)|298DG13001W644
232717464,27.385,9.294468215574334,62.648911938430835,16,524.2853,523.17175,0.007033197,0.110416055,-0.9848191,0.99101454,-6.1367292,-7.340001,-4.848593,10.725853,390,-507,1395,1534.0,-0.005462197,-0.036725543,0.06269084,0.07286112,0.03712951903963764,0.0026622010514176855,-6.954829888190343,-0.03341148218944095,46.150493751369275,46.150493751369254,67.72739295622974,23.164690937235203,-33.05572791040413,40.66832151434967,37.40771362223811,49.333700455303315,-76.18498141675963,-73.59071309122031,43.32,,,9.2944686,62.6489121,20190821,141735,2019-08-21T14:17:35Z,605.367,0.91,1.84,11.68,9,7,16,-0.02,-0.04,0.01,0,0,0,0,5,5,9.294991357619205,62.648676555054756,120,3407569,114,74,252,2703,3694,4094,4097,-15,16370,30,3697,5,0,false,false,false,false,false,false,false,false,false,false,6039,5605,4307,5040,54,67,67,54,1569,1541,1402,1471,1553,1539,1423,1467,0.0,0.0,0.0,0.0,1638.0,1631.2,1631.8,1637.3,4.96,3.76,1.93,2.72,0,0,0,0,-153.06697196220887,9.294468180102973,62.648911356511356,0,524.19904,522.54517,0.0058489246,0.117312685,-0.98507124,0.9920493,-5.6839767,2.0598385,2.4801364,6.5346465,390,-507,1395,1534.0,-0.0061952164,-0.038100038,0.10772584,0.11443273,0.03860043588440685,-0.006321645095754003,-7.135229790840315,-0.28271982120189454,45.220555322759864,45.22055532275988,48.913209616392805,27.68038692952609,-17.073596654838585,40.74227229539588,37.36376485103891,7009459.527769403,-37.316622903879626,-34.7223545783403,43.31,NONE,0.0,0.0,0.0,NONE,-1.1187012307331301E-9,-1.541934060349511E-10,3.0517578E-4,2,57.0,52.69,34.44,42.99,16.514,16.514,5.873,7.458065,1728,3580,4.109,12.0,7.234,98,24.0,OK,57,0,0,0,0,0,65,100,0.0,0,6.0406194,1.2519142E-25,0.10542917,1.8047715E-12,-1.4206701E23,63,3192.5625,-0.24742989,0.090336345,False,False,0,None,-1.6557461E-16,4.057847E-16,mcVer|v3.4.1.6
236634326,28.403,9.294467917445873,62.648912156876825,16,524.2544,523.1015,-0.0030667668,0.11903471,-0.9815379,0.9887342,-4.2458425,-5.188492,-3.8959203,7.754084,413,-491,1389,1530.0,-3.245193E-4,-0.043465678,0.13400055,0.14087413,0.04346688967763215,-0.015302916209015468,-6.6968940579818375,-0.7691964173757827,46.01998270249287,46.01998270249288,68.40958743650653,25.004730318265914,-33.58814106012908,39.599404495163014,37.43559112826978,49.38504246744137,-149.3475068366134,-146.75323851107407,43.61,,,9.2944685,62.648912,20190821,141736,2019-08-21T14:17:36Z,605.18,0.91,1.84,11.64,9,7,16,-0.03,-0.05,0.04,0,0,0,0,5,5,9.294991357619205,62.648676555054756,120,3425969,114,71,253,2605,3691,4071,4074,-17,16278,30,3694,5,0,false,false,false,false,false,false,false,false,false,false,6035,5608,4482,5081,54,67,66,55,1598,1524,1407,1494,1586,1520,1404,1483,0.0,0.0,0.0,0.0,1636.1,1630.0,1630.6,1636.1,5.38,3.56,2.35,3.24,0,0,0,0,-153.74429441449922,9.294467922023328,62.64891143413832,0,524.27484,522.5572,-0.0027311556,0.115960665,-0.98176354,0.9885919,8.708969,5.1969013,2.9660416,10.566519,413,-491,1389,1530.0,-0.013000338,-0.03637412,0.13596666,0.14134715,0.03862751827568199,-0.02314690636261371,-6.720013409062757,-0.9819092690597928,45.19040493745406,45.19040493745405,47.389869155203556,27.967492196186825,-17.57631370382893,39.93534078762926,37.37922817557127,7009459.599090702,-173.66055870613943,-171.0662903806001,43.61,NONE,0.0,0.0,0.0,NONE,-1.8645020557274637E-9,-3.083868111639927E-10,3.6621094E-4,2,58.17,49.74,35.16,45.63,16.511,16.511,5.872,7.358096,1750,3578,4.117,12.0,7.246,98,24.0,OK,58,0,0,0,0,0,65,100,0.0,0,6.703421,1.2670288E-25,0.13452244,1.8047715E-12,-1.4206701E23,63,3243.4375,-0.24898247,0.09017994,False,False,0,None,-1.6533067E-16,4.081835E-16,
240629091,29.441,9.294468811570228,62.648911903152225,16,524.4044,523.00055,0.0026744984,0.11533726,-0.9739344,0.98074365,-14.274745,-11.344862,-13.642925,22.772871,387,-504,1386,1524.0,-0.00879212,-0.007879909,0.16341048,0.16383645,0.0118065379546902,0.039905913887157626,-7.016137228655286,-0.07158344039255479,45.97444421018252,45.974444210182526,67.35646234724659,25.080981803370666,-33.45297594733046,40.66576551885574,37.38321966262886,49.47457427118801,37.47238777146786,40.06665609700718,43.86,,,9.2944696,62.6489123,20190821,141737,2019-08-21T14:17:37Z,604.958,0.91,1.84,11.63,9,7,16,-0.02,0.0,0.07,0,0,0,0,5,5,9.294991357619205,62.648676555054756,120,3442069,114,69,254,2515,3693,4056,4058,-15,16219,30,3691,4,0,false,false,false,false,false,false,false,false,false,false,6085,5537,4381,5099,54,68,68,53,1583,1535,1406,1494,1573,1544,1422,1468,0.0,0.0,0.0,0.0,1633.7,1627.6,1628.8,1634.9,5.28,3.38,1.98,3.18,0,0,0,0,-149.41536633508457,9.294469157307907,62.648911433984146,0,524.43524,522.5334,0.0018785486,0.116895154,-0.9749287,0.9819134,10.714694,2.1521652,12.826852,16.85125,387,-504,1386,1524.0,-0.013459047,-0.011510583,0.13397263,0.1351381,0.01770986917470377,0.043074568663430415,-7.0705493529092465,-0.29382045031587734,45.24122927931369,45.2412292793137,48.15211228529686,27.86254639914772,-16.933378593826976,40.962249114795064,37.33409467164929,7009459.72295666,123.00740657107032,125.60167489660964,43.88,NONE,0.0,0.0,0.0,NONE,-4.847705365045431E-10,1.1992820464450617E-10,3.0517578E-4,2,58.51,52.09,34.99,44.41,16.504,16.504,5.878,7.286461,1766,3576,4.116,12.0,7.332,98,24.0,OK,59,0,0,0,0,0,65,100,0.0,0,4.8637505,1.4121792E-25,0.13452244,1.8047715E-12,-1.4206701E23,63,3156.875,-0.24633889,0.09042027,False,False,0,None,-1.6570336E-16,4.0409742E-16,
244483381,30.443,9.294469913060732,62.648912594889175,16,524.07385,522.97015,0.0031252906,0.11069532,-0.97992116,0.98615855,5.4027,-6.001301,4.6727595,9.329494,402,-497,1389,1529.0,0.032663126,-0.0126496805,0.111572534,0.11694154,0.03502704800314689,0.060114339364937264,-6.831651210841835,-0.5198601750390573,45.93417949183375,45.93417949183373,67.36618856445503,27.212042356454052,-34.435282747664715,40.16316463240735,37.396998430702325,49.57435120037321,24.710816029920277,27.3050843554596,44.18,,,9.2944707,62.6489127,20190821,141738,2019-08-21T14:17:38Z,604.808,0.91,1.84,11.65,9,7,16,0.01,0.0,0.07,0,0,0,0,5,5,9.294991357619205,62.648676555054756,120,3466369,114,66,255,2410,3694,4018,4023,-15,16072,30,3693,5,0,false,false,false,false,false,false,false,false,false,false,6036,5658,4500,5090,54,68,67,55,1593,1539,1411,1490,1586,1531,1403,1479,0.0,0.0,0.0,0.0,1634.3,1628.8,1630.0,1633.7,5.02,3.64,2.42,3.14,0,0,0,0,-155.29397372757686,9.294470166357916,62.64891196632255,0,524.03375,522.49036,0.005024608,0.10289775,-0.97885364,0.98425996,0.1988998,8.724751,-2.1164079,8.979979,402,-497,1389,1529.0,0.012914237,-0.023941115,0.0997334,0.10337652,0.027202104150068077,0.05115729180280637,-6.8752882425597415,-0.633499393659622,45.25253463156592,45.252534631565936,47.40010335676508,28.70059938445726,-18.03865251030561,40.27746566724355,37.33874935654907,7009459.814542192,60.1881580762084,62.78242640174773,44.19,NONE,0.0,0.0,0.0,NONE,-1.193281349461797E-9,2.398564112168979E-10,2.4414062E-4,2,57.57,51.37,35.8,44.53,16.488,16.488,5.874,7.24524,1775,3574,4.115,12.0,7.471,98,24.0,OK,60,0,0,0,0,0,65,100,0.0,0,7.07389,1.6978415E-25,0.13452244,1.8047715E-12,-1.4206701E23,63,3025.75,-0.24234109,0.091602825,False,False,0,None,-1.6753295E-16,3.979107E-16,
