Tick#,offsetTime,IMU_ATTI(0):Longitude,IMU_ATTI(0):Latitude,IMU_ATTI(0):numSats,IMU_ATTI(0):barometer:Raw,IMU_ATTI(0):barometer:Smooth,IMU_ATTI(0):accel:X,IMU_ATTI(0):accel:Y,IMU_ATTI(0):accel:Z,IMU_ATTI(0):accel:Composite,IMU_ATTI(0):gyro:X,IMU_ATTI(0):gyro:Y,IMU_ATTI(0):gyro:Z,IMU_ATTI(0):gyro:Composite,IMU_ATTI(0):mag:X,IMU_ATTI(0):mag:Y,IMU_ATTI(0):mag:Z,IMU_ATTI(0):mag:Mod,IMU_ATTI(0):velN,IMU_ATTI(0):velE,IMU_ATTI(0):velD,IMU_ATTI(0):velComposite,IMU_ATTI(0):velH,IMU_ATTI(0):GPS-H,IMU_ATTI(0):roll,IMU_ATTI(0):pitch,IMU_ATTI(0):yaw,IMU_ATTI(0):yaw360,IMU_ATTI(0):totalGyro:Z,IMU_ATTI(0):totalGyro:X,IMU_ATTI(0):totalGyro:Y,IMU_ATTI(0):magYaw,IMU_ATTI(0):distanceHP,IMU_ATTI(0):distanceTravelled,IMU_ATTI(0):directionOfTravel[mag],IMU_ATTI(0):directionOfTravel[true],IMU_ATTI(0):temperature,General:relativeHeight,General:absoluteHeight,GPS(0):Long,GPS(0):Lat,GPS(0):Date,GPS(0):Time,GPS:dateTimeStamp,GPS(0):heightMSL,GPS(0):hDOP,GPS(0):pDOP,GPS(0):sAcc,GPS(0):numGPS,GPS(0):numGLNAS,GPS(0):numSV,GPS(0):velN,GPS(0):velE,GPS(0):velD,RC:Aileron,RC:Elevator,RC:Rudder,RC:Throttle,Controller:navHealth,Controller:ctrl_level,HP:Longitude,HP:Latitude,HP:rthHeight,BatBlackBox:tick,BatBlackBox:id,BatBlackBox:rsoc,BatBlackBox:index,BatBlackBox:rm,BatBlackBox:fcc,BatBlackBox:cell_min,BatBlackBox:cell_max,BatBlackBox:current,BatBlackBox:voltage,BatBlackBox:temp,BatBlackBox:flag,BatBlackBox:reserve,BatBlackBox:user_data,OA:avoidObst,OA:emergBrake,OA:radiusLimit,OA:airportLimit,OA:groundForceLanding,OA:horizNearBoundary,OA:vertLowLimit,OA:vertAirportLimit,OA:roofLimit,OA:hitGroundLimit,Motor:Speed:RFront,Motor:Speed:LFront,Motor:Speed:LBack,Motor:Speed:RBack,Motor:EscTemp:RFront,Motor:EscTemp:LFront,Motor:EscTemp:LBack,Motor:EscTemp:RBack,Motor:PPMrecv:RFront,Motor:PPMrecv:LFront,Motor:PPMrecv:LBack,Motor:PPMrecv:RBack,Motor:PPMsend:RFront,Motor:PPMsend:LFront,Motor:PPMsend:LBack,Motor:PPMsend:RBack,Motor:V_out:RFront,Motor:V_out:LFront,Motor:V_out:LBack,Motor:V_out:RBack,Motor:Volts:RFront,Motor:Volts:LFront,Motor:Volts:LBack,Motor:Volts:RBack,Motor:Current:RFront,Motor:Current:LFront,Motor:Current:LBack,Motor:Current:RBack,Motor:Status:RFront,Motor:Status:LFront,Motor:Status:LBack,Motor:Status:RBack,Motor:thrustAngle,IMU_ATTI(1):Longitude,IMU_ATTI(1):Latitude,IMU_ATTI(1):numSats,IMU_ATTI(1):barometer:Raw,IMU_ATTI(1):barometer:Smooth,IMU_ATTI(1):accel:X,IMU_ATTI(1):accel:Y,IMU_ATTI(1):accel:Z,IMU_ATTI(1):accel:Composite,IMU_ATTI(1):gyro:X,IMU_ATTI(1):gyro:Y,IMU_ATTI(1):gyro:Z,IMU_ATTI(1):gyro:Composite,IMU_ATTI(1):mag:X,IMU_ATTI(1):mag:Y,IMU_ATTI(1):mag:Z,IMU_ATTI(1):mag:Mod,IMU_ATTI(1):velN,IMU_ATTI(1):velE,IMU_ATTI(1):velD,IMU_ATTI(1):velComposite,IMU_ATTI(1):velH,IMU_ATTI(1):GPS-H,IMU_ATTI(1):roll,IMU_ATTI(1):pitch,IMU_ATTI(1):yaw,IMU_ATTI(1):yaw360,IMU_ATTI(1):totalGyro:Z,IMU_ATTI(1):totalGyro:X,IMU_ATTI(1):totalGyro:Y,IMU_ATTI(1):magYaw,IMU_ATTI(1):distanceHP,IMU_ATTI(1):distanceTravelled,IMU_ATTI(1):directionOfTravel[mag],IMU_ATTI(1):directionOfTravel[true],IMU_ATTI(1):temperature,IMUEX(0):err,IMUEX(0):rtk_Longitude,IMUEX(0):rtk_Latitude,IMUEX(0):rtk_Alti,IMUEX(1):err,IMUEX(1):rtk_Longitude,IMUEX(1):rtk_Latitude,IMUEX(1):rtk_Alti,MotorCtrl:Status,MotorCtrl:PWM:RFront,MotorCtrl:PWM:LFront,MotorCtrl:PWM:LBack,MotorCtrl:PWM:RBack,BattInfo:Voltage,BattInfo:BatVoltage,BattInfo:AdVoltage,BattInfo:AvgCurrent,BattInfo:R_time,BattInfo:R_CAP_MAH,BattInfo:LowCellVoltage,BattInfo:LowCellVolThreshold,BattInfo:BatCurrent,BattInfo:Remaining%,BattInfo:Temp,BattInfo:status,battery_info:BatDynCnt,battery_info:Vol1Protect,battery_info:Vol2Protect,battery_info:Cap1Protect,battery_info:Cap2Protect,battery_info:Batpresent,battery_info:sopPercentage,battery_info:sopValue,battery_info:sopScale,battery_info:sopFlg,BattInfo:WindHeading:WindDir,battery_info:home_dir,BattInfo:Wind:rangeMin,BattInfo:Wind:rangeMax,battery_info:cap_speed,battery_info:against_wind,battery_info:emergency_land_cap,battery_info:intel_bat_land_cap,battery_info:intel_bat_gh_cap,BattInfo:Smart:SmartGh,BattInfo:Smart:SmartLand,BattInfo:GoHome:CntDown,BattInfo:GoHome:GhCmd,BattInfo:GoHome:CapLevel,BattInfo:GoHome:LandCapLv,Attribute|Value,ConvertDatV3,3.6.6-Tablet
190373633,.000,10.400154050252132,63.420095509949995,17,133.73045,133.49808,0.07591816,0.05067529,-0.9801007,0.98434186,0.30890304,0.05539584,0.050031915,0.31779394,223,-349,1450,1507.0,-0.026421314,-0.03161436,0.006447267,0.041702766,0.04120137806614984,-0.04120137806614984,-2.9995559007784833,4.4353627346823,44.42983714667715,44.42983714667713,2.484408162238463,6.9658877464155635,1.345834109037019,39.08036790188504,0.7689985245473205,9.439594179616968,61.50020346898662,64.6556643816808,36.16,,,10.4001544,63.4200958,20190502,103449,2019-05-02T10:34:49Z,37.462,0.86,1.84,11.51,10,7,17,0.0,0.0,-0.01,-9998,-9998,9998,-9998,5,5,10.400139908612505,63.42009830086369,50,82717,114,30,67,1077,3592,3859,3868,3572,15453,22,3734,15546,0,false,false,false,false,false,false,false,false,false,false,0,0,0,0,42,53,53,42,944,944,944,945,940,940,940,940,0.0,0.0,0.0,0.0,1722.6,1715.9,1714.0,1722.0,0.0,0.0,0.0,0.0,0,0,0,0,-45.0,10.400154303627245,63.420095043812594,0,133.71194,133.34059,0.075635456,0.05025013,-0.98087853,0.98507285,0.26332435,-0.0013369095,0.18679172,0.32285082,220,-349,1450,1507.0,0.0018840736,2.5160811E-4,0.0013125036,0.0023099147,0.0019007998336547035,-0.0019007998336547035,-3.0320390072800443,4.5977133590489245,39.406924482715546,39.40692448271557,2.4765318839261026,6.784622863327157,1.4757229175579056,38.90196844128027,0.8025674494123944,7104257.157057634,80.576258921794,83.73171983448817,36.17,NONE,0.0,0.0,0.0,NONE,-8.593295677305877E-11,3.5907035666083327E-11,0.0,,,,,,17.306,17.306,6.186,1.2287554,0,3527,4.324,12.0,1.234,99,20.5,OK,46,0,0,0,0,0,65,100,0.0,0,0.0,-4.366083E-31,2.68E-43,0.0,-5.9807744E7,62,4.7683898E-8,-4.7684136E-8,1.9858368E-34,False,False,0,None,2.172933E30,1.0842106E-19,Firmware Date| Oct 17 2018
194227566,1.002,10.40015540453268,63.42009532737129,17,133.71329,133.5087,0.07498459,0.053705506,-0.97960967,0.9839421,0.17427894,-0.08315022,0.6729052,0.7000632,223,-355,1432,1492.0,-0.014317029,-0.038417473,-0.0039906204,0.04119229,0.04099853193512159,0.02926012780997727,-3.0234670958449237,4.524183069003783,44.439357890275375,44.439357890275346,2.6793519734958124,7.017101562646732,1.5131526069933579,39.65363681603706,0.8388857316454579,9.51223985552148,95.87601141065709,99.03147232335127,36.46,0.31948835351562366,,10.4001558,63.4200957,20190502,103450,2019-05-02T10:34:50Z,37.353,0.86,1.84,11.12,10,7,17,0.0,0.02,0.0,0,0,0,0,5,5,10.400139908612505,63.42009830086369,50,83087,19,40,68,1442,3592,3875,3878,0,15514,24,1,15504,0,false,false,false,false,false,false,false,false,false,false,499,494,502,529,46,57,59,45,1370,1379,1375,1373,1362,1362,1362,1362,0.1,0.1,0.1,0.1,1682.8,1677.9,1677.3,1684.0,8.08,7.57,8.25,7.66,0,0,0,0,-40.10090754621223,10.400155364738676,63.4200949397737,0,133.71329,133.34052,0.07566606,0.05256283,-0.9789091,0.98323506,0.1736567,-0.009722107,0.43131256,0.46506095,223,-355,1429,1489.0,-0.0012360974,-0.007517407,6.963603E-4,0.007650115,0.00761835587157613,0.04634104827092441,-3.058044525201789,4.701555584256399,39.52448986285463,39.52448986285464,2.5424538986225182,7.406453896693521,1.3778979143288475,39.23436061686386,0.855007597059028,7104257.228884725,81.4720225404433,84.62748345313749,36.45,NONE,0.0,0.0,0.0,NONE,-1.2351460191879886E-10,5.5885134725396836E-11,0.0,1,22.5,22.5,22.5,22.5,17.298,17.298,6.047,1.230855,0,3527,4.324,12.0,1.347,99,20.5,OK,47,0,0,0,0,0,65,100,0.0,0,0.0,-7.463171E-30,2.68E-43,0.0,-1.05007105E-23,62,4.7683898E-8,-4.7684136E-8,2.3099793E-34,False,False,0,None,2.5722073E30,1.0842106E-19,ACType|MavicEnterprise
198076872,2.002,10.400156205893929,63.42009563370767,17,133.71329,133.5093,0.07389631,0.048472803,-0.9821649,0.986133,2.1545062,-0.5100238,-0.47629043,2.2647016,223,-355,1447,1506.0,-0.0048433943,-0.016664283,-0.0029507566,0.017602948,0.01735387000638184,0.03506431971057394,-3.016926037474619,4.466908117774428,44.57507778292311,44.57507778292313,1.764397436190757,7.231359747731397,2.8178886948381345,39.612530456887264,0.8633846514469656,9.568210945692803,67.38596831802938,70.54142923072357,36.76,0.31948835351562366,,10.400157,63.4200959,20190502,103451,2019-05-02T10:34:51Z,37.361,0.86,1.84,10.89,10,7,17,0.0,0.0,-0.01,0,0,0,0,5,5,10.400139908612505,63.42009830086369,50,83280,48,40,69,1442,3592,3846,3847,0,15384,24,212,3,0,false,false,false,false,false,false,false,false,false,false,2077,2100,2208,2148,47,57,57,47,1205,1210,1214,1215,1200,1201,1206,1204,0.0,0.0,0.0,0.0,1712.8,1708.5,1707.9,1713.4,0.66,0.3,0.8,0.44,0,0,0,0,24.87654892225703,10.400156600628808,63.42009524867882,0,133.71329,133.34041,0.074088596,0.053643692,-0.9817478,0.98599976,0.982521,0.7951165,-1.4992301,1.9609306,223,-355,1447,1506.0,0.0013087542,-0.0029828134,0.0015291222,0.0035983648,0.003257301537356925,0.06714668457329061,-3.089750656007505,4.723681059129947,39.68095354686794,39.680953546867954,3.915656479800518,6.928062448281705,0.5076419944715782,38.887919442732795,0.8971598121627855,7104257.314413092,56.313657781145665,59.46911869383984,36.73,NONE,0.0,0.0,0.0,NONE,-3.057762340709344E-10,9.12902081018881E-11,0.0,2,10.0,10.24,11.22,11.09,17.098,17.098,6.149,1.317969,0,3525,4.324,12.0,5.266,99,20.6,OK,48,0,0,0,0,0,65,100,0.0,0,0.0,-5.04585E-27,2.68E-43,0.0,-1.05007105E-23,62,4.7683898E-8,-4.7684136E-8,2.4319369E-34,False,False,0,None,2.858713E30,1.0842106E-19,dateTime|2019-5-2 10:34:31 GMT
202051031,3.035,10.400157772189283,63.420095672836325,17,133.71329,133.50916,0.07102019,0.05622519,-0.9839147,0.9880755,-0.33429015,-1.3895158,-0.73710185,1.6080495,220,-355,1447,1506.0,-0.019722402,-0.022024006,-0.0016646307,0.029610824,0.029563997330056213,0.04600271490570887,-3.028589385196498,4.465790396786398,44.58934033930446,44.58934033930444,0.5488152193769504,8.046616211512358,3.5857729498153446,39.83594935504848,0.9355861390581982,9.653827192012454,114.52766924202761,117.6831301547218,36.98,0.31948835351562366,,10.4001586,63.420096,20190502,103452,2019-05-02T10:34:52Z,37.329,0.86,1.84,10.58,10,7,17,-0.01,-0.01,0.01,0,0,0,0,5,5,10.400139908612505,63.42009830086369,50,83280,48,40,70,1442,3592,3846,3847,0,15384,24,212,3,0,false,false,false,false,false,false,false,false,false,false,2076,2100,2196,2129,47,59,58,46,1204,1209,1215,1213,1200,1203,1207,1202,0.0,0.0,0.0,0.0,1713.4,1707.9,1707.3,1713.4,0.73,0.3,0.8,0.45,0,0,0,0,31.414008792111076,10.400157937539687,63.42009515952945,0,133.71329,133.34065,0.070428036,0.054163065,-0.98136514,0.98537874,0.8218284,-2.3792188,-3.5084796,4.318045,223,-355,1444,1503.0,-0.00875475,-0.0053767855,0.0023416874,0.010537503,0.010274019057730325,0.054836864735458214,-3.087196069499183,4.708879962750677,39.660914092566415,39.66091409256643,4.288215753566204,6.980012871096498,0.21052610008293599,38.96151263194947,0.9626157216267301,7104257.398533185,78.28440723168322,81.4398681443774,37.04,NONE,0.0,0.0,0.0,NONE,-2.2107730359949233E-10,-1.7150378171182718E-10,0.0,2,10.0,10.36,11.41,10.96,17.211,17.211,6.16,1.5548736,0,3525,4.229,12.0,2.407,99,20.6,OK,49,0,0,0,0,0,65,100,0.0,0,0.0,-1.2782929E-23,2.68E-43,0.0,-1.05007105E-23,62,4.7683898E-8,-4.7684136E-8,2.8552324E-34,False,False,0,None,3.8531657E30,1.0842106E-19,geoDeclination|316 degrees
205962672,4.052,10.400159136924941,63.42009583284255,17,133.71329,133.50504,0.0797638,0.05147036,-0.9772722,0.9818719,2.0077562,2.7601328,-0.6988565,3.4839373,226,-355,1447,1506.0,0.001240825,-0.035751753,-7.671155E-4,0.035781503,0.0357732782869572,0.033272218886601646,-3.0313819544351164,4.4574987115130575,44.53922805055244,44.539228050552424,-0.4555389950885776,8.273582875465776,2.1339721726629444,39.34543155337503,0.9952623854037774,9.735181682813641,87.65333214265462,90.8087930553488,37.37,0.31948835351562366,,10.4001598,63.420096,20190502,103453,2019-05-02T10:34:53Z,37.298,0.86,1.84,10.37,10,7,17,0.0,0.0,0.0,0,0,0,0,5,5,10.400139908612505,63.42009830086369,50,83280,48,40,71,1442,3592,3846,3847,0,15384,24,212,3,0,false,false,false,false,false,false,false,false,false,false,2079,2098,2183,2136,47,59,59,46,1207,1215,1211,1217,1200,1205,1207,1202,0.0,0.0,0.0,0.0,1713.4,1707.3,1707.3,1712.2,0.74,0.38,0.83,0.44,0,0,0,0,24.928474135461272,10.400159422493168,63.42009523480814,0,133.71329,133.27017,0.07644917,0.055777844,-0.9773924,0.9819631,-0.046797574,-0.9963565,-4.3104496,4.424352,226,-355,1447,1506.0,-0.029739102,0.010819399,0.063124396,0.070612766,0.03164606636259576,0.041493057937493194,-2.930642285898121,4.708372819620497,39.66517039587307,39.665170395873076,4.30342990234888,7.114868418861028,-0.08834215906558959,39.08985512396066,1.0290066818122132,7104257.483896608,86.2050217255188,89.36048263821299,37.36,NONE,0.0,0.0,0.0,NONE,5.676137392244751E-10,-5.634024768327475E-10,1.373291E-4,2,10.0,10.51,10.69,10.38,17.233,17.233,6.16,1.8214182,0,3524,4.304,12.0,1.846,99,20.6,OK,50,0,0,0,0,0,65,100,0.0,0,0.0,-5.3325232E-21,2.68E-43,0.0,-1.05007105E-23,62,4.7683898E-8,-4.7684136E-8,3.195773E-34,False,False,0,None,4.653262E30,1.0842106E-19,geoInclination|7479 degrees
209817501,5.053,10.400160280966514,63.4200957142558,17,133.71329,133.502,0.075891666,0.046473075,-0.9831583,0.98717755,0.7688985,-0.16977416,3.6319685,3.7163455,226,-355,1441,1501.0,-0.006204024,-0.020593895,-0.0035743688,0.021803085,0.02150810080389416,0.036811518233012805,-3.0018934487001045,4.473555364423864,44.52482593768783,44.52482593768781,-1.1142678104575179,9.333679622232701,2.134706603636835,39.459322317690514,1.0536162849960842,9.794633067952837,89.28973949653086,92.44520040922504,37.63,0.31948835351562366,,10.4001609,63.420096,20190502,103454,2019-05-02T10:34:54Z,37.262,0.86,1.84,10.18,10,7,17,0.0,0.01,0.01,0,0,0,0,5,5,10.400139908612505,63.42009830086369,50,83280,48,40,72,1442,3592,3846,3847,0,15384,24,212,3,0,false,false,false,false,false,false,false,false,false,false,2085,2081,2199,2159,47,60,59,46,1205,1207,1212,1208,1202,1200,1211,1211,0.0,0.0,0.0,0.0,1712.8,1706.7,1707.3,1714.6,0.74,0.34,0.87,0.45,0,0,0,0,10.619655276155129,10.40016039752501,63.420095172495714,0,133.71329,133.23648,0.07715082,0.058718387,-0.9768538,0.9816534,3.5382125,3.2372475,-7.237751,8.682382,226,-355,1441,1501.0,-0.044843752,0.0045451056,0.023421241,0.050795417,0.045073494355185734,0.0038396067550395332,-2.851836293963514,4.817074771178964,39.70243621071687,39.70243621071688,4.29141534986636,7.200834794680984,-0.27516627673526417,39.14220809316738,1.0771159602700717,7104257.5350936875,101.83250197613015,104.98796288882433,37.62,NONE,0.0,0.0,0.0,NONE,1.583664400899343E-10,-7.216879246673453E-10,4.5776367E-5,2,10.0,10.0,11.03,11.1,17.234,17.234,6.159,2.0056486,0,3524,4.304,12.0,1.848,99,20.6,OK,51,0,0,0,0,0,65,100,0.0,0,0.0,-2.6088036E-20,2.68E-43,0.0,-1.05007105E-23,62,4.7683898E-8,-4.7684136E-8,3.4432734E-34,False,False,0,None,5.398966E30,1.0842106E-19,geoIntensity|5185115 nanoTesla
213679154,6.057,10.400161208782276,63.4200955122864,17,133.71329,133.50307,0.074357666,0.043131627,-0.9842656,0.9880123,-3.7715793,-2.501832,6.0263004,7.5365953,223,-355,1444,1503.0,-0.009167818,-0.012982176,-0.0028056377,0.016138693,0.01589294811855095,0.03525685939994407,-2.9936021099182852,4.443477168408535,44.53188542336806,44.53188542336807,-1.1378057428288038,9.502135780413562,2.316253830178047,39.75816516571743,1.104192563665365,9.852020898551297,139.80568360227025,142.96114451496442,37.95,0.31948835351562366,,10.4001618,63.4200958,20190502,103455,2019-05-02T10:34:55Z,37.209,0.86,1.84,9.99,10,7,17,0.0,0.01,0.0,0,0,0,0,5,5,10.400139908612505,63.42009830086369,50,83281,16,40,73,1442,3592,3846,3847,0,15384,24,1,17516,0,false,false,false,false,false,false,false,false,false,false,2079,2078,2191,2148,47,59,59,47,1204,1207,1217,1211,1200,1203,1206,1203,0.0,0.0,0.0,0.0,1713.4,1707.9,1707.3,1712.2,0.73,0.34,0.86,0.45,0,0,0,0,12.994616791916485,10.400161245778424,63.420094944861084,0,133.71329,133.24232,0.075718746,0.047748987,-0.98311895,0.987186,-3.1319284,-3.3978431,4.4460773,6.412637,223,-355,1441,1500.0,-0.013490647,-6.577218E-4,-0.0021780329,0.013681154,0.013506670871091706,0.03552772516368578,-2.8727591813052538,4.7946853283458175,39.74902752608671,39.74902752608671,4.427433991271494,7.3473187745927175,-0.34161778911975077,39.37684587081335,1.1252801024095713,7104257.609497551,-173.03391864500222,-169.87845773230805,38.0,NONE,0.0,0.0,0.0,NONE,6.977845945634911E-11,-3.511728219973284E-10,0.0,2,10.31,10.0,11.4,11.52,17.232,17.232,6.158,2.1111207,0,3523,4.305,12.0,1.849,99,20.6,OK,52,0,0,0,0,0,65,100,0.0,0,0.0,-4.3656938E-20,2.68E-43,0.0,-1.05007105E-23,62,4.7683898E-8,-4.7684136E-8,3.6777846E-34,False,False,0,None,6.5008874E30,1.0842106E-19,
217557132,7.065,10.400162144187178,63.42009532645774,17,133.71329,133.49913,0.076313116,0.052527957,-0.9799225,0.9842921,1.3558927,1.053012,-2.036244,2.6633754,220,-355,1444,1503.0,-0.013800052,-0.020741781,0.0044977115,0.025315853,0.024913107658730553,0.02561007185472757,-2.9358226819952375,4.421644438894059,44.47316863969681,44.47316863969684,-0.8861059511979393,9.717929539184826,2.175381614708128,40.2076657654555,1.1546820657359376,9.91454598088246,122.03554655260544,125.19100746529962,38.27,0.31948835351562366,,10.4001626,63.4200955,20190502,103456,2019-05-02T10:34:56Z,37.14,0.86,1.84,9.83,10,7,17,-0.01,0.01,0.0,0,0,0,0,5,5,10.400139908612505,63.42009830086369,50,83281,18,40,74,1445,3598,3897,3903,3561,15598,24,1,15683,0,false,false,false,false,false,false,false,false,false,false,2082,2087,2187,2157,48,60,59,47,1204,1210,1213,1215,1200,1204,1206,1202,0.0,0.0,0.0,0.0,1714.0,1707.3,1707.3,1712.8,0.73,0.28,0.86,0.42,0,0,0,0,11.30993247402023,10.40016216788663,63.420094729630016,0,133.71329,133.18625,0.0764914,0.056609336,-0.97635496,0.9809814,2.4935262,1.7251948,-3.2304995,4.4305863,220,-355,1444,1503.0,-0.034071166,0.019618366,0.05197004,0.06516601,0.03931570540920161,0.012025664473711374,-2.7797229805952703,4.718311831415538,39.64864820009149,39.648648200091486,4.670163830052436,7.849744604527418,-0.2674820014881588,39.98401872676121,1.1765218661939638,7104257.68279126,147.03462794898806,150.19008886168223,38.27,NONE,0.0,0.0,0.0,NONE,9.347733347199377E-10,-7.5615600879896E-10,1.2207031E-4,2,10.0,10.15,11.26,10.66,17.232,17.232,6.158,2.1576278,0,3522,4.304,12.0,1.846,99,20.6,OK,53,0,0,0,0,0,65,100,0.0,0,0.0,-6.698922E-21,2.68E-43,0.0,-1.05007105E-23,62,4.7683898E-8,-4.7684136E-8,3.947576E-34,False,False,0,None,7.543697E30,1.0842106E-19,
221476014,8.083,10.400162767494479,63.420095007354774,17,133.71329,133.4915,0.075771496,0.042416953,-0.98244363,0.9862738,-3.2063055,-2.612342,5.6003194,6.961918,226,-355,1444,1504.0,-0.033222593,-0.025385072,0.009410907,0.04285683,0.04181079582544394,0.004458071979981444,-2.922408597799498,4.410688508152866,44.48038416126709,44.48038416126707,-0.47237567976107836,9.558044956268823,1.9959465973527535,39.76153252240553,1.194821844052598,9.969968270589895,84.44132694522742,87.5967878579216,38.55,0.31948835351562366,,10.4001634,63.4200954,20190502,103457,2019-05-02T10:34:57Z,37.117,0.86,1.84,9.7,10,7,17,-0.01,0.0,0.01,0,0,0,0,5,5,10.400139908612505,63.42009830086369,50,84347,19,70,75,2508,3620,4108,4111,0,16442,28,1,16431,0,false,false,false,false,false,false,false,false,false,false,2096,2102,2204,2158,47,59,59,46,1206,1213,1212,1212,1200,1200,1209,1206,0.0,0.0,0.0,0.0,1712.8,1707.3,1707.3,1713.4,0.7,0.33,0.8,0.36,0,0,0,0,17.592424562181577,10.400162837442691,63.42009453594683,0,133.71329,132.94844,0.07588972,0.05874784,-0.97755915,0.98225886,5.281908,5.068007,-4.733721,8.717302,226,-355,1444,1504.0,-0.045465983,0.014848511,0.18498652,0.19106974,0.04782921648836339,-0.008881473264303504,-2.724060614746652,4.814896848080173,39.61993350580055,39.61993350580053,4.81538639478965,8.123755068129194,0.1990306675743918,39.43721935038162,1.2151824822265402,7104257.759712073,42.112405387917185,45.26786630061136,38.53,NONE,0.0,0.0,0.0,NONE,8.694074661429626E-10,-1.7918046812978256E-9,4.4250488E-4,2,10.0,10.86,10.91,10.11,17.23,17.23,6.157,2.1624813,0,3522,4.304,12.0,1.846,99,20.6,OK,54,0,0,0,0,0,65,100,0.0,0,0.0,-1.2565067E-22,2.68E-43,0.0,-1.05007105E-23,62,4.7683898E-8,-4.7684136E-8,4.442459E-34,False,False,0,None,8.7062776E30,1.0842106E-19,
225331572,9.085,10.400163641798562,63.420094825319566,17,133.71329,133.49358,0.07621327,0.05443714,-0.97573316,0.9802179,0.5898453,1.0163834,-0.5924845,1.3160511,226,-355,1444,1504.0,-0.02161281,0.003453168,0.0028130491,0.02206697,0.021886935181852262,0.025993914187803637,-2.9494370181340845,4.408754619606239,44.46934073311701,44.46934073311701,-0.3588176376890536,10.004000752979351,2.3427815749057985,39.69558491247062,1.242446261987971,10.029839181461348,131.34706322233563,134.5025241350298,38.87,0.31948835351562366,,10.4001641,63.4200951,20190502,103458,2019-05-02T10:34:58Z,37.085,0.86,1.84,9.58,10,7,17,-0.01,0.0,0.01,0,0,0,0,5,5,10.400139908612505,63.42009830086369,50,84643,16,70,76,2506,3618,4062,4067,-1150,16216,27,0,15644,0,false,false,false,false,false,false,false,false,false,false,2089,2104,2208,2167,48,61,59,47,1205,1206,1212,1210,1202,1200,1209,1210,0.0,0.0,0.0,0.0,1712.8,1706.7,1707.9,1713.4,0.68,0.3,0.83,0.37,0,0,0,0,17.10272896905235,10.400163488884443,63.420094369838516,0,133.71329,133.053,0.07486225,0.04403584,-0.98044676,0.9842862,-5.893876,-3.4812927,4.774467,8.345819,226,-355,1447,1506.0,-0.014713755,0.00940804,0.017662724,0.024839034,0.01746441484208109,0.019764628357748337,-2.755892229534237,4.783157157765803,39.616069596474965,39.61606959647497,5.1884496242194045,8.095068933209989,0.1997299632101421,39.386241062542496,1.251988389859665,7104257.830496381,1.9766178585778662,5.132078771272042,38.86,NONE,0.0,0.0,0.0,NONE,4.48062971386707E-10,-3.233975846259715E-10,4.5776367E-5,2,10.0,10.77,11.12,10.16,17.228,17.228,6.152,2.1399887,0,3521,4.304,12.0,1.837,99,20.6,OK,55,0,0,0,0,0,65,100,0.0,0,0.0,-9.017884E-23,2.68E-43,0.0,-1.05007105E-23,62,4.7683898E-8,-4.7684136E-8,4.865402E-34,False,False,0,None,9.700034E30,1.0842106E-19,
229257510,10.106,10.400163941819603,63.420094398867946,17,133.71329,133.49535,0.07410783,0.054199737,-0.98201007,0.9862927,4.9120235,0.6071711,-3.6025875,6.1217046,226,-355,1444,1504.0,-0.01730973,-0.008836552,-0.0028866497,0.019648006,0.01943479952354282,0.02928772481724382,-2.8975957803850294,4.396696407706028,44.383504103026326,44.383504103026326,-0.9044758414485148,10.678663500361544,3.1746737723145473,39.8550070594548,1.272025171912064,10.083334803989835,153.0825190996943,156.23798001238848,39.14,0.31948835351562366,,10.4001643,63.4200948,20190502,103459,2019-05-02T10:34:59Z,37.048,0.86,1.84,9.5,10,7,17,0.0,-0.01,0.0,0,0,0,0,5,5,10.400139908612505,63.42009830086369,50,84643,20,70,77,2506,3618,4037,4047,-1840,16216,27,2,15644,0,false,false,false,false,false,false,false,false,false,false,2095,2092,2197,2153,47,60,60,47,1205,1211,1215,1217,1200,1204,1206,1200,0.0,0.0,0.0,0.0,1712.8,1706.7,1707.3,1712.8,0.67,0.32,0.83,0.4,0,0,0,0,14.118921303056368,10.400163817432668,63.42009391204085,0,133.71329,133.05089,0.07542456,0.053774722,-0.9799072,0.9842757,1.1877165,1.2034364,-0.28749228,1.715104,226,-355,1444,1504.0,-0.024890963,0.035495035,0.0042475797,0.043560296,0.043352710420033,0.00904679080280335,-2.633801515162094,4.660252399328101,39.53343691423009,39.533436914230094,5.213658726352961,8.496396330062101,0.08505466140334636,39.9812435656425,1.2857647414474864,7104257.906485614,-161.5903732981979,-158.43491238550374,39.18,NONE,0.0,0.0,0.0,NONE,8.289651041925088E-10,-4.5256921893224756E-10,0.0,2,13.48,16.53,18.68,16.47,17.229,17.229,6.155,2.101524,0,3521,4.304,12.0,1.843,99,20.6,OK,56,0,0,0,0,0,65,100,0.0,0,0.0,-2.7336744E-24,2.68E-43,0.0,-1.05007105E-23,62,4.7683898E-8,-4.7684136E-8,5.191249E-34,False,False,0,None,1.0789885E31,1.0842106E-19,mcID(SN)|298DG13001W644
233116919,11.109,10.400163836596002,63.4200947459199,17,133.71329,133.73938,0.051338512,0.022255693,-1.2051991,1.2064973,-6.187323,11.168295,0.8794195,12.7979355,289,-277,1426,1481.0,0.16508104,0.081553474,-1.1228763,1.1378726,0.18412691171279105,-0.14530115267507918,0.6909482864155199,2.367033695350331,45.69924267083107,45.69924267083104,1.4068079897660688,16.56275361380875,-2.543914112434984,40.249079779813826,1.254415101169843,10.167472587310083,30.028441769448385,33.18390268214256,39.48,0.31948835351562366,,10.4001643,63.420095,20190502,103500,2019-05-02T10:35:00Z,37.16,0.86,1.84,9.39,10,7,17,0.05,-0.03,-0.24,0,0,0,6661,5,5,10.400139908612505,63.42009830086369,50,84643,20,70,77,2506,3618,4037,4047,-1840,16216,27,2,15644,0,false,false,false,false,false,false,true,false,false,false,6097,6330,4812,5238,46,58,59,46,1597,1610,1486,1535,1605,1560,1459,1542,0.0,0.0,0.0,0.0,1643.5,1636.1,1636.7,1643.5,5.56,5.42,4.5,4.47,0,0,0,0,-175.35806452139968,10.400163857408879,63.42009435087914,0,133.71329,133.1509,0.04402065,0.02039922,-1.2163191,1.2172863,1.7493111,12.710724,6.806841,14.524313,301,-279,1426,1483.0,0.13386892,0.1598379,-0.9966391,1.0182134,0.2084923058194768,-0.15980336177585502,1.224320883039862,2.596361891934575,40.77437302820285,40.77437302820283,3.973525988176899,13.840483763384459,-2.787022276046824,40.287213851094215,1.2699137915600678,7104258.015129029,7.477882449240193,10.633343361934369,39.45,NONE,0.0,0.0,0.0,NONE,7.761937360518931E-9,3.1450950122258435E-9,-0.0023956299,2,59.31,61.78,44.41,46.47,17.154,17.154,5.987,2.0726352,0,3520,4.304,12.0,2.673,99,20.6,OK,57,0,0,0,0,0,65,100,0.0,0,0.0,5.8515274E-22,9.0E-44,0.0,1.05007105E-23,63,4.7683898E-8,-4.7684136E-8,4.715221E-35,False,False,0,None,1.6089352E29,1.0842106E-19,mcVer|v3.4.1.6
237067835,12.136,10.40016642189285,63.42009508347313,17,135.58731,134.78488,0.032174844,0.041691344,-0.8262954,0.8279719,-8.662935,2.477581,47.98384,48.82247,183,-409,1411,1480.0,-0.01936556,0.037652105,-0.24081492,0.24450876,0.04234035723368075,0.08815159991836154,-2.6544478968206615,1.865686625959578,63.663806895061555,63.663806895061555,18.959221479531042,11.558660580256696,-5.299484223716519,56.24086459904965,1.366785188847546,10.361079762835692,174.12879873369724,177.2842596463914,39.74,2.1935117910156237,,10.4001667,63.4200953,20190502,103501,2019-05-02T10:35:01Z,38.416,0.86,1.84,9.32,10,7,17,0.0,0.15,-0.9,0,0,9998,0,5,5,10.400139908612505,63.42009830086369,50,85195,17,64,79,2300,3618,3985,3988,-1067,15947,30,0,15942,0,false,false,false,false,false,false,true,false,false,false,5351,5260,3745,3995,46,60,59,45,1525,1504,1340,1389,1511,1495,1358,1387,0.0,0.0,0.0,0.0,1668.7,1663.1,1662.5,1669.3,5.22,3.98,1.89,2.25,0,0,0,0,-173.22648709097157,10.400165744100434,63.42009455718512,0,135.23323,134.0155,0.033482652,0.0423067,-0.82072186,0.8224934,-12.39261,-9.437097,47.581635,50.06643,186,-404,1411,1479.0,-0.047462296,0.14996609,-0.0984268,0.18555412,0.15729748565655333,-0.06318969495730703,-2.249427137031415,1.8555490373586576,58.365251673322405,58.365251673322405,21.670376999883064,9.73799185239464,-3.134575256073216,56.325447894175745,1.3511353274215567,7104258.202648982,-58.642778045589566,-55.48731713289539,39.71,NONE,0.0,0.0,0.0,NONE,2.225311824494668E-8,-1.2891728828457358E-9,-0.0042419434,2,47.97,48.46,32.7,33.51,16.706,16.706,6.004,2.2032957,0,3519,4.303,12.0,8.53,99,20.6,OK,58,0,0,0,0,0,65,100,0.0,0,0.0,7.203748E-30,2.69E-43,0.0,1.05007105E-23,63,9.584619E-8,-6.5806056E-8,7.5462714E-35,False,False,0,None,3.4914745E29,1.5718501E-19,
240943755,13.143,10.400165790139617,63.420094915171816,17,135.63907,135.00902,0.06711757,0.024626754,-0.9910733,0.9936486,4.1720877,28.763859,-2.9790127,29.217125,-293,-412,1377,1466.0,-0.07237755,-0.35494873,-0.21896207,0.42328656,0.36225282035609024,-0.32593779830189734,-1.3083234103105954,13.905419717231746,88.75411319850392,88.75411319850389,44.14121362053418,13.636525509590452,6.5084811329071695,82.70821442422938,0.1684811487076344,10.519225743067064,-102.90129325372293,-99.74583234102874,40.07,2.2452696035156237,,10.4001665,63.420095,20190502,103502,2019-05-02T10:35:02Z,38.723,0.86,1.84,9.29,10,7,17,0.06,-0.11,-0.5,0,-9124,0,0,5,5,10.400163628693855,63.420093748786776,50,85203,48,64,80,2300,3618,3999,4003,0,16000,30,212,5,0,false,false,false,false,false,false,true,false,false,false,5811,5881,3967,4296,46,58,58,47,1568,1558,1370,1435,1558,1540,1367,1430,0.0,0.0,0.0,0.0,1658.8,1653.3,1652.7,1658.2,5.18,4.5,2.54,3.08,0,0,0,0,-175.68052419415184,10.400164425412289,63.420094133568085,0,135.76642,134.01886,0.0746613,0.02877476,-0.9965722,0.9997792,5.992717,31.518871,3.7352393,32.300217,-339,-409,1371,1470.0,-0.07309758,-0.40731946,0.02248864,0.41443714,0.41382653332404706,-0.3336469695908548,-0.8912505434536776,16.254182052543374,84.00563035552047,84.00563035552045,46.810601757378244,10.157470896865336,10.144909681604272,81.19734634547464,0.058325993561908006,7104258.473330708,-108.0015125309829,-104.84605161828871,40.12,NONE,0.0,0.0,0.0,NONE,-1.099732295837502E-8,-1.190118994486632E-9,3.0517578E-5,2,56.49,55.32,30.9,35.06,16.731,16.731,5.956,2.626018,0,3517,4.27,12.0,5.956,99,20.7,OK,59,0,0,0,0,0,65,100,0.0,0,0.0,3.085945E-26,2.69E-43,0.0,1.05007105E-23,63,9.661926E-8,-6.619168E-8,6.617631E-35,False,False,0,None,2.7848332E29,1.5781367E-19,
244821132,14.151,10.400130541360335,63.420099308654216,17,134.81273,135.34474,0.1366263,-0.02054107,-0.9782576,0.9879659,1.2756143,-41.873234,34.046917,53.983215,-408,-320,1362,1457.0,0.9118755,-2.496156,-0.20856135,2.6656723,2.6575009261494813,-0.8509065629843064,1.3655159951150893,10.558269590361357,112.12063475162141,112.12063475162142,58.419293431227814,10.832950307807383,4.340009521502887,113.46998235570518,1.7584750052656288,12.378937170355185,-73.16760989955685,-70.01214898686267,40.4,1.4189298818359362,,10.4001415,63.4200979,20190502,103503,2019-05-02T10:35:03Z,39.049,0.86,1.84,9.24,10,7,17,0.62,-2.1,-0.39,0,-992,7220,0,5,5,10.400163628693855,63.420093748786776,50,85203,48,64,81,2300,3618,3999,4003,0,16000,30,212,5,0,false,false,false,false,false,false,true,false,false,false,5207,5283,3655,3503,45,59,59,46,1491,1488,1386,1369,1498,1506,1371,1330,0.0,0.0,0.0,0.0,1671.7,1668.0,1666.2,1672.3,3.69,2.58,2.91,2.44,0,0,0,0,176.08550245550126,10.400130554723452,63.420097574649695,0,135.1853,134.199,0.13446309,-0.020131657,-0.9700371,0.97951907,1.6678058,-40.701656,31.583143,51.54514,-420,-326,1356,1456.0,0.21114537,-2.432759,-0.032219224,2.4421172,2.4419047342662017,-0.7270472196037854,1.331572924834158,10.34253381576623,107.80216389815442,107.80216389815439,61.309471362507445,6.3307433912732884,6.62984387784445,115.58788802728857,1.6996523197190592,7104260.273940699,-51.40187163928985,-48.24641072659568,40.37,NONE,0.0,0.0,0.0,NONE,-9.956913471808821E-8,-8.602963290259849E-10,3.0517578E-5,2,52.44,51.89,26.28,24.01,16.735,16.735,5.985,3.2440298,0,3515,4.137,12.0,7.335,99,20.7,OK,60,0,0,0,0,0,65,100,0.0,0,0.0,-2.4531513E25,8.8E-44,0.0,1.05007105E-23,63,1.1268639E-7,-7.422616E-8,1.2263524E-33,False,False,0,None,5.210366E31,1.7085334E-19,
248746127,15.171,10.400098390363683,63.42010379303853,17,134.93065,135.16634,0.078428484,-0.011245644,-0.9703574,0.9735867,4.1748013,13.794249,-0.77342075,14.432895,10,-375,1423,1471.0,0.1347261,-0.64964646,0.18323988,0.6883084,0.6634694087530257,0.9790808908968689,-3.2205865664542146,-3.4194570598923724,133.24990537461989,133.24990537461986,67.93980881184598,9.060941396540281,-9.63178116794956,104.4748862187938,3.4326246330629786,14.071313218490667,-90.61152078078881,-87.45605986809463,40.73,1.5368498037109362,,10.4001013,63.4201034,20190502,103504,2019-05-02T10:35:04Z,39.177,0.86,1.84,9.22,10,7,17,0.32,-1.25,-0.15,0,0,0,0,5,5,10.400163628693855,63.420093748786776,50,85203,48,64,82,2300,3618,3999,4003,0,16000,30,212,5,0,false,false,false,false,false,false,true,false,false,false,5811,6208,3130,3187,46,61,61,47,1570,1582,1288,1272,1546,1578,1309,1298,0.0,0.0,0.0,0.0,1661.9,1657.6,1657.0,1661.3,5.42,4.32,1.48,1.66,0,0,0,0,176.58759622901644,10.400098250242884,63.420104768155426,0,134.86195,134.33781,0.071602575,-0.009710856,-0.9761911,0.97886175,9.554207,17.705898,0.78185284,20.134375,19,-381,1423,1473.0,-0.11056138,-0.33264914,0.21091552,0.40910223,0.3505413909068252,1.4094069896452301,-3.161852963594135,-3.705812835589951,119.44910284355386,119.44910284355387,71.14882398539858,4.2474422491856885,-9.795092925240933,103.81251087951138,3.475942140910548,7104262.100016964,-51.28062364225504,-48.12516272956086,40.72,NONE,0.0,0.0,0.0,NONE,-8.245736052809692E-8,-6.308727959723551E-9,0.0015106201,2,50.33,56.55,27.27,25.54,16.781,16.781,5.981,3.923003,0,3513,4.17,12.0,6.422,98,20.7,OK,61,0,0,0,0,0,65,100,0.0,0,0.0,-2.547027E33,8.8E-44,0.0,1.05007105E-23,63,1.316912E-7,-8.060717E-8,3.268082E-32,False,False,0,None,1.7995885E34,1.8120964E-19,
252595651,16.171,10.400090190816128,63.420103395049665,17,134.38196,134.94283,0.07118995,-0.0052629537,-0.9873362,0.9899134,1.3961867,-14.143378,0.9640876,14.244786,-198,-363,1392,1452.0,0.011640046,-0.1486984,0.15301752,0.21368451,0.14915329486190107,0.26100297849589815,-3.2108540377802743,1.6244363468917993,133.8262493366577,133.82624933665772,68.64530818317944,9.756908564891992,-2.4704632768877755,119.04082014288137,3.8079891244805046,14.499211744952055,-158.61191620249548,-155.4564552898013,40.97,0.9881590078124987,,10.400092,63.4201031,20190502,103505,2019-05-02T10:35:05Z,39.1,0.86,1.84,9.17,10,7,17,-0.06,-0.28,-0.02,0,0,0,0,5,5,10.400163628693855,63.420093748786776,50,85203,48,64,83,2300,3618,3999,4003,0,16000,30,212,5,0,false,false,false,false,false,false,true,false,false,false,5640,5933,3297,3353,48,62,60,48,1533,1593,1349,1294,1544,1570,1310,1309,0.0,0.0,0.0,0.0,1660.7,1653.9,1655.2,1660.7,4.52,5.26,2.46,0.58,0,0,0,0,177.24383017755082,10.400090002956428,63.42010327542533,0,134.54314,134.28581,0.074134916,-0.007296874,-0.986234,0.98904335,-0.054528814,-13.2904215,2.9230022,13.608168,-201,-363,1392,1452.0,-0.09843063,-0.087952144,0.14784198,0.19819541,0.1320006436644741,0.31042213013706865,-3.0885815033336717,1.4636457578965454,121.93653634520358,121.93653634520359,71.66335505686315,5.688391217938241,-3.163076418536335,119.84415541483028,3.8132417358169657,7104262.768785289,-164.3605499961937,-161.20508908349953,40.98,NONE,0.0,0.0,0.0,NONE,-6.385216236105983E-9,-3.609576806516839E-9,3.8146973E-4,2,52.36,54.06,23.26,27.93,16.777,16.777,5.971,4.5804844,0,3511,4.164,12.0,6.568,98,20.7,OK,62,0,0,0,0,0,65,100,0.0,0,0.0,-2.8674965E27,8.8E-44,0.0,1.05007105E-23,63,1.2220335E-7,-7.823521E-8,5.9562787E-32,False,False,0,None,5.4321364E34,1.773616E-19,
256573779,17.205,10.400092306249375,63.420102734506365,17,134.16206,134.73526,0.07022802,0.0023703566,-0.9943791,0.9968588,-4.5622354,2.8056247,0.32781962,5.3659096,-207,-334,1402,1456.0,-0.041569903,0.19112349,0.14736474,0.24489304,0.19559203171725703,-0.07145498833106674,-1.7007551338335383,2.915456806559659,133.84558558910163,133.84558558910163,68.67966551418608,9.840049195988176,-3.189847397241073,114.7863220604781,3.6865375580032853,14.653528657042362,104.97718385218701,108.13264476488119,41.29,0.7682645986328112,,10.400092,63.4201027,20190502,103506,2019-05-02T10:35:06Z,39.034,0.86,1.84,9.17,10,7,17,-0.05,0.11,0.04,0,0,0,0,5,5,10.400163628693855,63.420093748786776,50,85205,16,64,84,2300,3618,4000,4004,0,16003,30,1,17508,0,false,false,false,false,false,false,true,false,false,false,5704,5994,3276,3436,46,61,60,46,1535,1570,1333,1336,1530,1566,1326,1342,0.0,0.0,0.0,0.0,1660.7,1654.6,1653.9,1660.0,4.56,4.44,2.3,2.1,0,0,0,0,178.5064652623639,10.400091262762105,63.420102243891556,0,134.37344,134.22629,0.071250774,0.0025575478,-0.99207085,0.9946295,1.7557527,0.6245471,1.7159327,2.5332098,-207,-331,1402,1455.0,-0.050821282,0.20377474,0.1429423,0.25404614,0.21001653600483383,-0.08359179576944939,-1.5551812225656785,2.7370793867966077,122.0466251822844,122.0466251822844,72.31637283076537,4.472490754876513,-2.69949090102444,115.45823938111465,3.7223214165704435,7104263.01496675,109.36016331828964,112.51562423098382,41.26,NONE,0.0,0.0,0.0,NONE,8.218452427144059E-9,-1.3289282385254967E-9,3.5095215E-4,2,51.62,54.7,25.21,29.46,16.748,16.748,5.968,5.1563225,0,3509,4.19,12.0,6.44,98,20.7,OK,63,0,0,0,0,0,65,100,0.0,0,0.0,-3.5095447E25,8.8E-44,0.0,1.05007105E-23,63,1.15365765E-7,-7.5564934E-8,4.8600588E-32,False,False,0,None,3.9160262E34,1.7302717E-19,
260428783,18.207,10.400096083797127,63.420102034130714,17,134.85701,134.58466,0.06869499,0.02066103,-0.98765653,0.9902582,-8.896995,-1.6139693,-3.0419989,9.540187,-250,-311,1399,1454.0,-0.039025955,0.15316364,0.1205413,0.19877708,0.15805735171031118,0.045000093508596656,-0.592575952395207,5.009249775480395,134.05202369777206,134.05202369777203,68.40016180568307,10.218445222095452,-0.742470868515759,113.12300947907549,3.4846009068102917,14.874415367568742,123.22641166645852,126.3818725791527,41.56,1.4632108876953112,,10.4000969,63.4201017,20190502,103507,2019-05-02T10:35:07Z,38.945,0.86,1.84,9.18,10,7,17,-0.08,0.18,0.07,0,0,0,0,5,5,10.400163628693855,63.420093748786776,50,85205,18,64,85,2305,3626,4038,4043,3568,16152,30,1,16215,0,false,false,false,false,false,false,true,false,false,false,5626,5798,3464,4036,46,61,61,46,1537,1570,1347,1396,1539,1553,1317,1394,0.0,0.0,0.0,0.0,1657.0,1652.1,1651.5,1657.6,4.6,4.56,2.41,2.63,0,0,0,0,-174.17955636029274,10.40009535663621,63.420101128289254,0,134.71432,134.17543,0.06874598,0.022160076,-0.98139566,0.98405004,-7.6382947,2.0048907,-3.002919,8.448708,-247,-311,1402,1457.0,-0.026131375,0.13523701,0.12390173,0.18526612,0.13773851190457206,0.10029630008959667,-0.338673094848657,5.016818115029436,122.20066510079253,122.20066510079255,71.7365705089441,6.071549808388494,-0.31556763302415386,112.16108259850402,3.4944915184531995,7104263.267620893,76.46907650320037,79.62453741589455,41.56,NONE,0.0,0.0,0.0,NONE,2.5263244418820805E-8,-1.7666393050290737E-9,8.392334E-4,2,51.52,54.49,25.18,33.62,16.743,16.743,5.956,5.631771,0,3508,4.179,12.0,6.462,98,20.8,OK,64,0,0,0,0,0,65,100,0.0,0,0.0,-1.1409311E24,8.8E-44,0.0,1.05007105E-23,63,1.1078373E-7,-7.3274826E-8,3.3656575E-32,False,False,0,None,1.8729855E34,1.6930817E-19,
264317105,19.218,10.400099325021877,63.42010175586038,17,135.58948,134.53456,0.054285858,0.02198328,-1.0015527,1.0032637,1.7468928,-5.791191,1.1539588,6.1580153,-230,-331,1392,1449.0,0.022737546,0.06887084,0.066556536,0.0984376,0.07252716086989111,0.08996182464011954,-1.5310745942986068,3.1816294852972713,133.977805614759,133.977805614759,69.45492769421791,11.052944866666394,-1.505674055518191,117.35238149881962,3.320920333124766,15.049410707491289,68.80149471619332,71.9569556288875,41.94,2.1956785390624987,,10.4000994,63.4201013,20190502,103508,2019-05-02T10:35:08Z,38.957,0.86,1.84,9.18,10,7,17,0.0,0.07,0.05,0,0,0,0,5,5,10.400163628693855,63.420093748786776,50,87616,114,99,86,3626,3626,4385,4389,288,17589,27,3610,17576,0,false,false,false,false,false,false,true,false,false,false,5723,5896,3808,4342,48,60,59,47,1550,1572,1374,1411,1550,1569,1351,1404,0.0,0.0,0.0,0.0,1652.1,1645.3,1646.6,1652.7,4.82,4.6,2.44,2.66,0,0,0,0,-174.0589238139508,10.400098509404744,63.42010078778867,0,135.4098,134.12602,0.05371764,0.022540383,-1.003208,1.004898,4.351886,-3.1489537,3.360285,6.3361135,-233,-334,1392,1450.0,0.00916933,0.035724837,0.10281993,0.10923497,0.0368827957993833,0.12279784773188154,-1.2758839746017672,3.3093168325449365,122.129719121738,122.12971912173799,71.37577089052748,4.639923750133628,-2.625169996690829,116.62341097644375,3.3331250533577506,7104263.48085317,135.63163810336738,138.78709901606155,41.93,NONE,0.0,0.0,0.0,NONE,2.182652392372652E-9,1.0467585608745742E-10,2.746582E-4,2,54.45,56.19,27.45,34.74,16.72,16.72,5.939,6.0088577,0,3504,4.175,12.0,6.756,98,20.8,OK,65,0,0,0,0,0,65,100,0.0,0,0.0,-1.13770294E24,8.8E-44,0.0,1.05007105E-23,63,1.06332664E-7,-7.104838E-8,2.3803389E-32,False,False,0,None,1.0683759E34,1.6569504E-19,
268170695,20.219,10.400101659329113,63.42010157629735,17,135.29538,134.50496,0.05507764,-0.018980566,-1.0039953,1.005684,12.212605,-9.447366,6.6155753,16.797806,-259,-271,1408,1457.0,0.15400894,0.15645072,0.07123938,0.23080431,0.21953492178510475,-0.1018709338280011,1.9921882059816067,4.3277660091051935,133.42222796314437,133.42222796314434,71.62666757878357,19.158825714233522,1.4065339444311995,115.53758991543644,3.2037009015962767,15.187934884629973,53.05723304291916,56.21269395561333,42.19,1.9015806386718737,,10.400102,63.4201012,20190502,103509,2019-05-02T10:35:09Z,38.928,0.86,1.84,9.16,10,7,17,0.11,0.19,0.02,0,0,0,0,5,5,10.400163628693855,63.420093748786776,50,88065,48,99,87,3577,3577,4391,4395,178,17595,26,212,17601,0,false,false,false,false,false,false,true,false,false,false,5713,5933,4118,4067,48,61,60,48,1548,1581,1376,1385,1540,1573,1384,1373,0.0,0.0,0.0,0.0,1653.3,1646.6,1645.9,1652.1,4.98,4.74,2.51,2.22,0,0,0,0,175.52281426085392,10.400100977116258,63.42010084952297,0,135.4037,134.11101,0.056200296,-0.016588304,-1.0018086,1.003521,13.969883,-7.4550295,8.689105,18.061995,-262,-279,1405,1456.0,0.15832461,0.10479103,0.09160595,0.21080676,0.18986269342233186,-0.06708122879612231,2.1354484808074874,4.534916070166429,121.56827143154369,121.56827143154368,73.84970177947272,11.208124357654457,0.3109398006294065,114.51036008695935,3.21558849464724,7104263.627275336,51.61260024352798,54.76806115622215,42.18,NONE,0.0,0.0,0.0,NONE,4.216922757794519E-9,3.356587952666729E-9,1.6784668E-4,2,49.98,56.22,35.58,32.45,16.688,16.688,5.939,6.308394,0,3502,4.174,12.0,6.934,98,20.8,OK,66,0,0,0,0,0,65,100,0.0,0,0.0,-7.075433E24,8.8E-44,0.0,1.05007105E-23,63,1.0497206E-7,-7.036808E-8,1.9983126E-32,False,False,0,None,7.6621556E33,1.6459324E-19,
272027779,21.222,10.400102994801955,63.420101671723764,17,134.68033,134.49226,0.07575769,-4.9692206E-4,-0.99382144,0.9967048,5.6761703,4.5587807,10.8142605,13.036472,-227,-271,1411,1454.0,-0.021444606,0.057273608,0.009655476,0.06191418,0.06115666120804659,0.005966215307295415,1.1632248696809573,4.086445306937502,133.4851549503884,133.4851549503884,73.35108811375147,20.47327842748847,1.774750514528454,112.85691459251574,3.142765226639859,15.276716915565816,125.75276524804652,128.9082261607407,42.49,1.2865293691406237,,10.4001036,63.4201016,20190502,103510,2019-05-02T10:35:10Z,38.97,0.86,1.84,9.14,10,7,17,-0.01,0.05,-0.02,0,0,0,0,5,5,10.400163628693855,63.420093748786776,50,88065,48,99,88,3577,3577,4391,4395,178,17595,26,212,17601,0,false,false,false,false,false,false,true,false,false,false,5616,5699,3828,3869,47,61,61,48,1542,1549,1356,1373,1533,1541,1356,1368,0.0,0.0,0.0,0.0,1657.6,1650.2,1650.2,1657.0,4.52,4.42,2.4,2.35,0,0,0,0,179.3349047397273,10.400102844831514,63.4201011416482,0,134.62749,134.07552,0.07585995,-0.0024759388,-0.99061924,0.9935227,9.941837,8.613176,12.215232,17.951012,-227,-271,1411,1454.0,-0.023245066,0.042923518,0.02694407,0.055756114,0.04881353637197115,0.049386357673366674,1.3247097689564653,4.129534446337854,121.62200371799105,121.62200371799105,75.46008121652385,12.10986075283888,0.7464082499989266,112.42698278741553,3.133954152192568,7104263.744612244,17.751840560438218,20.907301473132392,42.47,NONE,0.0,0.0,0.0,NONE,2.4554839845365276E-9,1.9007636436199097E-11,7.6293945E-5,2,51.87,51.55,28.61,32.16,16.678,16.678,5.946,6.547084,0,3500,4.163,12.0,6.929,98,20.8,OK,67,0,0,0,0,0,65,100,0.0,0,0.0,-1.6948101E26,8.8E-44,0.0,-7.246437E30,63,1.016997E-7,-6.873281E-8,1.7242062E-32,False,False,0,None,5.601431E33,1.6193633E-19,
275887956,22.225,10.40010281470892,63.420101331374696,17,134.98886,134.46822,0.06318134,0.024657216,-0.9717977,0.9741615,-11.412258,-2.129048,-12.706017,17.210907,-242,-343,1392,1453.0,-0.04870327,-0.077204235,0.03250563,0.09689746,0.09128253993448804,-0.052516890040857266,-1.8457780640403159,4.015367902637833,133.80645399260388,133.8064539926039,74.00517671166911,18.209220892638566,1.8613630649998465,115.66848407523432,3.140997554200398,15.338151471974935,-125.0382990886836,-121.88283817598942,42.82,1.5950620839843737,,10.4001033,63.420101,20190502,103511,2019-05-02T10:35:11Z,39.018,0.86,1.84,9.15,10,7,17,-0.05,-0.08,-0.01,0,0,0,0,5,5,10.400163628693855,63.420093748786776,50,88065,48,99,89,3577,3577,4391,4395,178,17595,26,212,17601,0,false,false,false,false,false,false,true,false,false,false,5772,5756,3659,4110,48,60,60,48,1557,1565,1351,1404,1559,1551,1343,1398,0.0,0.0,0.0,0.0,1652.1,1645.9,1645.9,1651.5,5.19,4.41,2.0,2.56,0,0,0,0,-172.9181351190455,10.400102470798013,63.42010055698954,0,135.15709,134.0516,0.065882094,0.012077124,-1.0082147,1.0104371,-0.06689786,-1.1675333,2.2051566,2.4960618,-242,-343,1392,1453.0,-0.05625174,-0.0657106,0.02840202,0.09104293,0.08649936603819604,-0.01909578791792739,-1.7650555527836247,3.5906803107421625,122.07417286224204,122.07417286224205,75.68942529183693,7.743185483970725,0.7742102720111608,117.134484754391,3.1355885698141064,7104263.846280121,-161.1173070737332,-157.96184616103903,42.84,NONE,0.0,0.0,0.0,NONE,-3.3122707676409116E-9,-1.304298663564145E-9,9.1552734E-5,2,54.5,55.35,27.84,33.91,16.663,16.663,5.936,6.726169,0,3498,4.161,12.0,6.691,98,20.8,OK,68,0,0,0,0,0,65,100,0.0,0,0.0,-9.022524E24,8.8E-44,0.0,-7.246437E30,63,9.978248E-8,-6.77742E-8,1.7105516E-32,False,False,0,None,5.4987514E33,1.6038123E-19,
279765417,23.233,10.400102837782674,63.42010128647869,17,134.29816,134.48724,0.08550818,-0.0032212106,-0.92252594,0.9264859,25.122946,7.107372,9.457981,27.769238,-230,-305,1402,1453.0,0.019178387,0.09411869,-0.036738984,0.10283916,0.0960527912323482,-0.09096960467834779,0.5665710291154213,3.872620239831203,133.520231328888,133.52023132888803,75.68203113751485,23.165120240944198,1.6921857260451059,112.946832841257,3.138554843474961,15.399673661577387,64.97197309463613,68.12743400733031,43.17,0.9043577382812487,,10.4001033,63.4201011,20190502,103512,2019-05-02T10:35:12Z,39.054,0.86,1.84,9.16,10,7,17,0.04,0.05,-0.04,0,0,0,0,5,5,10.400163628693855,63.420093748786776,50,88065,48,99,90,3577,3577,4391,4395,178,17595,26,212,17601,0,false,false,false,false,false,false,true,false,false,false,5418,5695,3340,3260,48,62,62,48,1519,1530,1328,1303,1512,1551,1312,1260,0.0,0.0,0.0,0.0,1663.7,1658.8,1658.2,1663.1,4.3,3.35,2.02,1.5,0,0,0,0,175.47704688500437,10.400102508288747,63.42010079740905,0,134.31136,134.0609,0.08047612,-0.0069436417,-0.9436526,0.9471034,23.460232,3.9196386,6.1657367,24.571575,-230,-305,1402,1453.0,0.04751861,0.079374135,-0.027099699,0.09639847,0.09251092612650971,-0.06591818813187947,0.5295778233214352,3.85287064528885,121.68293226809354,121.68293226809351,77.63606469261569,11.92492534303178,1.3286965450098465,113.07737242573387,3.140343706411167,7104263.927879576,46.12763450083116,49.28309541352533,43.17,NONE,0.0,0.0,0.0,NONE,2.0438433770166577E-9,9.415472911442346E-10,-4.5776367E-5,2,49.31,55.1,23.1,17.52,16.688,16.688,5.96,6.8461933,0,3496,4.156,12.0,6.851,98,20.8,OK,69,0,0,0,0,0,65,100,0.0,0,0.0,-9.5911263E24,8.8E-44,0.0,-7.246437E30,63,9.9724275E-8,-6.77451E-8,1.753396E-32,False,False,0,None,5.820893E33,1.6033491E-19,
283690412,24.253,10.400103959141793,63.420101470429564,17,134.93996,134.44641,0.09176544,1.742877E-4,-1.0067203,1.0108941,-5.5284777,0.8036332,-8.862595,10.476425,-256,-291,1395,1447.0,0.02785602,0.009180528,-0.014102876,0.032544296,0.02932984761611559,0.028922975135617777,0.5539680569959011,5.020087121464797,133.41241134401128,133.41241134401128,73.2581838189683,20.64232295921443,2.0756179403993302,113.62829441144312,3.090445504840201,15.47577628771361,37.763205569767635,40.91866648246181,43.42,1.5461576650390612,,10.4001046,63.4201013,20190502,103513,2019-05-02T10:35:13Z,39.097,0.86,1.84,9.18,10,7,17,0.0,0.0,-0.01,0,0,0,0,5,5,10.400163628693855,63.420093748786776,50,88066,114,100,91,3577,3577,4391,4395,178,17595,26,3626,17601,0,false,false,false,false,false,false,true,false,false,false,5743,5674,3896,3860,49,62,62,49,1551,1541,1381,1376,1542,1535,1361,1358,0.0,0.0,0.0,0.0,1654.6,1647.8,1649.6,1654.6,4.9,3.89,2.5,2.08,0,0,0,0,-179.48355380559155,10.400103791903758,63.420100975037904,0,134.6863,134.04071,0.09412835,0.001743203,-1.0100983,1.0144762,-12.984239,-1.0997823,-13.827007,18.999634,-259,-291,1395,1448.0,-0.008600733,-0.005637031,-0.007771203,0.012889544,0.01028341987418564,0.055249189719485864,0.6967081684103742,4.9694652053093495,121.62326035508785,121.62326035508784,75.77223171470442,10.256812587041363,0.5337861758643363,114.06146834054441,3.083629188237238,7104264.02414685,7.422719137039808,10.578180049733984,43.42,NONE,0.0,0.0,0.0,NONE,-2.3932592489569116E-10,-1.1217182697330172E-10,0.0,2,53.34,55.03,31.72,29.03,16.675,16.675,5.938,6.9185967,0,3494,4.16,12.0,6.764,98,20.9,OK,70,0,0,0,0,0,65,100,0.0,0,-3.7274E-36,-6.504912E25,-6.505576E-38,NaN,-7.246552E30,63,9.836731E-8,-6.7066615E-8,1.5449668E-32,False,False,0,None,4.7231077E33,1.592298E-19,
287539627,25.253,10.400104102098076,63.42010152873254,17,134.60788,134.43369,0.080050625,-0.0022251862,-0.9950085,0.9982259,-6.1662903,-4.1929703,-12.090348,14.204951,-262,-311,1392,1450.0,0.015254583,-0.011120874,0.008428774,0.020674149,0.018877928146702447,-0.009257877377456699,-0.22407082778829,4.9818606341128975,133.60304632767708,133.60304632767708,73.6508244158983,20.29779514652625,2.1052599872210527,114.62019482759946,3.0854249716013107,15.51114462528447,175.49656256038872,178.6520234730829,43.69,1.2140806386718737,,10.4001046,63.4201012,20190502,103514,2019-05-02T10:35:14Z,39.153,0.86,1.84,9.19,10,7,17,-0.02,-0.02,0.01,0,0,0,0,5,5,10.400163628693855,63.420093748786776,50,88066,19,100,92,3577,3577,4391,4395,178,17595,26,1,17601,0,false,false,false,false,false,false,true,false,false,false,5638,5779,3863,3892,49,62,61,49,1540,1554,1367,1390,1533,1548,1360,1370,0.0,0.0,0.0,0.0,1653.9,1647.8,1647.8,1653.3,4.66,4.38,2.33,2.04,0,0,0,0,178.24819018072606,10.400103880108658,63.42010076993368,0,134.99629,134.05235,0.08097474,-0.004369205,-0.9956407,0.99893767,-11.360471,-8.424176,-13.060566,19.251114,-262,-314,1392,1450.0,0.008127654,-0.01917342,0.012801753,0.024445117,0.020824955411157538,0.0023908420838695786,-0.1361194926126631,4.9660100741416375,121.87468012955013,121.87468012955014,76.19255518239056,9.759179860859286,1.1859867716535866,114.32623273159744,3.073520323865019,7104264.064813044,,,43.71,NONE,0.0,0.0,0.0,NONE,-8.998654758495468E-10,-2.645006320963936E-10,4.5776367E-5,2,51.32,52.37,30.62,31.46,16.64,16.64,5.943,6.9185967,0,3494,4.156,12.0,6.764,98,20.9,OK,70,0,0,0,0,0,65,100,0.0,0,-5.923456E-36,-3.5511456E25,-1.2127809E-37,NaN,-7.246552E30,63,9.960968E-8,-6.768689E-8,1.518899E-32,False,False,0,None,4.6250232E33,1.6023896E-19,
291484719,26.278,10.400103518213133,63.42010132237204,17,135.40175,134.44316,0.067639835,-0.0070786085,-0.9572262,0.95963913,7.5913644,6.647947,2.648875,10.432668,-250,-323,1392,1450.0,0.02759802,-0.032064095,0.036139213,0.05563991,0.04230551758037221,-0.00619974427057781,-0.5279715437754358,4.6990125626309585,133.4948260631557,133.4948260631557,73.76279028363528,22.08460515857032,2.7352556900432963,113.50389480517764,3.1070229919021797,15.564063616778713,-122.19382288096428,-119.0383619682701,44.0,2.007949657226561,,10.4001042,63.4201011,20190502,103515,2019-05-02T10:35:15Z,39.093,0.86,1.84,9.16,10,7,17,-0.01,-0.07,0.01,0,0,0,0,5,5,10.400163628693855,63.420093748786776,50,354066,16,99,93,3526,3582,4322,4330,-1374,17199,22,0,16657,0,false,false,false,false,false,false,true,false,false,false,5696,5710,4194,4130,49,62,61,49,1555,1563,1419,1396,1552,1560,1396,1397,0.0,0.0,0.0,0.0,1646.6,1639.8,1640.5,1647.8,4.85,4.36,3.42,2.46,0,0,0,0,178.55025405211813,10.400103361723504,63.420100641073525,0,135.40439,134.05278,0.06616874,-0.0057610963,-0.9538985,0.95620805,-1.8247645,5.648178,-2.670151,6.5085626,-250,-323,1392,1450.0,0.015348749,-0.04497774,0.05717327,0.074346244,0.04752453165834419,-0.01874844664746286,-0.5161849274623714,4.689555459606795,121.79471907682677,121.79471907682677,76.29353797554128,9.59215068530212,1.6130235590212232,113.52147300362284,3.094893585529373,7104264.124385563,-108.38747040565204,-105.23200949295786,44.01,NONE,0.0,0.0,0.0,NONE,-2.18265241210534E-9,2.9957105997180007E-10,1.373291E-4,2,54.3,54.15,34.64,36.61,16.656,16.656,5.93,6.953496,0,3493,4.15,12.0,6.721,98,20.9,OK,71,0,0,0,0,0,65,100,0.0,0,-5.527342E-36,-1.2579424E25,-1.2127809E-37,NaN,-7.246552E30,63,9.9797035E-8,-6.777966E-8,1.580777E-32,False,False,0,None,4.857637E33,1.6038785E-19,
295435752,27.305,10.400103320797426,63.420101903882276,17,135.68579,134.4762,0.06311899,-0.022631481,-0.9800125,0.9823038,-5.573164,-0.99795896,0.31919223,5.670799,-210,-265,1417,1456.0,0.07730724,-0.011720922,-0.012445512,0.079174995,0.07819072223941011,-0.014498490682331555,1.239659434621238,2.7699025722114694,134.8297885513528,134.8297885513528,75.53545787532143,24.26569906570147,0.8049593673932698,115.59151249745446,3.1345697505079215,15.643446037700278,5.084406737521039,8.239867650215215,44.3,2.2919920156249987,,10.400104,63.4201016,20190502,103516,2019-05-02T10:35:16Z,39.018,0.86,1.84,9.16,10,7,17,0.09,-0.02,-0.01,0,0,0,0,5,5,10.400163628693855,63.420093748786776,50,354066,20,99,94,3526,3582,4322,4330,-1374,17199,22,2,16657,0,false,false,false,false,false,false,true,false,false,false,5707,5761,4161,4145,48,62,62,49,1544,1568,1406,1385,1531,1566,1414,1379,0.0,0.0,0.0,0.0,1647.2,1640.5,1641.7,1647.8,4.84,4.36,2.59,2.05,0,0,0,0,178.73179963260225,10.400102994580115,63.42010123089338,0,135.73863,134.04764,0.06262003,-0.020364005,-0.9791556,0.98136723,-4.273075,1.735735,-1.4383847,4.8312416,-210,-265,1417,1456.0,0.058487233,-0.0271769,0.013036513,0.065797344,0.0644929466630326,0.001807787154038426,1.3226100227984816,2.7321371144805418,123.18605178366388,123.18605178366386,77.52487690752409,11.184001493361066,-0.1016307814972082,115.5880452098813,3.129388730017305,7104264.201965994,-6.863846017138183,-3.708385104444007,44.3,NONE,0.0,0.0,0.0,NONE,-1.9911917077152502E-9,1.7387971735875994E-9,4.5776367E-5,2,52.5,55.28,35.25,34.11,16.628,16.628,5.923,6.9613423,0,3489,4.144,12.0,7.245,98,20.9,OK,73,0,0,0,0,0,65,100,0.0,0,-9.920112E-36,-9.932789E26,-1.7313932E-37,NaN,-7.246552E30,63,9.928954E-8,-6.752682E-8,1.7145013E-32,False,False,0,None,5.528383E33,1.5997757E-19,
299311783,28.313,10.400104117336186,63.420102056265144,17,135.63228,134.53024,0.070055544,0.0014511663,-1.010809,1.0132347,-10.893795,1.4238405,-27.326504,29.452332,-239,-242,1423,1463.0,0.023381025,0.026682612,-0.015969872,0.038905922,0.03547723256990234,0.00730876680541271,1.671640220958294,3.8458356807199863,133.25637292923733,133.25637292923733,73.43633182839072,23.525624035474912,1.0980838479690078,116.85998451921519,3.1016589682612064,15.721738221261477,111.83280630479845,114.98826721749263,44.64,2.238479442382811,,10.4001047,63.4201017,20190502,103517,2019-05-02T10:35:17Z,38.911,0.86,1.84,9.14,10,7,17,0.02,0.03,-0.02,0,0,-195,0,5,5,10.400163628693855,63.420093748786776,50,354067,114,99,95,3525,3582,4282,4292,-2850,17266,22,3577,17358,0,false,false,false,false,false,false,true,false,false,false,5754,5704,4212,3622,52,63,63,51,1563,1547,1432,1282,1561,1525,1421,1288,0.0,0.0,0.0,0.0,1650.2,1642.9,1643.5,1648.4,5.53,3.44,4.7,0.09,0,0,0,0,171.52490638501382,10.40010424704369,63.42010139852438,0,135.4242,134.06335,0.06909861,-0.015502095,-0.94434243,0.946994,4.583525,-2.264205,-0.19906032,5.116146,-227,-262,1423,1464.0,0.015998716,0.030338801,0.003153282,0.034443356,0.03429871338607393,0.03026857522190285,1.500010836063004,3.917673266420417,120.62557780893808,120.62557780893809,73.29050931145014,9.558541539069273,0.5841534015886349,113.44669605830609,3.0744661283796293,7104264.304635536,118.27032888981044,121.42578980250462,44.67,NONE,0.0,0.0,0.0,NONE,1.5556185371195145E-9,4.895135679803896E-10,3.0517578E-5,2,55.12,49.99,35.12,23.16,16.612,16.612,5.923,6.973608,0,3487,4.14,12.0,7.096,98,20.9,OK,74,0,0,0,0,0,65,100,0.0,0,-3.4251072E-34,-2.3017096E27,-5.9779624E-36,NaN,-7.246552E30,63,1.005792E-7,-6.817256E-8,1.5286039E-32,False,False,0,None,4.6615474E33,1.6102644E-19,
303189269,29.320,10.400104547576392,63.42010188594923,17,135.35,134.526,0.06382927,-0.028191831,-0.98891026,0.991369,-13.07629,-1.4162169,-7.6318793,15.206598,-213,-288,1408,1452.0,0.008371373,-0.026824962,0.023831887,0.03684586,0.028100862219982647,2.6062083012767107E-4,0.468798653184457,3.6471600615656525,131.60064609309117,131.6006460930912,72.6661644579602,23.41846183707435,-0.6819036386361745,112.35198885964675,3.0756063345028353,15.785758246752886,-97.15674277783076,-94.00128186513658,44.98,1.9562071035156237,,10.4001051,63.4201016,20190502,103518,2019-05-02T10:35:18Z,38.76,0.86,1.84,9.14,10,7,17,0.02,-0.03,0.02,0,0,0,0,5,5,10.400163628693855,63.420093748786776,50,354086,48,99,96,3517,3582,4328,4333,-1052,17300,22,212,17300,0,false,false,false,false,false,false,true,false,false,false,5665,5903,4241,4244,50,63,64,50,1558,1578,1401,1383,1552,1578,1381,1364,0.0,0.0,0.0,0.0,1647.8,1640.5,1641.1,1645.9,4.94,4.31,3.09,1.76,0,0,0,0,175.64108929620252,10.400104277934066,63.42010110121673,0,135.48213,134.04536,0.065663494,-0.027625423,-0.99231416,0.994868,-13.206205,-4.190337,-6.7721825,15.421583,-213,-288,1411,1455.0,-7.7956455E-4,-0.025884591,0.025990885,0.03668986,0.025896327434788976,0.006944254228582216,0.5462429986617207,3.589757488005041,120.09898172899044,120.09898172899045,74.08204104937356,9.13932863320752,0.4768120340526349,112.4273247708297,3.0640030897800803,7104264.383740332,-136.04180193152652,-132.88634101883235,44.95,NONE,0.0,0.0,0.0,NONE,-1.1152588172947613E-9,1.263606257219697E-10,1.8310547E-4,2,51.6,55.26,34.8,32.47,16.609,16.609,5.909,6.9917483,0,3485,4.144,12.0,6.969,98,20.9,OK,75,0,0,0,0,0,65,100,0.0,0,-3.6849006E-32,-4.018332E26,-6.4313936E-34,NaN,-7.246552E30,63,9.9003955E-8,-6.738494E-8,1.4865494E-32,False,False,0,None,4.5034872E33,1.5974927E-19,
307038539,30.321,10.400104153757345,63.42010169248276,17,135.98718,134.56107,0.06415611,-0.030490547,-0.9854488,0.9880055,-0.5562585,-4.7084794,-3.4292276,5.851393,-233,-303,1402,1453.0,-0.016950607,-0.008246074,0.035016723,0.039767973,0.018849955891616005,0.010236450454816033,0.32467534529786296,4.188058128189377,131.4884696115014,131.4884696115014,70.66112558851218,19.622264364685797,0.1005735485022729,112.70743724181813,3.0881166508649476,15.821543468035973,-166.03352115590354,-162.87806024320938,45.3,2.5933836171874987,,10.4001049,63.4201014,20190502,103519,2019-05-02T10:35:19Z,38.613,0.86,1.84,9.15,10,7,17,-0.04,-0.03,0.02,0,0,0,0,5,5,10.400163628693855,63.420093748786776,50,354086,17,99,97,3517,3582,4328,4333,-1052,17300,22,0,17300,0,false,false,false,false,false,false,true,false,false,false,5687,5922,4167,3909,51,64,64,51,1552,1572,1380,1363,1539,1574,1404,1348,0.0,0.0,0.0,0.0,1647.8,1642.3,1641.7,1648.4,5.18,4.59,2.16,1.76,0,0,0,0,172.05615824565092,10.400104095165279,63.42010088611445,0,135.93698,134.04456,0.06621021,-0.029686235,-0.98082215,0.98350245,-2.3685126,-7.813598,-3.5151927,8.889249,-233,-305,1402,1453.0,-0.012175297,5.943417E-4,0.039523438,0.041360527,0.012189795724130805,0.013388328604666029,0.26651264212408576,4.1692889645431395,120.0418715867616,120.0418715867616,72.2318912195882,7.255155288317093,-0.8247809646502573,112.73854555917265,3.066490676242256,7104264.441805214,169.52829146608238,172.68375237877655,45.29,NONE,0.0,0.0,0.0,NONE,-6.701125921713352E-11,-8.202732158002029E-10,1.373291E-4,2,51.48,56.5,36.44,32.46,16.599,16.599,5.919,6.9917483,0,3485,4.144,12.0,6.969,98,20.9,OK,75,0,0,0,0,0,65,100,0.0,0,-6.33499E-30,-9.206666E25,-1.1056717E-31,NaN,-7.246552E30,63,9.8949386E-8,-6.7355835E-8,1.4953139E-32,False,False,0,None,4.536367E33,1.5970295E-19,
