Tick#,offsetTime,IMU_ATTI(0):Longitude,IMU_ATTI(0):Latitude,IMU_ATTI(0):numSats,IMU_ATTI(0):barometer:Raw,IMU_ATTI(0):barometer:Smooth,IMU_ATTI(0):accel:X,IMU_ATTI(0):accel:Y,IMU_ATTI(0):accel:Z,IMU_ATTI(0):accel:Composite,IMU_ATTI(0):gyro:X,IMU_ATTI(0):gyro:Y,IMU_ATTI(0):gyro:Z,IMU_ATTI(0):gyro:Composite,IMU_ATTI(0):mag:X,IMU_ATTI(0):mag:Y,IMU_ATTI(0):mag:Z,IMU_ATTI(0):mag:Mod,IMU_ATTI(0):velN,IMU_ATTI(0):velE,IMU_ATTI(0):velD,IMU_ATTI(0):velComposite,IMU_ATTI(0):velH,IMU_ATTI(0):GPS-H,IMU_ATTI(0):roll,IMU_ATTI(0):pitch,IMU_ATTI(0):yaw,IMU_ATTI(0):yaw360,IMU_ATTI(0):totalGyro:Z,IMU_ATTI(0):totalGyro:X,IMU_ATTI(0):totalGyro:Y,IMU_ATTI(0):magYaw,IMU_ATTI(0):distanceHP,IMU_ATTI(0):distanceTravelled,IMU_ATTI(0):directionOfTravel[mag],IMU_ATTI(0):directionOfTravel[true],IMU_ATTI(0):temperature,General:relativeHeight,General:absoluteHeight,GPS(0):Long,GPS(0):Lat,GPS(0):Date,GPS(0):Time,GPS:dateTimeStamp,GPS(0):heightMSL,GPS(0):hDOP,GPS(0):pDOP,GPS(0):sAcc,GPS(0):numGPS,GPS(0):numGLNAS,GPS(0):numSV,GPS(0):velN,GPS(0):velE,GPS(0):velD,RC:Aileron,RC:Elevator,RC:Rudder,RC:Throttle,Controller:navHealth,Controller:ctrl_level,HP:Longitude,HP:Latitude,HP:rthHeight,BatBlackBox:tick,BatBlackBox:id,BatBlackBox:rsoc,BatBlackBox:index,BatBlackBox:rm,BatBlackBox:fcc,BatBlackBox:cell_min,BatBlackBox:cell_max,BatBlackBox:current,BatBlackBox:voltage,BatBlackBox:temp,BatBlackBox:flag,BatBlackBox:reserve,BatBlackBox:user_data,OA:avoidObst,OA:emergBrake,OA:radiusLimit,OA:airportLimit,OA:groundForceLanding,OA:horizNearBoundary,OA:vertLowLimit,OA:vertAirportLimit,OA:roofLimit,OA:hitGroundLimit,Motor:Speed:RFront,Motor:Speed:LFront,Motor:Speed:LBack,Motor:Speed:RBack,Motor:EscTemp:RFront,Motor:EscTemp:LFront,Motor:EscTemp:LBack,Motor:EscTemp:RBack,Motor:PPMrecv:RFront,Motor:PPMrecv:LFront,Motor:PPMrecv:LBack,Motor:PPMrecv:RBack,Motor:PPMsend:RFront,Motor:PPMsend:LFront,Motor:PPMsend:LBack,Motor:PPMsend:RBack,Motor:V_out:RFront,Motor:V_out:LFront,Motor:V_out:LBack,Motor:V_out:RBack,Motor:Volts:RFront,Motor:Volts:LFront,Motor:Volts:LBack,Motor:Volts:RBack,Motor:Current:RFront,Motor:Current:LFront,Motor:Current:LBack,Motor:Current:RBack,Motor:Status:RFront,Motor:Status:LFront,Motor:Status:LBack,Motor:Status:RBack,Motor:thrustAngle,IMU_ATTI(1):Longitude,IMU_ATTI(1):Latitude,IMU_ATTI(1):numSats,IMU_ATTI(1):barometer:Raw,IMU_ATTI(1):barometer:Smooth,IMU_ATTI(1):accel:X,IMU_ATTI(1):accel:Y,IMU_ATTI(1):accel:Z,IMU_ATTI(1):accel:Composite,IMU_ATTI(1):gyro:X,IMU_ATTI(1):gyro:Y,IMU_ATTI(1):gyro:Z,IMU_ATTI(1):gyro:Composite,IMU_ATTI(1):mag:X,IMU_ATTI(1):mag:Y,IMU_ATTI(1):mag:Z,IMU_ATTI(1):mag:Mod,IMU_ATTI(1):velN,IMU_ATTI(1):velE,IMU_ATTI(1):velD,IMU_ATTI(1):velComposite,IMU_ATTI(1):velH,IMU_ATTI(1):GPS-H,IMU_ATTI(1):roll,IMU_ATTI(1):pitch,IMU_ATTI(1):yaw,IMU_ATTI(1):yaw360,IMU_ATTI(1):totalGyro:Z,IMU_ATTI(1):totalGyro:X,IMU_ATTI(1):totalGyro:Y,IMU_ATTI(1):magYaw,IMU_ATTI(1):distanceHP,IMU_ATTI(1):distanceTravelled,IMU_ATTI(1):directionOfTravel[mag],IMU_ATTI(1):directionOfTravel[true],IMU_ATTI(1):temperature,IMUEX(0):err,IMUEX(0):rtk_Longitude,IMUEX(0):rtk_Latitude,IMUEX(0):rtk_Alti,IMUEX(1):err,IMUEX(1):rtk_Longitude,IMUEX(1):rtk_Latitude,IMUEX(1):rtk_Alti,MotorCtrl:Status,MotorCtrl:PWM:RFront,MotorCtrl:PWM:LFront,MotorCtrl:PWM:LBack,MotorCtrl:PWM:RBack,BattInfo:Voltage,BattInfo:BatVoltage,BattInfo:AdVoltage,BattInfo:AvgCurrent,BattInfo:R_time,BattInfo:R_CAP_MAH,BattInfo:LowCellVoltage,BattInfo:LowCellVolThreshold,BattInfo:BatCurrent,BattInfo:Remaining%,BattInfo:Temp,BattInfo:status,battery_info:BatDynCnt,battery_info:Vol1Protect,battery_info:Vol2Protect,battery_info:Cap1Protect,battery_info:Cap2Protect,battery_info:Batpresent,battery_info:sopPercentage,battery_info:sopValue,battery_info:sopScale,battery_info:sopFlg,BattInfo:WindHeading:WindDir,battery_info:home_dir,BattInfo:Wind:rangeMin,BattInfo:Wind:rangeMax,battery_info:cap_speed,battery_info:against_wind,battery_info:emergency_land_cap,battery_info:intel_bat_land_cap,battery_info:intel_bat_gh_cap,BattInfo:Smart:SmartGh,BattInfo:Smart:SmartLand,BattInfo:GoHome:CntDown,BattInfo:GoHome:GhCmd,BattInfo:GoHome:CapLevel,BattInfo:GoHome:LandCapLv,Attribute|Value,ConvertDatV3,3.6.6-Tablet
128326564,.000,9.103200848545335,62.69004418318796,12,528.7255,528.6774,0.15290904,0.0073842136,-0.97038907,0.9823903,0.30655897,-0.065252505,0.16081236,0.3522739,-260,376,1446,1516.0,0.008870973,0.031689033,0.03394999,0.04728098,0.03290727939539775,-0.03290727939539775,-0.4624084044811142,8.955329597302526,-87.52742496338718,272.47257503661285,-100.67518534030336,72.95678743328412,64.46036423790076,-94.75113728418282,2.4697191902064124,9.473602384771695,74.61059327652804,77.11510519146874,28.45,,,9.1031995,62.6900441,20190821,180120,2019-08-21T18:01:20Z,625.355,0.92,1.88,10.98,6,6,12,0.01,-0.02,0.0,-9997,-9996,9993,-9998,4,4,9.103204168474425,62.690022024761184,120,3581029,16,53,318,1928,3696,3866,3881,-1314,15554,26,0,15418,0,false,false,false,false,false,false,false,false,false,false,0,0,0,0,41,52,51,41,944,944,944,945,940,940,940,940,0.0,0.0,0.0,0.0,1726.3,1718.3,1718.3,1726.9,0.0,0.0,0.0,0.0,0,0,0,0,-45.0,9.103199711893815,62.690043567923965,0,528.8603,529.13696,0.1528019,0.008292427,-0.97015524,0.9821499,0.13980018,0.0058576344,0.08425332,0.16333103,-260,373,1440,1510.0,0.0012611685,-0.0011187706,2.3298379E-4,0.0017019034,0.001685880683918036,-0.001685880683918036,-0.4533253067247115,8.722043358208934,-93.02572920869483,266.9742707913052,1.6903176860704316,4.9332696180280315,0.14032861437450633,-95.80595467297825,2.4062557742088013,7012182.33833923,178.843568763523,-178.6519193215363,28.16,NONE,0.0,0.0,0.0,NONE,1.8087452457100638E-11,7.28134775497138E-11,0.0,,,,,,17.349,17.349,6.205,1.193666,0,3452,4.326,12.0,1.206,99,23.3,OK,31,0,0,0,0,0,65,100,0.0,0,0.0,197.0586,9.0E-44,0.0,0.0,0,4.9476867E-11,-4.94771E-11,2.034746E-33,False,False,0,None,1.973803E36,1.0842106E-19,Firmware Date| Oct 17 2018
132180602,1.002,9.103201138827483,62.69004408086631,12,528.8502,528.6841,0.15667202,0.004173929,-0.9686168,0.9812146,0.45589036,0.04215231,-0.16932271,0.4881424,-263,364,1422,1491.0,0.003985313,0.03028913,0.016761,0.034846023,0.030550190666076584,-0.011905673966246904,-0.4508399712879858,8.940785226696459,-87.517233724826,272.482766275174,-100.83328402406208,73.15314606390974,64.40741112661037,-95.9736332796149,2.457392566975672,9.517148419133003,90.80179731825687,93.30630923319758,28.7,0.13781772656250268,,9.1032002,62.6900441,20190821,180121,2019-08-21T18:01:21Z,625.336,0.92,1.88,10.85,6,6,12,0.01,0.02,0.0,0,0,0,0,4,4,9.103204168474425,62.690022024761184,120,3581029,20,53,319,1928,3696,3866,3881,-1314,15554,26,2,15418,0,false,false,false,false,false,false,false,false,false,false,533,492,487,524,44,55,55,44,1361,1369,1365,1364,1352,1352,1352,1352,0.1,0.1,0.1,0.1,1692.0,1684.0,1684.0,1692.0,8.2,7.67,8.36,7.82,0,0,0,0,-100.17551084304318,9.103200834159768,62.69004363488831,0,528.91394,529.12915,0.15216373,0.008673563,-0.9709825,0.9828713,-0.05629918,0.088392355,-0.7098465,0.71754086,-263,364,1434,1502.0,-3.243704E-4,-0.007698611,0.010739991,0.013218216,0.007705441319873709,0.04993604964214266,-0.4607311840376204,8.625602672843717,-93.1840466041688,266.81595339583123,2.123552406343024,5.1644081136316355,-0.24073330148751296,-96.89416465027152,2.408949933140554,7012182.399564805,87.43139683942215,89.93590875436286,28.63,NONE,0.0,0.0,0.0,NONE,-8.606126566151023E-10,1.070786435784131E-11,0.0,1,22.5,22.5,22.5,22.5,17.323,17.323,6.075,1.193666,0,3452,4.326,12.0,1.206,99,23.3,OK,31,0,0,0,0,0,65,100,0.0,0,0.0,325.04688,9.0E-44,0.0,0.0,0,4.9476867E-11,-4.94771E-11,2.2609581E-33,False,False,0,None,2.3320309E36,1.0842106E-19,ACType|MavicEnterprise
136250642,2.059,9.10320269176733,62.69004425484438,12,528.8502,528.6889,0.14295138,0.010156701,-0.9771641,0.9876173,-3.460385,-4.639771,-3.0050852,6.5216775,-257,364,1437,1504.0,0.007670634,0.014413884,0.0029792886,0.016597435,0.016327849922247263,0.06077053866028324,-0.530596681481018,8.70866399179216,-87.70157453918029,272.2984254608197,-100.30862982361619,74.03161087411459,64.44646351910286,-95.59795169484897,2.473020244147154,9.61600769291758,34.71322108907819,37.21773300401889,29.03,0.13781772656250268,,9.1032012,62.6900441,20190821,180122,2019-08-21T18:01:22Z,625.292,0.92,1.88,10.74,6,6,12,-0.01,0.0,0.0,0,0,0,6140,4,4,9.103204168474425,62.690022024761184,120,3581490,48,48,320,1746,3696,3830,3839,-1240,15369,28,212,15359,0,false,false,false,false,false,false,false,false,false,false,3468,3414,3959,3952,42,55,55,42,1351,1349,1383,1382,1345,1353,1379,1374,0.0,0.0,0.0,0.0,1696.8,1688.9,1688.9,1696.8,3.04,2.51,3.07,2.59,0,0,0,0,-2.6151907629109132,9.103202110379689,62.69004362133183,0,528.8502,529.1339,0.1499162,0.009488157,-0.97287196,0.9844007,3.5807683,-0.24591275,-3.583026,5.071533,-263,364,1434,1502.0,0.0025237682,0.0030798563,-0.0037778958,0.005488845,0.003981823828694066,0.05758638878173103,-0.5239517736355377,8.473748415525304,-93.32735543096736,266.6726445690326,-0.07585693765374091,4.45459040859616,0.5063185389361804,-97.45123409152256,2.4037233789561703,7012182.472677407,88.3682822965383,90.872794211479,28.99,NONE,0.0,0.0,0.0,NONE,1.0455714490886225E-9,1.4241459586253671E-10,0.0,2,32.46,34.15,36.18,34.33,17.089,17.089,6.144,1.4265141,0,3452,4.326,12.0,3.837,99,23.3,OK,33,0,0,0,0,0,65,100,0.0,0,0.0,4673.0,9.0E-44,0.0,0.0,0,4.9476867E-11,-4.94771E-11,2.3549977E-33,False,False,0,None,2.4809038E36,1.0842106E-19,dateTime|2019-8-21 18:0:55 GMT
140109754,3.062,9.103203421069416,62.69004394764819,12,529.4291,528.7935,-0.010287432,-4.1444506E-4,-0.9686227,0.9686774,-3.9117188,3.1129792,-1.1160771,5.122286,-3,404,1437,1492.0,-0.015523229,0.03337279,-0.12056959,0.12606244,0.036806435461730076,0.013553037056246421,0.6109798249897036,-0.36431058100267943,-85.89474931929814,274.10525068070183,-98.63031703099426,75.00497185934236,53.606157889882034,-91.79261609443512,0.08130609529867179,9.697730491547121,117.68060913771771,120.18512105265842,29.3,0.7166751484375027,,9.1032029,62.690044,20190821,180123,2019-08-21T18:01:23Z,625.396,0.92,1.88,10.7,6,6,12,-0.02,0.07,-0.19,0,0,0,0,4,4,9.103201828793669,62.690043978729,120,3581490,17,48,321,1746,3696,3831,3839,-1164,15369,28,0,15363,0,false,true,false,false,false,false,true,false,false,false,5578,5634,4740,4831,43,54,54,43,1525,1538,1443,1442,1515,1531,1438,1440,0.0,0.0,0.0,0.0,1674.1,1666.2,1666.2,1674.1,4.66,3.92,3.32,2.66,0,0,0,0,-178.77815460963885,9.103203005233308,62.6900435864204,0,528.9403,529.24567,-0.009724371,-6.159004E-4,-0.9476433,0.94769335,1.3845972,5.514186,-1.7061303,5.9358435,28,407,1452,1508.0,-0.052392486,0.019125173,-0.33593944,0.34053788,0.055774053021171235,-0.010092336094425336,0.7812495268619958,-1.0417694176334726,-90.77602475648656,269.22397524351345,4.716688171177736,8.40807256991577,-4.608409644137478,-89.7783625836182,0.07419640724758468,7012182.53659919,-131.3629895414807,-128.85847762653998,29.23,NONE,0.0,0.0,0.0,NONE,2.94300344763631E-9,-5.835785879023251E-10,-0.0012207031,2,49.63,51.61,39.85,40.1,17.196,17.196,6.025,1.7675241,0,3452,4.249,12.0,5.538,99,23.3,OK,34,0,0,0,0,0,65,100,0.0,0,0.0,-7.39272E-21,2.68E-43,0.0,0.0,0,5.7278626E-11,-5.337798E-11,3.3866785E-37,False,False,0,None,2.3862745E29,1.2175852E-19,geoDeclination|250 degrees
143959231,4.063,9.103206267403191,62.69004464915418,12,529.42285,528.93097,-0.012552266,-0.01559424,-0.9830211,0.98322487,19.053394,1.6329262,-3.4051077,19.424032,0,545,1377,1480.0,0.22260572,0.0741133,-0.035390127,0.23727314,0.23461902153972736,-0.06985976484312509,7.557595739139712,-0.7808103335311382,-85.74455576217773,274.2554442378223,-100.35581012126859,85.0514166333604,55.401121486594995,-93.12023645366372,0.23839852625704058,9.878042968411918,16.398774426609634,18.903286341550338,29.62,0.7104495625000027,,9.1032044,62.6900445,20190821,180124,2019-08-21T18:01:24Z,625.5,0.92,1.88,10.77,6,6,12,0.17,0.0,-0.15,8441,0,0,0,4,4,9.103201828793669,62.690043978729,120,3581526,16,48,322,1746,3696,3833,3849,-1161,15332,27,0,14798,0,false,false,false,false,false,false,true,false,false,false,5642,5679,4817,5025,43,55,55,43,1534,1534,1454,1473,1530,1531,1443,1461,0.0,0.0,0.0,0.0,1669.3,1661.9,1663.1,1668.7,4.46,3.95,3.3,3.22,0,0,0,0,-173.40482204468475,9.10320574619051,62.690044163632656,0,529.33295,529.40173,-0.011481714,-0.011623947,-0.9823397,0.9824756,21.227959,-2.8193116,3.7923515,21.747566,0,545,1377,1480.0,0.2534045,0.04066464,-0.024423568,0.25780606,0.25664655426004235,-0.10285673667488443,7.8547884176356195,-0.8664769543591574,-90.91930861202702,269.080691387973,8.857318566358096,21.984239086846813,-1.44226126771858,-93.53949613947533,0.20090736699529885,7012182.732835752,38.54799080714417,41.05250272208487,29.65,NONE,0.0,0.0,0.0,NONE,4.0305844166102455E-9,5.579867856212615E-9,-3.6621094E-4,2,51.21,51.54,40.66,42.74,16.899,16.899,5.992,2.2856925,0,3452,4.297,12.0,7.068,99,23.3,OK,35,0,0,0,0,0,65,100,0.0,0,0.0,-4.4172022E30,2.68E-43,0.0,0.0,0,6.5133676E-11,-5.5574444E-11,5.4362322E-37,False,False,0,None,5.3524465E29,1.2926601E-19,geoInclination|7435 degrees
147833769,5.070,9.103204841838734,62.69005292870085,12,529.602,528.984,-0.021921804,-0.029320687,-0.99057096,0.99124724,7.878772,8.071854,66.58106,67.529755,110,625,1335,1478.0,1.5041728,-0.22331344,-0.03943808,1.5211706,1.5206592756328945,-0.6035444966961016,7.982943576462488,-1.7902560882514431,-71.6161045565347,288.3838954434653,-83.54434535581379,85.91288560775712,55.381893971812055,-81.3527867607675,1.006992803074055,10.81536373957689,-24.660522175782372,-22.15601026084167,29.9,0.8895877460937527,,9.103204,62.6900508,20190821,180125,2019-08-21T18:01:25Z,625.509,0.92,1.88,10.78,6,6,12,1.16,-0.2,-0.1,10000,0,9998,0,4,4,9.103201828793669,62.690043978729,120,3581526,20,48,323,1745,3696,3803,3829,-1804,15332,27,2,14798,0,false,false,false,false,false,false,true,false,false,false,5699,5686,5236,4598,43,56,55,43,1538,1547,1486,1439,1528,1541,1480,1431,0.0,0.0,0.0,0.0,1667.4,1659.4,1659.4,1666.8,4.33,4.25,3.64,2.76,0,0,0,0,158.05224958491974,9.103205335501334,62.6900529745661,0,529.7225,529.3608,-0.022769853,-0.030861102,-0.99363536,0.9943752,-0.9102463,-2.2712402,54.335293,54.390358,110,625,1335,1478.0,1.5088146,0.0061378465,0.026455754,1.5090591,1.5088270657885803,-0.5356598752838609,7.8027208196272015,-1.7783925746896345,-73.14329354112002,286.85670645888,26.03812709811399,21.221307676925996,1.283070033951483,-81.39611167171935,1.0161635579440595,7012183.718433716,-6.797771104433012,-4.293259189492309,29.94,NONE,0.0,0.0,0.0,NONE,4.761085542713824E-10,6.68272436386518E-8,1.2207031E-4,2,50.1,53.59,44.59,39.82,16.829,16.829,5.983,2.977376,0,3452,4.216,12.0,7.362,99,23.3,OK,36,0,0,0,0,0,65,100,0.0,0,0.0,9.659424,2.69E-43,0.0,0.0,0,6.031797E-11,-5.4370074E-11,1.99475E-35,False,False,0,None,4.0724266E32,1.2514996E-19,geoIntensity|5165858 nanoTesla
151725693,6.081,9.103203964258617,62.69006103242279,12,530.0849,529.2813,-0.016344767,-0.01772523,-1.4221295,1.4223338,-3.567846,-8.970838,19.079664,21.383148,352,165,1449,1500.0,0.11755251,0.029182268,-0.8365992,0.8453215,0.12112059218793429,0.7708319640522672,-0.6869286735502228,1.5869561558567737,-25.239794408591525,334.76020559140846,-26.053851301549845,71.9336316425526,58.863538529540676,-24.95162097672264,1.8994111549715151,11.768367808869675,100.01730474994046,102.52181666488117,30.23,1.3724979023437527,,9.1032033,62.6900616,20190821,180126,2019-08-21T18:01:26Z,625.685,0.92,1.88,10.7,6,6,12,0.15,0.1,-0.23,0,0,6494,8171,4,4,9.103201828793669,62.690043978729,120,3581581,48,47,324,1723,3696,3829,3837,-1181,15355,28,212,15355,0,false,false,false,false,false,false,true,false,false,false,6665,7048,5639,6116,44,55,55,44,1667,1704,1554,1594,1660,1696,1549,1567,0.0,0.0,0.0,0.0,1624.5,1615.3,1615.9,1623.9,7.06,6.9,4.7,5.14,0,0,0,0,-177.25144469797596,9.10320207526661,62.69006082614059,0,530.1595,529.4702,-0.017568437,-0.02021985,-1.4370929,1.4373425,23.021921,-19.975712,45.974937,55.16097,352,165,1449,1500.0,0.011466773,-0.021810684,-0.7587833,0.7591833,0.024641283764708158,0.8540172476277215,-0.5995904114610705,1.435286157518006,-16.439177515027485,343.5608224849725,83.96165835520048,-1.4325709526513526,-1.3474834155375313,-24.898330792073157,1.873388894762681,7012184.629910274,-23.060282251434067,-20.555770336493364,30.2,NONE,0.0,0.0,0.0,NONE,1.3198012484566308E-9,1.1970321102088688E-8,-3.6621094E-4,2,66.98,71.63,54.3,55.73,16.771,16.771,5.874,3.7822778,0,3452,4.187,12.0,8.107,99,23.4,OK,37,0,0,0,0,0,65,100,0.0,0,0.0,119976.0,9.0E-44,0.0,0.0,0,7.5514706E-11,-5.81697E-11,3.3537008E-34,False,False,0,None,7.2730186E34,1.3814E-19,
155587076,7.085,9.103204776439613,62.69005968975768,12,532.6889,531.61176,0.0012501383,0.018528901,-1.4204934,1.4206147,-10.313241,5.744802,-6.2926755,13.377723,507,125,1416,1509.0,0.20139456,0.031329487,-3.082111,3.0888426,0.2038168404212622,-0.04942525873095274,-1.01309573201879,-1.4101258309837772,-18.177963988648767,341.82203601135126,-18.446035965953453,70.76173502248652,56.56927503086213,-17.62980971007328,1.7534469835581916,12.006607795192606,-174.12368005291052,-171.6191681379698,30.59,3.9765018085937527,,9.1032044,62.6900598,20190821,180127,2019-08-21T18:01:27Z,627.904,0.92,1.88,10.52,6,6,12,0.04,0.11,-1.61,0,0,0,10000,4,4,9.103201828793669,62.690043978729,120,3581581,17,47,325,1723,3696,3829,3837,-1181,15355,28,0,15355,0,false,false,false,false,false,false,true,false,false,false,7063,7135,5937,6122,45,56,56,45,1702,1710,1584,1610,1697,1704,1572,1604,0.0,0.0,0.0,0.0,1614.7,1607.3,1608.5,1615.3,7.28,6.78,5.35,4.97,0,0,0,0,-176.9759653487828,9.10320378812093,62.69005898828278,0,532.3004,531.6966,-0.0047119604,0.013772053,-1.4050796,1.405155,2.3329954,-3.0616667,4.528014,5.943028,513,143,1413,1510.0,-0.03162097,0.055251714,-2.694636,2.6953878,0.063660329959752,0.1578113384797315,-0.7107580905935102,-1.439391366014642,-11.201629056508223,348.79837094349176,89.2527794449403,-3.013554448789046,-6.05220672973893,-18.584569924366853,1.6719768869951095,7012184.955637123,164.30604191519765,166.81055383013836,30.51,NONE,0.0,0.0,0.0,NONE,5.483416098587475E-9,-1.6765831976003604E-9,-0.013061523,2,72.05,73.16,57.15,60.57,16.759,16.759,5.808,4.6712275,0,3451,4.186,12.0,10.112,99,23.4,OK,38,0,0,0,0,0,65,100,0.0,0,0.0,20470.0,2.69E-43,0.0,0.0,0,8.422347E-10,-2.0423223E-10,2.670386E-34,False,False,0,None,4.5682325E34,4.0880096E-19,
159435500,8.085,9.103204105080648,62.69006064109792,12,537.14984,535.35114,0.019851234,0.003906726,-0.99103266,0.99123913,-9.946778,7.8116198,5.4291167,13.763543,755,125,1314,1520.0,1.2386394,-0.3338675,-3.9814932,4.183059,1.2828464331651683,-1.1716765505085174,-1.5056904457522713,-11.67241143319998,-18.27186196626643,341.72813803373356,-21.197264756727005,69.00280178016918,44.27216819699666,-18.585256449471697,1.85640669350888,12.237321766431823,-20.185843681888354,-17.68133176694765,30.82,8.437439308593753,,9.103205,62.6900603,20190821,180128,2019-08-21T18:01:28Z,631.689,0.92,1.88,10.32,6,6,12,0.7,-0.12,-3.09,0,10000,941,10000,4,4,9.103201828793669,62.690043978729,120,3992925,16,47,326,1707,3675,3819,3834,-1293,15250,21,0,14757,0,false,false,false,false,false,false,true,false,false,false,6468,6302,5220,5345,43,56,56,44,1613,1632,1499,1499,1605,1616,1494,1506,0.0,0.0,0.0,0.0,1642.9,1637.3,1637.3,1643.5,5.12,5.24,4.2,2.84,0,0,0,0,-172.48196204905565,9.103205206969065,62.6900595543033,0,536.4184,535.40955,0.01453565,0.027260646,-1.0394375,1.0398965,-4.5804615,-4.6383724,-13.800871,15.263,743,116,1290,1493.0,0.85087436,-0.09332297,-3.9383347,4.0302825,0.8559768422038009,-0.7600738863263163,-0.9646448635883518,-11.50349815281999,-11.140932110232216,348.8590678897678,92.85220298349638,0.5275924535326758,-12.310857862360008,-16.288944952156164,1.7404786251798003,7012185.214457288,-3.7831476311177106,-1.278635716177008,30.83,NONE,0.0,0.0,0.0,NONE,-3.688672056867839E-9,2.0601110356468164E-8,-0.019897461,2,67.11,59.57,40.94,47.8,16.81,16.81,5.906,5.661844,0,3448,4.179,12.0,11.291,99,23.4,OK,39,0,0,0,0,0,65,100,0.0,0,0.0,1087.5312,2.69E-43,0.0,0.0,0,4.4119588E-8,-1.4810059E-9,8.883272E-34,False,False,0,None,4.459899E35,2.580764E-18,
163284594,9.085,9.103195314086253,62.69007534070363,12,541.2935,539.21423,-0.032483917,0.039478593,-1.0303638,1.0316314,-11.705194,-3.7567363,-9.461115,15.51249,717,66,1293,1479.0,2.500822,-0.6746717,-3.9857903,4.7535057,2.59023027714552,-0.8959101081262559,-1.7357177626743898,-9.412992524960444,-13.099619422520128,346.9003805774799,-17.99295715776162,68.98401779659108,43.98242264529068,-11.96045683665549,3.5030944806025612,13.935398494277045,-16.5129429708394,-14.008431055898699,31.12,12.581116066406253,,9.1031969,62.6900741,20190821,180129,2019-08-21T18:01:29Z,635.708,0.92,1.88,10.19,6,6,12,2.19,-0.6,-3.72,0,10000,0,10000,4,4,9.103201828793669,62.690043978729,120,3992925,20,47,327,1706,3675,3776,3799,-1968,15250,21,2,14757,0,false,false,false,false,false,false,true,false,false,false,6487,6421,5484,5955,44,57,56,45,1627,1623,1524,1570,1630,1602,1503,1575,0.0,0.0,0.0,0.0,1637.3,1630.0,1628.8,1636.7,5.75,5.02,3.8,3.96,0,0,0,0,-159.91987225849863,9.103197587442798,62.69007309730222,0,540.76166,539.20557,-0.034400955,0.041571893,-1.0303758,1.0317878,-3.5483742,13.05955,8.908695,16.202087,726,76,1317,1505.0,2.4054062,-0.5931085,-3.8691578,4.5943594,2.4774496613439814,-0.9227385051391701,-1.6465003875680921,-9.206321835793382,-11.372676197987085,348.62732380201294,99.61998652256474,1.4282713529833848,-10.421093378855582,-12.666910734021034,3.2450597059774524,7012186.772069809,-19.47579597725299,-16.971284062312286,31.11,NONE,0.0,0.0,0.0,NONE,-5.72479202308665E-8,1.0696390143982199E-7,-0.01928711,2,63.52,60.3,47.89,56.66,16.553,16.553,5.876,6.696848,0,3446,4.196,12.0,9.854,99,23.4,OK,40,0,0,0,0,0,65,100,0.0,0,0.0,383.8203,9.0E-44,0.0,0.0,0,2.270157E-6,-1.07671125E-8,4.561115E-31,False,False,0,None,-4.5451396E-38,1.5372061E-17,
167164580,10.094,9.103182519866856,62.69010246051357,13,546.34216,543.2707,-0.07334315,0.058647882,-0.9903843,0.9948265,22.691858,-4.850269,15.371332,27.833853,743,33,1296,1494.0,3.601837,-0.8407136,-4.043914,5.480262,3.698652310694434,-0.6389101098694745,-2.686365395192317,-10.625474823836706,-12.384860091985482,347.6151399080145,-14.264641869813609,70.21571710101274,44.16309410057591,-10.786737674298617,6.577065769418945,17.022525471439838,-11.86160633266499,-9.357094417724289,31.48,17.629761085937503,,9.103184,62.6901008,20190821,180130,2019-08-21T18:01:30Z,639.951,0.8,1.65,9.79,7,6,13,3.4,-0.77,-4.15,0,8120,1470,10000,4,4,9.103201828793669,62.690043978729,120,3992926,114,47,328,1706,3675,3780,3801,-2628,15278,21,3699,15355,0,false,false,false,false,false,false,false,false,false,false,6464,6278,5831,6138,44,56,56,44,1644,1598,1551,1605,1640,1600,1532,1578,0.0,0.0,0.0,0.0,1632.5,1626.4,1625.7,1633.1,5.69,4.5,4.36,5.08,0,0,0,0,-147.4712914699674,9.103182446674062,62.690102516328146,0,546.0459,543.53674,-0.068009794,0.06350794,-0.9939733,0.9983193,-10.726571,-4.0159717,-9.469424,14.86127,743,33,1296,1494.0,3.5484092,-0.7715724,-3.9547882,5.369067,3.6313264822332965,-0.29809017404689975,-2.506135468516094,-10.57881345312706,-12.036917817772153,347.9630821822278,97.72179071446872,-1.878101771774241,-11.679678281924097,-10.306358507741542,6.583761905529739,7012190.1347317025,-14.895612012066376,-12.391100097125674,31.53,NONE,0.0,0.0,0.0,NONE,-6.917280774411762E-8,1.464019026766558E-7,-0.01977539,2,65.42,60.8,51.21,56.59,16.716,16.716,5.877,6.696848,0,3446,4.128,12.0,9.854,99,23.4,OK,40,0,0,0,0,0,65,100,0.0,0,0.0,0.7184601,9.0E-44,0.0,0.0,0,1.3601035E-4,-8.387044E-8,3.9518982E-26,False,False,0,None,-1.5085354E-33,1.0135639E-16,
171050726,11.104,9.10317417736658,62.69012657259723,13,548.2477,545.99603,-0.043946188,0.052170668,-0.6761856,0.6796175,1.208998,-28.885017,-0.3252849,28.912138,-50,-37,1473,1474.0,1.2196681,-0.08979972,-0.6399604,1.3802912,1.2229695269171694,1.4648852016394214,-4.01769623687063,18.96181299916687,-10.920599712066812,349.0794002879332,-12.763912641943827,69.58005604367844,71.26098145902581,-8.744393155245927,9.291729139578973,19.740775701157162,-7.126074100654876,-4.621562185714173,31.72,19.535278664062503,,9.1031734,62.6901262,20190821,180131,2019-08-21T18:01:31Z,643.253,0.8,1.65,9.47,7,6,13,1.66,-0.12,-3.33,0,0,0,0,4,4,9.103201828793669,62.690043978729,120,3992926,114,47,328,1706,3675,3780,3801,-2628,15278,21,3699,15355,0,false,false,false,false,false,false,false,false,false,false,4484,4270,4096,4423,45,57,56,45,1455,1423,1409,1443,1449,1437,1411,1433,0.0,0.0,0.0,0.0,1666.8,1661.3,1660.0,1665.6,4.14,3.16,3.52,3.45,0,0,0,0,-113.47919983490186,9.103173954880688,62.6901261706808,0,548.2758,546.0422,-0.043959536,0.05138857,-0.69455254,0.697837,0.52233917,-32.353878,-1.9040633,32.414066,-50,-37,1473,1474.0,0.95037735,0.011432942,-0.4803958,1.0649544,0.9504461006502375,1.688864865790117,-3.9397971486292316,18.023407254820004,-10.942371288623123,349.0576287113769,97.52989656577184,-3.019595556447589,16.87915358443812,-8.957099150066785,9.249296899166836,7012192.802383476,-6.2300597010404,-3.7255477860996975,31.72,NONE,0.0,0.0,0.0,NONE,-6.408793509335747E-9,5.557366943740176E-8,-0.0048828125,2,41.47,39.56,36.37,39.8,16.538,16.538,6.047,7.645122,0,3443,4.126,12.0,9.953,99,23.5,OK,41,0,0,0,0,0,65,100,0.0,0,0.0,0.47590637,9.0E-44,0.0,0.0,0,0.0021220446,-3.3217847E-7,4.6188036E-22,False,False,0,None,-8.8588926E-30,3.660487E-16,
174996115,12.129,9.103171925670372,62.690130218246914,13,549.51373,546.58575,-0.011835994,0.10336347,-1.5268736,1.530414,3.6524372,-110.69887,9.532501,111.16856,574,-3,1383,1497.0,0.1037611,0.06259982,-2.0357044,2.039308,0.12118210952843911,0.28972503514081305,-2.838744445757825,-7.155949128186082,-10.658258755182667,349.34174124481734,-10.757803240928194,73.59543744620844,44.684097946077074,-9.358049164789172,9.709987243063704,20.202442394463446,-31.843190132936126,-29.338678217995422,31.99,20.801330910156253,,9.103172,62.6901308,20190821,180132,2019-08-21T18:01:32Z,643.968,0.8,1.65,9.18,7,6,13,0.04,-0.03,-1.58,0,8438,2012,10000,4,4,9.103201828793669,62.690043978729,120,3993904,48,36,329,1325,3687,3770,3780,-1173,15114,27,212,15103,0,false,false,false,false,false,false,false,false,false,false,7606,7026,6665,7190,46,57,57,45,1749,1719,1649,1720,1730,1692,1687,1719,0.0,0.0,0.0,0.0,1585.8,1578.5,1579.1,1588.3,9.08,6.34,5.65,6.23,0,0,0,0,-125.11363759629234,9.103172148256872,62.69013004615735,0,549.4425,546.52094,-0.027337465,0.10609509,-1.5565717,1.5604227,-12.054296,-127.463326,6.8995447,128.21782,574,-3,1383,1497.0,0.03644821,0.094266474,-1.9892128,1.9917786,0.10106750134246449,0.32870063736941985,-2.568465812518026,-8.593407330336522,-10.446217623418232,349.55378237658175,96.39745785695679,-2.2066068703320827,-11.676956349824238,-9.276556426307089,9.689308780017113,7012193.26720765,-25.498307045609643,-22.99379513066894,31.95,NONE,0.0,0.0,0.0,NONE,1.8714099461156434E-8,-4.917038186347761E-9,-6.1035156E-4,2,76.43,72.16,71.0,74.92,16.836,16.836,5.729,8.348724,0,3440,4.113,12.0,5.572,99,23.5,OK,42,0,0,0,0,0,65,100,0.0,0,0.0,0.42012787,9.0E-44,0.0,0.0,0,0.0033695698,-4.0832137E-7,2.3205653E-21,False,False,0,None,-3.7748227E-29,4.3112116E-16,
178936567,13.153,9.103160457242815,62.690160996326995,13,555.5727,550.5466,-0.06327464,0.08467219,-1.1339208,1.1388369,5.656783,-1.4131614,3.8762882,7.001559,1237,-25,855,1503.0,6.528341,-0.678096,-4.1889987,7.786319,6.563463122219724,-3.173170938456088,-2.3250410511742623,-34.38707981688537,-1.0672343547981735,358.9327656452018,-5.823316068316699,76.65291115764495,15.952539173692667,-1.0340837754498846,13.181834507740957,23.67680521199323,-11.253968619823624,-8.74945670488292,32.34,26.860290871093753,,9.1031635,62.6901561,20190821,180133,2019-08-21T18:01:33Z,647.364,0.8,1.65,9.02,7,6,13,5.35,-0.6,-3.06,56,10000,0,10000,4,4,9.103201828793669,62.690043978729,120,3993904,17,36,330,1325,3687,3770,3780,-1173,15114,27,0,15103,0,false,false,false,false,false,false,false,false,false,false,7593,7586,6864,7070,47,58,58,46,1741,1740,1676,1693,1739,1723,1660,1686,0.0,0.0,0.0,0.0,1591.4,1583.4,1584.0,1592.0,7.14,6.53,6.02,5.38,0,0,0,0,-170.29158263426393,9.103161346777647,62.69016124448934,0,555.63464,550.4437,-0.06550127,0.09094677,-1.1243029,1.1298754,2.8091455,1.9264715,2.5027695,4.226872,1237,-25,855,1503.0,6.702962,-0.55532134,-4.100532,7.8773375,6.725925889499893,-3.2960166545579948,-1.5584729662027843,-34.14978420511717,-1.4097237808697547,358.59027621913026,104.59255101054839,5.001998389233581,-36.3561591133226,0.18312140854993605,13.20189834007934,7012196.790512947,-7.420185661419927,-4.915673746479224,32.32,NONE,0.0,0.0,0.0,NONE,-5.511190994366197E-8,2.729811184618454E-7,-0.020629883,2,77.72,75.47,67.16,70.83,16.33,16.33,5.704,8.741941,0,3439,4.219,12.0,9.408,99,23.5,OK,43,0,0,0,0,0,65,100,0.0,0,0.0,0.3827057,9.0E-44,0.0,0.0,0,0.18766785,-3.0530653E-6,7.989937E-17,False,False,0,None,-5.478481E-25,2.827884E-15,
182851094,14.171,9.103159500177174,62.69025511345936,13,561.8598,555.6495,-0.20015539,0.08351478,-1.0373493,1.0597786,-10.839954,-5.3170614,6.4504733,13.688841,1205,-52,897,1503.0,11.958719,-0.050849438,-4.1458964,12.657093,11.958827275476784,-1.6720272817847412,-3.954978841703236,-33.35712552678471,-1.2643957844775147,358.73560421552247,-3.9970371490950067,75.73612225126628,17.39783048748475,-1.1170256025379395,23.57621662931701,34.150033766084896,-2.1883735634017825,0.3161383515389203,32.68,33.14740024609375,,9.1031608,62.6902375,20190821,180134,2019-08-21T18:01:34Z,651.498,0.8,1.65,8.9,7,6,13,10.76,0.03,-3.82,0,10000,0,9998,4,4,9.103201828793669,62.690043978729,120,3993921,16,36,331,1313,3675,3738,3769,-1776,15019,27,0,15054,0,false,false,false,false,false,false,false,false,false,false,7744,7967,7677,7999,47,58,58,47,1733,1758,1731,1745,1723,1765,1730,1734,0.0,0.0,0.0,0.0,1579.1,1576.1,1576.1,1579.7,6.48,5.73,5.57,6.14,0,0,0,0,-109.47030200946696,9.10315910456154,62.690245948289636,0,561.22656,554.57367,-0.19761156,0.06856499,-1.0315124,1.0525062,-3.4423296,-2.4329674,-2.5711858,4.937607,1211,-52,900,1509.0,11.649631,-0.11714663,-3.9256644,12.2938385,11.65021954112648,-2.391694485898695,-3.2756882847679964,-33.06590130489514,-1.4761719558263249,358.5238280441737,105.77065805441309,4.636805540792446,-35.368295423044785,0.05353442832051479,22.56351413333636,7012206.213700493,-2.932571317724856,-0.4280594027841533,32.68,NONE,0.0,0.0,0.0,NONE,-2.6928184966449228E-8,4.5661587020095234E-7,-0.019714355,2,75.65,80.72,76.4,76.98,16.063,16.063,5.66,9.123252,0,3436,4.06,12.0,17.009,99,23.5,OK,44,0,0,0,0,0,65,100,0.0,0,0.0,84.30859,9.0E-44,0.0,0.0,0,13.908691,-2.6234547E-5,1.836243E-7,False,False,0,None,-2.0714699E-16,2.0661534E-14,
186699253,15.171,9.103162717994275,62.690382421797814,13,567.2329,560.5642,-0.29922068,0.078878544,-0.91286165,0.9638834,-4.4438243,-3.1722832,-1.1781069,5.5855966,1178,-74,933,1504.0,15.363521,-0.0032464266,-4.345105,15.966143,15.363521105583796,-1.2082165496695847,-4.578227628231933,-31.43141296252433,-2.1457295728691665,357.8542704271308,-3.5397089151022616,73.42107117472935,18.57589861419332,-0.0784848780043646,37.68600978011607,48.307696985758135,-1.5817693549584528,0.9227425599822497,32.99,38.52050815625,,9.1031631,62.6903585,20190821,180135,2019-08-21T18:01:35Z,655.584,0.8,1.65,8.78,7,6,13,14.73,0.05,-4.05,0,10000,0,10000,4,4,9.103201828793669,62.690043978729,120,3993921,20,36,332,1313,3675,3738,3769,-1776,15019,27,2,15054,0,false,false,false,false,false,false,false,false,false,false,8233,8488,8515,8576,46,57,57,46,1798,1809,1791,1792,1795,1795,1776,1788,0.0,0.0,0.0,0.0,1543.5,1538.0,1539.3,1542.9,8.1,7.5,7.64,6.68,0,0,0,0,27.669115822703873,9.103162814880502,62.690370169230995,0,566.2859,558.5737,-0.29502302,0.07573551,-0.88371134,0.93473,-0.56958807,-3.913321,-0.02928102,3.9546642,1173,-71,936,1502.0,15.161544,-0.03797676,-3.9545488,15.668833,15.161591459699087,-1.3492037984742655,-4.2066642562387,-31.024353549903175,-1.6925051611815751,358.3074948388184,106.17854999783042,3.0578335367087246,-35.24986013438419,0.23617039420791167,36.32529789760099,7012220.028986668,-2.2865615009278293,0.21795041401287332,32.95,NONE,0.0,0.0,0.0,NONE,-5.23722379691945E-9,6.664544482340996E-7,-0.01965332,2,81.63,83.22,80.01,81.34,15.934,15.934,5.59,9.835045,0,3431,4.005,12.0,16.332,99,23.6,OK,45,0,0,0,0,0,65,100,0.0,0,0.0,3808.25,9.0E-44,0.0,0.0,0,898.8594,-2.1091201E-4,2.437756E-7,False,False,0,None,-2.9049164E-16,1.3810569E-13,
190548618,16.171,9.103164355202829,62.69053076082609,13,568.8577,565.40533,-0.4204581,0.061859567,-1.0028963,1.0892256,-4.590318,14.901423,1.4208792,15.6570215,1158,-68,951,1499.0,17.126766,-0.06351757,-4.572321,17.726711,17.126883521532932,-0.639259309280078,-4.0778558146506185,-29.421762673788688,-2.625747972982072,357.3742520270179,-4.426812559766954,73.54411651689483,21.695851994429685,0.021250843380203825,54.161450277739924,64.80260192821953,-2.465261539443398,0.039250375497304826,33.27,40.14532505078125,,9.1031646,62.6905033,20190821,180136,2019-08-21T18:01:36Z,659.669,0.8,1.65,8.71,7,6,13,16.68,0.0,-4.11,0,10000,0,10000,4,4,9.103201828793669,62.690043978729,120,3993999,48,35,333,1281,3675,3768,3777,-1228,15096,27,212,15093,0,false,false,false,false,false,false,false,false,false,false,8088,8300,8640,8826,47,57,57,47,1762,1781,1797,1792,1751,1775,1787,1781,0.0,0.0,0.0,0.0,1552.1,1543.5,1544.7,1552.7,6.94,6.02,6.88,7.06,0,0,0,0,1.381634054221081,9.103165051654623,62.69051719015809,0,568.9687,562.42065,-0.39316037,0.07234482,-0.9753072,1.0540556,-2.9511588,15.606641,-0.2890128,15.885845,1178,-80,930,1502.0,17.021646,-0.09448767,-3.9482136,17.473803,17.0219091715854,-0.6806010265927966,-4.4885561282307345,-30.563121478626424,-1.8453755899535376,358.15462441004644,104.82519081377748,4.286541416720675,-34.92567433407275,0.7401950109888434,52.65215004911269,7012236.377450032,-2.307769476712655,0.19674243822804743,33.24,NONE,0.0,0.0,0.0,NONE,-1.10416376016575E-8,7.702083392550008E-7,-0.020019531,2,78.75,81.67,83.22,82.77,15.785,15.785,5.553,10.88405,0,3421,3.947,12.0,19.169,99,23.7,OK,46,0,0,0,0,0,65,100,0.0,0,0.0,23129.5,9.0E-44,0.0,0.0,0,50809.0,-0.0015872199,4.6344402E-7,False,False,0,None,-5.123804E-16,8.5211357E-13,
194428528,17.180,9.103165574002645,62.69068808764064,13,572.1042,569.4289,-0.42754772,0.10558752,-0.91295147,1.0136203,4.5730925,0.6998022,-0.33907416,4.638736,1088,-89,1032,1502.0,17.725513,0.030219078,-4.348382,18.251114,17.72553899507757,-0.3767159649545597,-5.319037128657352,-26.538306181403698,-3.485664957666215,356.5143350423338,-4.319382795607018,72.84597182319824,24.541308268311273,-0.7912202466623555,71.64552123533447,82.29674014989955,-2.255630901958349,0.24888101298235393,33.63,43.39178501171875,,9.1031656,62.6906599,20190821,180137,2019-08-21T18:01:37Z,663.811,0.8,1.65,8.66,7,6,13,17.71,0.06,-4.17,0,10000,0,10000,4,4,9.103201828793669,62.690043978729,120,3994000,17,35,334,1281,3675,3769,3778,-1154,15101,27,0,15093,0,false,false,false,false,false,false,false,false,false,false,7956,8199,8706,8672,47,59,60,48,1780,1769,1787,1803,1770,1779,1781,1778,0.0,0.0,0.0,0.0,1546.0,1538.0,1539.3,1547.2,7.76,6.26,7.21,7.25,0,0,0,0,12.76173624489195,9.103165792682745,62.69069128731612,0,572.1238,566.71906,-0.43008935,0.10103101,-0.9210022,1.0214838,-1.0392052,4.977504,-0.802434,5.147756,1088,-89,1032,1502.0,17.752949,-0.042842187,-3.9431918,18.185648,17.752999925298717,1.4450463510738167,-5.813578252578811,-26.3116723161352,-2.125318698954186,357.8746813010458,104.4720070344129,4.099558578898169,-31.532664804558873,-1.7743840021172852,72.000905203997,7012255.7363697905,-2.209365511146653,0.29514640379404966,33.62,NONE,0.0,0.0,0.0,NONE,-3.7482427972431554E-9,7.949472672453052E-7,-0.01965332,2,81.14,82.58,82.69,82.04,15.661,15.661,5.56,12.190741,0,3415,3.932,12.0,20.43,98,23.8,OK,47,0,0,0,0,0,65,100,0.0,0,0.0,54126.0,9.0E-44,0.0,1.02418684E27,64,3087360.0,-0.012391391,9.578729E-7,False,False,0,None,-1.0010439E-15,5.787732E-12,
198516173,18.242,9.103167270406416,62.69084729844764,13,576.0999,572.8751,-0.4301757,0.094548956,-0.88122296,0.9851622,4.6681156,0.25901058,-1.0850554,4.799556,1085,-111,1035,1503.0,17.734032,0.012968659,-4.0239615,18.184837,17.734036856633118,-1.0695963469600365,-5.998928820355882,-26.51398662111466,-3.587722462890399,356.4122775371096,-5.0044921471924075,74.29102401749357,24.24360436702562,0.25177929026317675,89.34247416008685,100.00041423303819,-2.402065944756412,0.10244597018429072,33.91,47.38751255078125,,9.1031671,62.6908193,20190821,180138,2019-08-21T18:01:38Z,668.003,0.8,1.65,8.62,7,6,13,17.78,0.05,-4.24,0,10000,0,10000,4,4,9.103201828793669,62.690043978729,120,4598801,181,35,335,1249,3670,3806,3809,0,15233,24,58118,4,0,false,false,false,false,false,false,false,false,false,false,7967,8137,8605,8596,48,58,59,48,1781,1793,1792,1800,1768,1771,1787,1792,0.0,0.0,0.0,0.0,1541.1,1533.1,1534.9,1541.1,7.68,7.2,7.18,6.38,0,0,0,0,9.267410531449059,9.103167114369791,62.69084948238878,0,576.26166,570.60297,-0.43192583,0.0983531,-0.88227487,0.9872397,3.5983655,3.67864,0.30245316,5.154814,1085,-111,1035,1503.0,17.797989,-0.017969696,-3.8787355,18.215744,17.79799814004285,-1.2399497598193001,-6.472323523971657,-26.337499798494633,-2.2860888345715185,357.7139111654285,104.03206782815928,5.60118340648831,-30.96502437751961,-0.7154877803376275,89.58542718770394,7012273.32703729,-2.341954019741049,0.1625578951996536,33.94,NONE,0.0,0.0,0.0,NONE,-1.5777251863677934E-9,7.991955409968712E-7,-0.01940918,2,80.89,81.36,83.66,84.18,15.677,15.677,5.574,13.636129,0,3410,3.899,12.0,18.975,98,23.9,OK,48,0,0,0,0,0,65,100,0.0,0,0.0,95582.0,9.0E-44,0.0,1.02418684E27,64,1.74792704E8,-0.09382298,2.1176681E-6,False,False,0,None,-2.0284338E-15,3.6847195E-11,
202413690,19.255,9.103167775619562,62.691005727497306,13,579.93134,577.0799,-0.44289786,0.07599765,-0.88829315,0.99548924,3.3474567,0.18876189,0.93532246,3.480794,1068,-104,1047,1499.0,17.559902,-0.09636426,-4.0654426,18.02463,17.560166173335496,-0.1688103899806137,-5.4235453423271585,-25.28846834593346,-3.1385345505079507,356.8614654494921,-4.778017885504544,77.28019280374224,24.30279208680467,0.5077515323305132,106.95569351676703,117.61701261474934,-2.547721741755623,-0.04320982681491999,34.19,51.21893344921875,,9.1031675,62.6910092,20190821,180140,2019-08-21T18:01:40Z,673.097,0.8,1.65,8.59,7,6,13,17.55,-0.09,-4.28,0,10000,0,10000,4,4,9.103201828793669,62.690043978729,120,5203602,181,35,336,1233,3670,3804,3808,0,15226,22,58118,2,0,false,false,false,false,false,false,false,false,false,false,7868,7953,8646,8594,48,60,61,48,1782,1772,1784,1784,1772,1765,1775,1774,0.0,0.0,0.0,0.0,1544.7,1536.8,1538.0,1544.7,8.03,6.03,7.19,6.34,0,0,0,0,5.514635697029064,9.103167476932128,62.691007567951566,0,579.6145,574.5867,-0.45249656,0.074987076,-0.88855827,0.999956,-0.70371747,2.2742581,1.4046099,2.764127,1068,-104,1047,1499.0,17.643358,-0.09451394,-3.949035,18.080153,17.643611523378386,-0.2899705591204693,-5.751623369467093,-25.065837861834336,-2.097274231242279,357.9027257687577,104.76107643487967,8.001014391082567,-30.67888538048588,-0.159255582337934,107.16056386022576,7012290.90552141,-2.98358669730304,-0.47907478236233736,34.18,NONE,0.0,0.0,0.0,NONE,-6.749701941980103E-9,7.938498165580756E-7,-0.01977539,2,81.15,80.69,82.2,81.89,15.722,15.722,5.546,15.0058775,0,3405,3.905,12.0,18.21,98,23.9,OK,49,0,0,0,0,0,65,100,0.0,0,0.0,131780.0,9.0E-44,0.0,1.02418684E27,64,2.54127636E10,-1.0896076,5.212992E-6,False,False,0,None,-4.600053E-15,3.630181E-10,
206275121,20.258,9.10316483745577,62.69117704022266,13,584.3267,581.88525,-0.4185471,0.08531282,-0.83947957,0.94190544,-1.1230367,-3.2371762,2.719894,4.374739,1091,-71,1014,1491.0,17.381235,-0.18059206,-4.0670424,17.851633,17.38217344330913,1.5997826990856048,-4.553251572727108,-26.768619214428888,-2.647631771294142,357.35236822870587,-3.9270338257926394,79.20936396584486,23.69213032971998,-1.0786814309792356,126.00482203799199,136.66674976251878,-3.2154919964124162,-0.7109800814717137,34.44,55.61431919140625,,9.1031649,62.6911653,20190821,180141,2019-08-21T18:01:41Z,677.43,0.8,1.65,8.56,7,6,13,17.34,-0.19,-4.35,0,10000,0,10000,4,4,9.103201828793669,62.690043978729,120,5808403,181,35,337,1202,3669,3802,3806,0,15218,22,58118,0,0,false,false,false,false,false,false,false,false,false,false,7694,7814,8378,8358,49,61,61,49,1746,1757,1780,1779,1746,1754,1775,1773,0.0,0.0,0.0,0.0,1546.6,1539.9,1541.7,1547.2,7.06,6.11,6.94,5.93,0,0,0,0,6.50401054043175,9.10316496630132,62.69116369316541,0,583.3412,578.6574,-0.43862566,0.08969705,-0.86862767,0.9772165,2.0942392,-2.6815946,0.89067876,3.5171146,1097,-74,984,1475.0,17.489233,-0.16868305,-3.9722033,17.935444,17.4900458227204,-0.19097556386923742,-4.518664431508101,-26.520079129567485,-1.7563116802720171,358.243688319728,104.99536574102862,10.3976605438176,-31.351647955345232,-0.3975209942901683,124.52076598749414,7012308.266421789,-3.1198964872887545,-0.6153845723480518,34.43,NONE,0.0,0.0,0.0,NONE,-1.679032727593368E-8,7.854885719477744E-7,-0.019897461,2,78.99,79.75,81.5,81.44,15.65,15.65,5.563,16.1597,0,3400,3.894,12.0,18.338,98,24.1,OK,50,0,0,0,0,0,65,100,0.0,0,0.0,152452.0,9.0E-44,0.0,1.02418684E27,64,1.75207822E12,-9.174136,1.0377788E-5,False,False,0,None,-8.574088E-15,2.5419384E-9,
210123490,21.259,9.103162130434331,62.69133269966689,13,589.0629,586.074,-0.38265508,0.19448036,-0.8550715,0.9567627,44.066814,-5.853791,38.02187,58.49627,1117,-227,963,1492.0,17.375336,-0.0697422,-3.527158,17.729862,17.37547510169911,-0.0693927273563304,-5.363537701214132,-27.700048764839824,14.574743906130914,14.574743906130891,10.834870444216941,88.23832504545503,20.606578943399217,14.301867686952452,143.31354065715473,153.97587627682967,-2.721645157209484,-0.21713324226878167,34.75,60.35052524609375,,9.1031625,62.6913211,20190821,180141,2019-08-21T18:01:41Z,681.662,0.8,1.65,8.55,7,6,13,17.32,-0.11,-4.23,0,10000,4511,8923,4,4,9.103201828793669,62.690043978729,120,6413204,181,35,338,1188,3671,3800,3804,0,15211,21,58118,1,0,false,false,false,false,false,false,false,false,false,false,7444,7682,8205,8051,48,61,61,49,1745,1736,1751,1764,1738,1752,1725,1743,0.0,0.0,0.0,0.0,1559.5,1554.6,1553.4,1560.1,6.3,5.3,6.23,6.48,0,0,0,0,19.131795967955554,9.103162161911921,62.691319363550406,0,588.57227,582.44354,-0.3845003,0.15764649,-0.8315392,0.9295969,42.863487,-4.4647207,40.06466,58.84207,1126,-206,960,1493.0,17.404581,-0.13674805,-3.3926551,17.732689,17.405118237723656,-0.09777922146234275,-6.508520766289071,-28.119488164779387,10.801760310618501,10.801760310618477,116.9963585055642,16.104093203282872,-34.236860014099975,10.20367712926781,141.83075887228958,7012325.576793831,-2.886073079974081,-0.3815611650333783,34.74,NONE,0.0,0.0,0.0,NONE,-1.8767240041073695E-8,7.845287743421336E-7,-0.019165039,2,80.38,78.06,78.76,77.87,15.7,15.7,5.604,17.059973,0,3395,3.894,12.0,17.733,98,24.2,OK,51,0,0,0,0,0,65,100,0.0,0,0.0,167124.0,9.0E-44,0.0,1.02418684E27,64,8.7011742E13,-62.98463,2.2139522E-5,False,False,0,None,-1.716162E-14,1.4558112E-8,
213972584,22.259,9.103187135754458,62.69148746708858,13,593.77844,590.4425,-0.3458216,0.2557439,-0.5998762,0.73813885,-7.8076096,-16.878483,45.082664,48.7677,1094,-187,1041,1521.0,17.239038,2.3741288,-4.0987964,17.877949,17.401750568594025,-0.15143542504624463,-3.276018366233777,-28.40810480747531,22.80386297821199,22.80386297821201,17.76466982301095,95.08617469228165,18.87353747871258,15.370921944274846,160.5103324873218,171.24929262676295,5.016806992140754,7.521318907081457,35.1,65.0660403828125,,9.1031831,62.6914762,20190821,180142,2019-08-21T18:01:42Z,685.832,0.8,1.65,8.52,7,6,13,17.18,2.01,-4.26,0,10000,5065,7477,4,4,9.103201828793669,62.690043978729,120,7018005,181,35,339,1160,3674,3798,3802,0,15204,22,58118,2,0,false,false,false,false,false,false,false,false,false,false,7152,6945,7793,7127,49,63,63,49,1685,1628,1731,1630,1684,1611,1725,1605,0.0,0.0,0.0,0.0,1595.7,1588.9,1589.5,1595.7,5.41,2.34,5.78,2.13,0,0,0,0,29.149093033434838,9.103182559387264,62.69147463680813,0,593.8623,586.3158,-0.37655956,0.24028446,-0.8731349,0.98076415,1.3692775,-5.7934475,5.708306,8.247649,1088,-184,1044,1519.0,17.26854,2.2539544,-4.0137033,17.871557,17.415015816211774,-0.12435367797635521,-2.2688500467686454,-27.635357015437574,22.1264888406201,22.126488840620084,124.92852759363102,25.64602630720281,-36.08984769910507,16.64818434708675,159.08495744376643,7012342.888865841,3.905510186716259,6.410022101656962,35.09,NONE,0.0,0.0,0.0,NONE,2.169272606966944E-7,7.756193518769517E-7,-0.020019531,2,70.35,60.86,75.86,60.75,15.749,15.749,5.574,17.686832,0,3390,3.896,12.0,16.899,98,24.3,OK,52,0,0,0,0,0,65,100,0.0,0,0.0,372528.0,9.0E-44,0.0,1.02418684E27,64,5.2382108E15,-494.48642,4.4626428E-5,False,False,0,None,-3.2280602E-14,9.974111E-8,
217852652,23.267,9.103262714363504,62.69163741702576,13,595.5519,593.3615,-0.309392,0.3385609,-0.97115904,1.0740097,7.283823,9.824695,23.211445,26.236422,1170,-283,948,1532.0,16.568684,6.076889,-2.0629814,17.76811,17.647942078869725,-0.6770631815876698,-1.1980684508149226,-34.66240183458515,44.820735988936654,44.82073598893663,33.71580033378724,112.69062000890038,11.596091954098478,32.069980641583165,177.20947815078313,188.4077098903575,17.93031472785696,20.434826642797663,35.35,66.8394778828125,,9.1032546,62.6916263,20190821,180143,2019-08-21T18:01:43Z,688.854,0.8,1.65,8.43,7,6,13,16.42,5.28,-3.21,0,10000,3473,6800,4,4,9.103201828793669,62.690043978729,120,7622806,181,35,340,1139,3669,3797,3800,0,15197,22,58118,2,0,false,false,false,false,false,false,false,false,false,false,7183,7107,7081,7229,49,64,64,49,1710,1698,1704,1713,1697,1687,1706,1703,0.0,0.0,0.0,0.0,1571.1,1564.4,1563.8,1571.1,6.56,5.23,5.87,5.34,0,0,0,0,-84.89783474764181,9.103264636969516,62.69163963848406,0,595.64355,589.5126,-0.30506173,0.34033996,-0.9730461,1.0750408,0.86315745,8.30439,34.03383,35.042965,1170,-283,948,1532.0,16.476618,6.064364,-1.8854573,17.658155,17.55720543385206,1.1048664018832817,-1.7632334017601539,-34.24550884107845,45.79030395222399,45.79030395222401,145.988693170385,39.88318373717627,-45.4612059101329,30.59655991170817,177.45819902050633,7012361.753351545,16.89292731939878,19.397439234339483,35.35,NONE,0.0,0.0,0.0,NONE,4.5243681003539863E-7,7.442324314362121E-7,-0.010253906,2,72.25,70.91,73.39,72.79,15.729,15.729,5.643,18.04004,675,3385,3.901,12.0,16.785,98,24.4,OK,53,0,0,0,0,0,65,100,0.0,0,0.0,131316.0,2.69E-43,0.0,1.02418684E27,64,1.04814244E17,-2206.3289,1.10377114E-4,False,False,0,None,-7.793592E-14,3.9160116E-7,
221714679,24.271,9.10342365304338,62.69177694231586,13,593.3384,595.40027,-0.100685686,0.31344333,-0.82813156,0.8911712,23.600187,21.44734,-9.343641,33.23042,913,-169,1221,1533.0,13.306629,10.51576,-1.874408,17.06344,16.96017638492632,0.5276414299941372,9.726420521397513,-35.545943447679754,104.99965639722018,104.99965639722018,76.69057043554025,151.1186801736684,9.8310445379455,80.8838448937709,193.02875922813246,206.03872007835872,34.41690406996002,36.92141598490072,35.71,64.62597690625,,9.1034093,62.6917672,20190821,180145,2019-08-21T18:01:45Z,691.112,0.8,1.65,8.34,7,6,13,14.45,9.75,-2.51,0,10000,0,5374,4,4,9.103201828793669,62.690043978729,120,8227607,181,35,341,1123,3668,3794,3798,0,15188,26,58118,1,0,false,false,false,false,false,false,false,false,false,false,3935,4161,3109,4057,50,64,64,50,1406,1380,1324,1419,1433,1420,1323,1384,0.0,0.0,0.0,0.0,1647.2,1650.2,1647.8,1648.4,1.62,0.63,1.65,1.76,0,0,0,0,-142.17623425496691,9.103426696476658,62.69177821581287,0,593.34467,591.55286,-0.093872674,0.31000698,-0.80800545,0.8705109,27.833923,16.688835,-6.3378453,33.066795,913,-169,1221,1533.0,13.249185,10.430949,-1.7876394,16.95704,16.862549660555118,0.5593748517508921,9.83437361643697,-35.01974447115838,105.68712059812427,105.68712059812424,189.6123000145116,80.28710222376951,-50.64474892213389,78.85589522095759,193.1792800274375,7012379.318472874,34.61582976631385,37.12034168125455,35.72,NONE,0.0,0.0,0.0,NONE,9.850879808029103E-7,6.237569923977078E-7,-0.010375977,2,38.85,37.03,27.49,34.86,15.941,15.941,5.879,18.089027,673,3382,3.924,12.0,12.851,97,24.4,OK,54,0,0,0,0,0,65,100,0.0,0,0.0,3678.625,2.69E-43,0.0,1.02418684E27,64,8.9304973E17,-6654.4077,3.1741904E-4,False,False,0,None,-1.9781746E-13,1.0132281E-6,
225684027,25.303,9.103672310274607,62.691863735827496,13,601.2836,597.6646,-0.18160953,0.29075244,-1.0957342,1.1481082,12.592207,-6.5331793,3.1296642,14.527247,740,-227,1302,1514.0,6.7218976,14.24041,-3.673568,16.169981,15.747164031940104,-0.29674128466391636,6.234435846528242,-28.344117750386147,105.01690266401249,105.01690266401249,78.13163174016415,147.35049944361907,18.364182940443612,82.47332108301012,203.76627430924574,222.1489514638515,61.8458079548381,64.3503198697788,36.11,72.57122837109375,,9.1036497,62.691858,20190821,180145,2019-08-21T18:01:45Z,694.037,0.8,1.65,8.26,7,6,13,7.47,13.64,-2.92,0,10000,0,10000,4,4,9.103201828793669,62.690043978729,120,8832408,181,35,342,1077,3652,3792,3797,0,15180,25,58118,2,0,false,false,false,false,false,false,false,false,false,false,6674,6672,6063,6636,51,63,63,51,1672,1680,1600,1677,1672,1637,1576,1685,0.0,0.0,0.0,0.0,1585.8,1578.5,1580.3,1585.8,5.63,5.84,5.02,5.12,0,0,0,0,-138.3719577160382,9.103674764534258,62.69186373598143,0,600.935,594.5282,-0.18556292,0.28615102,-1.0874714,1.1396973,6.784948,-1.5640385,4.6924644,8.396485,740,-227,1302,1514.0,6.533663,14.107474,-3.8935757,16.02715,15.547011914441098,-0.20260764230697959,6.325823822891616,-28.372408962057662,105.02563979619953,105.02563979619953,187.40479380488117,74.8342963404816,-42.86593409143015,82.5822547806853,203.781077070885,7012395.320507998,62.018224876254656,64.52273679119536,36.09,NONE,0.0,0.0,0.0,NONE,1.3075908498648267E-6,3.5991768606280557E-7,-0.018188477,2,69.75,64.98,56.83,70.72,16.104,16.104,5.689,17.71243,686,3379,3.913,12.0,9.553,97,24.5,OK,55,0,0,0,0,0,65,100,0.0,0,0.0,20.6875,2.69E-43,0.0,1.02418684E27,64,1.6809123E19,-28856.13,4.344304E-4,False,False,0,None,-2.6826458E-13,3.9032025E-6,
229547625,26.307,9.103970182418,62.69190000995165,13,605.5426,601.70166,-0.17148809,0.17895284,-0.5225162,0.5783212,27.898762,-20.035841,20.741432,40.12459,819,-243,1266,1527.0,2.5182323,16.020073,-2.685732,16.437681,16.216788289057405,-0.5597635204360198,5.642015452573534,-34.25162753986311,110.70827923455924,110.70827923455926,82.41909630830519,150.86820133909163,11.201271199395572,92.91930907472528,210.07064467701787,237.93422507408204,80.88236413417174,83.38687604911244,36.38,76.8302005390625,,9.103947,62.6918977,20190821,180147,2019-08-21T18:01:47Z,697.879,0.8,1.65,8.18,7,6,13,2.81,15.96,-3.48,1456,10000,2845,2131,4,4,9.103201828793669,62.690043978729,120,9437209,181,35,343,1047,3640,3790,3795,0,15175,23,58118,2,0,false,false,false,false,false,false,false,false,false,false,5702,5737,5727,5605,50,62,62,50,1547,1565,1514,1495,1533,1580,1480,1503,0.0,0.0,0.0,0.0,1627.6,1620.2,1621.4,1625.1,3.82,3.42,3.02,2.03,0,0,0,0,124.27555146252882,9.10397589662171,62.69190000195582,0,605.61145,598.1645,-0.1758559,0.18255572,-0.5337058,0.59084153,23.608091,-14.1332445,6.1737003,28.199383,819,-243,1266,1527.0,2.5034564,15.923796,-2.58561,16.325438,16.11938473419455,-0.3024584892126043,5.5132170335016975,-34.07767729590952,111.0888119097768,111.08881190977678,194.07587683101775,78.67984833103579,-46.55254130862722,92.30589890228842,210.12436028137745,7012411.260636205,78.61542491036224,81.11993682530294,36.36,NONE,0.0,0.0,0.0,NONE,1.5489450938585967E-6,1.2842445871879955E-7,-0.01574707,2,51.39,57.55,44.96,48.28,16.051,16.051,5.799,16.951227,716,3375,3.956,12.0,13.017,97,24.5,OK,56,0,0,0,0,0,65,100,0.0,0,0.0,0.041366577,2.69E-43,0.0,1.02418684E27,64,8.228797E20,-202773.05,3.2413946E-4,False,False,0,None,-2.0069016E-13,2.410461E-5,mcID(SN)|298DG13001W644
233450919,27.321,9.10427904707935,62.69190011834089,13,602.3206,602.5224,-0.21624778,0.08681747,-1.1786515,1.2014656,11.374096,0.07932232,85.841896,86.59219,340,450,1386,1496.0,-2.871706,15.086529,-0.0055803955,15.35741,15.357409827867906,0.1744395165718018,28.78902376643419,-22.05127507099255,131.10932198923678,131.10932198923678,86.26244086599047,176.61576588685628,28.193663470515432,129.14178497000714,213.5841290926136,253.76488772051982,96.77114298809211,99.27565490303282,36.58,73.60821567578125,,9.1042572,62.6919015,20190821,180148,2019-08-21T18:01:48Z,699.103,0.8,1.65,8.1,7,6,13,-1.74,15.57,-1.57,8281,10000,6844,0,4,4,9.103201828793669,62.690043978729,120,10042010,181,35,344,1027,3650,3788,3793,0,15168,23,58118,3,0,false,false,false,false,false,false,false,false,false,false,5370,4539,6134,5081,50,63,62,51,1526,1520,1557,1555,1500,1538,1532,1569,0.0,0.0,0.0,0.0,1613.5,1606.7,1607.3,1614.1,4.25,5.02,3.62,5.96,0,0,0,0,9.647192535359181,9.10428443170695,62.691899079550524,0,602.36475,598.4519,-0.21617228,0.084845565,-1.189017,1.2114829,16.252535,9.639734,73.52687,75.91621,340,450,1386,1496.0,-2.8140652,14.934631,0.2040319,15.198809,15.197439700881002,0.31816144200522345,27.531101341766536,-21.74907865784039,132.47248335110115,132.47248335110112,199.5672722048584,105.1181566096289,-26.947918570466566,131.88800875045072,213.54339250005387,7012427.069609395,97.05683936963,99.5613512845707,36.58,NONE,0.0,0.0,0.0,NONE,1.5166802339105102E-6,-3.220890464810184E-8,-4.8828125E-4,2,46.43,53.7,50.99,55.98,16.292,16.292,5.831,16.004326,758,3372,4.011,12.0,9.378,97,24.6,OK,57,0,0,0,0,0,65,100,0.0,0,0.0,6.264262E-5,2.69E-43,0.0,3.3654391E38,64,1.17389026E21,-241741.05,4.0698992E-4,False,False,0,None,-2.4481805E-13,2.8267621E-5,mcVer|v3.4.1.6
237304594,28.323,9.104532612706215,62.69184724378046,13,603.6159,602.30005,-0.27228123,-0.008868506,-1.1271296,1.1595848,-9.54334,1.3221539,-12.545719,15.818296,156,579,1344,1471.0,-8.569264,10.988631,-0.13129795,13.93555,13.93493136013661,0.2517846605324685,32.96510306865503,-15.565058935777664,138.91892258980474,138.91892258980477,89.49024447291457,179.06687187136905,38.35859352853063,133.96789408161553,211.69529886636712,268.1176766210454,124.61038076367441,127.11489267861512,36.75,74.90350376171875,,9.1045166,62.6918524,20190821,180148,2019-08-21T18:01:48Z,699.266,0.8,1.65,8.04,7,6,13,-7.71,11.71,-0.52,9998,10000,0,0,4,4,9.103201828793669,62.690043978729,120,10066877,48,35,345,1023,3646,3788,3793,0,15167,23,212,5,0,false,false,false,false,false,false,false,false,false,false,5323,5415,6038,6204,51,63,63,51,1525,1536,1592,1617,1510,1527,1597,1610,0.0,0.0,0.0,0.0,1614.1,1609.1,1608.5,1612.9,4.46,4.0,4.64,4.63,0,0,0,0,-2.8168027051212334,9.104536984600351,62.691845207439584,0,603.543,598.3763,-0.27764636,-0.011383416,-1.125261,1.1590639,11.111214,5.504931,17.39477,21.362148,156,579,1344,1471.0,-8.558114,10.862369,0.01267917,13.828685,13.828678926052328,0.3574309968336582,31.9908095349211,-14.707421006557283,138.2286337308726,138.22863373087262,208.8406165433013,115.6017744758255,-17.92681274259861,134.40108274587016,211.55254494399597,7012441.422748337,124.85746820213696,127.36198011707766,36.74,NONE,0.0,0.0,0.0,NONE,1.112095903145464E-6,-3.6019151453955494E-7,0.0,2,48.66,51.34,60.26,61.27,16.305,16.305,5.801,14.894334,814,3370,3.982,12.0,7.214,97,24.7,OK,58,0,0,0,0,0,65,100,0.0,0,0.0,1.7969069E-7,2.69E-43,0.0,3.3654391E38,64,1.0907538E21,-232513.05,3.527497E-4,False,False,0,None,-2.1291302E-13,2.7281816E-5,
241161522,29.325,9.104707536609409,62.69175123676718,13,605.6571,602.79865,-0.29870492,-0.092430554,-1.0144697,1.0615634,-15.532794,-6.125915,30.70361,34.95005,670,54,1335,1494.0,-12.529612,8.247075,-0.17048427,15.001149,15.000180052630306,-1.1196241640710056,9.072131185312275,-34.735491313719095,146.0963854595059,146.09638545950588,106.70766468378659,162.14294157088196,21.494816176676593,142.57672278082256,204.79018248514882,282.1017900979046,144.2843120349622,146.7888239499029,37.11,76.9447024921875,,9.1046956,62.6917594,20190821,180150,2019-08-21T18:01:50Z,699.359,0.8,1.65,7.99,7,6,13,-11.89,8.01,-0.16,0,10000,2326,0,4,4,9.103201828793669,62.690043978729,120,10066877,48,35,346,1023,3646,3788,3793,0,15167,23,212,5,0,false,false,false,false,false,false,false,false,false,false,6434,6614,7001,7060,51,64,63,50,1642,1672,1671,1696,1625,1680,1643,1692,0.0,0.0,0.0,0.0,1588.9,1582.2,1582.8,1587.7,5.13,5.34,5.7,5.74,0,0,0,0,6.811547126670007,9.104711157819576,62.69174847998812,0,605.5631,598.549,-0.29979184,-0.0943502,-1.0034496,1.051517,-11.677801,0.4581583,29.9486,32.14809,670,54,1335,1494.0,-12.438285,8.166567,0.08102796,14.879863,14.879642050754908,-0.9620367750429963,7.909434893945954,-33.91153100643691,145.3168104352816,145.31681043528158,225.1971071192444,97.58043046562976,-34.407293647228805,144.98067596928425,204.5755169510887,7012455.441188558,144.3701291333566,146.87464104829732,37.12,NONE,0.0,0.0,0.0,NONE,8.042323554693989E-7,-5.091748315092716E-7,2.4414062E-4,2,62.68,70.2,65.27,71.93,16.252,16.252,5.705,13.654983,887,3368,4.083,12.0,9.508,97,24.7,OK,59,0,0,0,0,0,65,100,0.0,0,0.0,9.930545E-10,2.69E-43,0.0,3.3654391E38,64,1.25618E21,-246681.05,1.7208331E-4,False,False,0,None,-1.0930146E-13,2.8795681E-5,
245059035,30.338,9.10489793622136,62.691612527939824,13,604.1248,603.04865,-0.38594976,-0.11894172,-0.95807594,1.0397182,7.4334965,2.8934402,2.2180893,8.27942,627,-270,1350,1512.0,-14.939087,9.776622,-0.22332332,17.85521,17.853813794038167,0.14050946984810864,0.7889374774913297,-30.905723507214844,140.31803613699032,140.31803613699032,109.41507619078853,153.31912204572515,24.6533569576386,118.00234206332145,194.6984707630859,300.32991896173706,144.74027713551706,147.24478905045777,37.55,75.41241489453125,,9.1048642,62.6916357,20190821,180150,2019-08-21T18:01:50Z,699.263,0.8,1.65,7.97,7,6,13,-14.68,9.23,0.08,0,10000,0,0,4,4,9.103201828793669,62.690043978729,120,10066877,48,35,347,1023,3646,3788,3793,0,15167,23,212,5,0,false,false,false,false,false,false,false,false,false,false,6297,6450,7106,7068,52,63,63,51,1615,1644,1687,1679,1611,1616,1674,1681,0.0,0.0,0.0,0.0,1595.0,1588.3,1587.0,1594.4,4.77,4.79,5.74,4.75,0,0,0,0,7.623571331187975,9.104881321806802,62.691623168009954,0,604.4176,598.6545,-0.37909126,-0.12098668,-0.97309995,1.0513189,0.39028758,4.497455,0.5968199,4.553638,650,-246,1338,1507.0,-14.68049,9.58183,0.052660022,17.530859,17.530779990357317,-1.3237540247341641,0.6790065363811523,-30.493904994981353,139.3329518389049,139.33295183890493,224.81349807081608,88.73953162138055,-30.9436404431988,114.1394539355507,195.3858700145449,7012471.859063406,144.83489513484494,147.33940704978565,37.51,NONE,0.0,0.0,0.0,NONE,9.165574899951808E-7,-6.521275274431649E-7,4.8828125E-4,2,61.46,61.95,69.09,69.99,16.112,16.112,5.687,12.535697,966,3365,4.057,12.0,12.236,97,24.8,OK,60,0,0,0,0,0,65,100,0.0,0,0.0,2.6295632E-12,2.69E-43,0.0,3.3654391E38,64,1.5383936E21,-262554.1,6.345336E-5,False,False,0,None,-4.7338E-14,3.0469268E-5,
