Tick#,offsetTime,IMU_ATTI(0):Longitude,IMU_ATTI(0):Latitude,IMU_ATTI(0):numSats,IMU_ATTI(0):barometer:Raw,IMU_ATTI(0):barometer:Smooth,IMU_ATTI(0):accel:X,IMU_ATTI(0):accel:Y,IMU_ATTI(0):accel:Z,IMU_ATTI(0):accel:Composite,IMU_ATTI(0):gyro:X,IMU_ATTI(0):gyro:Y,IMU_ATTI(0):gyro:Z,IMU_ATTI(0):gyro:Composite,IMU_ATTI(0):mag:X,IMU_ATTI(0):mag:Y,IMU_ATTI(0):mag:Z,IMU_ATTI(0):mag:Mod,IMU_ATTI(0):velN,IMU_ATTI(0):velE,IMU_ATTI(0):velD,IMU_ATTI(0):velComposite,IMU_ATTI(0):velH,IMU_ATTI(0):GPS-H,IMU_ATTI(0):roll,IMU_ATTI(0):pitch,IMU_ATTI(0):yaw,IMU_ATTI(0):yaw360,IMU_ATTI(0):totalGyro:Z,IMU_ATTI(0):totalGyro:X,IMU_ATTI(0):totalGyro:Y,IMU_ATTI(0):magYaw,IMU_ATTI(0):distanceHP,IMU_ATTI(0):distanceTravelled,IMU_ATTI(0):directionOfTravel[mag],IMU_ATTI(0):directionOfTravel[true],IMU_ATTI(0):temperature,General:relativeHeight,General:absoluteHeight,GPS(0):Long,GPS(0):Lat,GPS(0):Date,GPS(0):Time,GPS:dateTimeStamp,GPS(0):heightMSL,GPS(0):hDOP,GPS(0):pDOP,GPS(0):sAcc,GPS(0):numGPS,GPS(0):numGLNAS,GPS(0):numSV,GPS(0):velN,GPS(0):velE,GPS(0):velD,RC:Aileron,RC:Elevator,RC:Rudder,RC:Throttle,Controller:navHealth,Controller:ctrl_level,HP:Longitude,HP:Latitude,HP:rthHeight,BatBlackBox:tick,BatBlackBox:id,BatBlackBox:rsoc,BatBlackBox:index,BatBlackBox:rm,BatBlackBox:fcc,BatBlackBox:cell_min,BatBlackBox:cell_max,BatBlackBox:current,BatBlackBox:voltage,BatBlackBox:temp,BatBlackBox:flag,BatBlackBox:reserve,BatBlackBox:user_data,OA:avoidObst,OA:emergBrake,OA:radiusLimit,OA:airportLimit,OA:groundForceLanding,OA:horizNearBoundary,OA:vertLowLimit,OA:vertAirportLimit,OA:roofLimit,OA:hitGroundLimit,Motor:Speed:RFront,Motor:Speed:LFront,Motor:Speed:LBack,Motor:Speed:RBack,Motor:EscTemp:RFront,Motor:EscTemp:LFront,Motor:EscTemp:LBack,Motor:EscTemp:RBack,Motor:PPMrecv:RFront,Motor:PPMrecv:LFront,Motor:PPMrecv:LBack,Motor:PPMrecv:RBack,Motor:PPMsend:RFront,Motor:PPMsend:LFront,Motor:PPMsend:LBack,Motor:PPMsend:RBack,Motor:V_out:RFront,Motor:V_out:LFront,Motor:V_out:LBack,Motor:V_out:RBack,Motor:Volts:RFront,Motor:Volts:LFront,Motor:Volts:LBack,Motor:Volts:RBack,Motor:Current:RFront,Motor:Current:LFront,Motor:Current:LBack,Motor:Current:RBack,Motor:Status:RFront,Motor:Status:LFront,Motor:Status:LBack,Motor:Status:RBack,Motor:thrustAngle,IMU_ATTI(1):Longitude,IMU_ATTI(1):Latitude,IMU_ATTI(1):numSats,IMU_ATTI(1):barometer:Raw,IMU_ATTI(1):barometer:Smooth,IMU_ATTI(1):accel:X,IMU_ATTI(1):accel:Y,IMU_ATTI(1):accel:Z,IMU_ATTI(1):accel:Composite,IMU_ATTI(1):gyro:X,IMU_ATTI(1):gyro:Y,IMU_ATTI(1):gyro:Z,IMU_ATTI(1):gyro:Composite,IMU_ATTI(1):mag:X,IMU_ATTI(1):mag:Y,IMU_ATTI(1):mag:Z,IMU_ATTI(1):mag:Mod,IMU_ATTI(1):velN,IMU_ATTI(1):velE,IMU_ATTI(1):velD,IMU_ATTI(1):velComposite,IMU_ATTI(1):velH,IMU_ATTI(1):GPS-H,IMU_ATTI(1):roll,IMU_ATTI(1):pitch,IMU_ATTI(1):yaw,IMU_ATTI(1):yaw360,IMU_ATTI(1):totalGyro:Z,IMU_ATTI(1):totalGyro:X,IMU_ATTI(1):totalGyro:Y,IMU_ATTI(1):magYaw,IMU_ATTI(1):distanceHP,IMU_ATTI(1):distanceTravelled,IMU_ATTI(1):directionOfTravel[mag],IMU_ATTI(1):directionOfTravel[true],IMU_ATTI(1):temperature,IMUEX(0):err,IMUEX(0):rtk_Longitude,IMUEX(0):rtk_Latitude,IMUEX(0):rtk_Alti,IMUEX(1):err,IMUEX(1):rtk_Longitude,IMUEX(1):rtk_Latitude,IMUEX(1):rtk_Alti,BattInfo:Voltage,BattInfo:BatVoltage,BattInfo:AdVoltage,BattInfo:AvgCurrent,BattInfo:R_time,BattInfo:R_CAP_MAH,BattInfo:LowCellVoltage,BattInfo:LowCellVolThreshold,BattInfo:BatCurrent,BattInfo:Remaining%,BattInfo:Temp,BattInfo:status,battery_info:BatDynCnt,battery_info:Vol1Protect,battery_info:Vol2Protect,battery_info:Cap1Protect,battery_info:Cap2Protect,battery_info:Batpresent,battery_info:sopPercentage,battery_info:sopValue,battery_info:sopScale,battery_info:sopFlg,BattInfo:WindHeading:WindDir,battery_info:home_dir,BattInfo:Wind:rangeMin,BattInfo:Wind:rangeMax,battery_info:cap_speed,battery_info:against_wind,battery_info:emergency_land_cap,battery_info:intel_bat_land_cap,battery_info:intel_bat_gh_cap,BattInfo:Smart:SmartGh,BattInfo:Smart:SmartLand,BattInfo:GoHome:CntDown,BattInfo:GoHome:GhCmd,BattInfo:GoHome:CapLevel,BattInfo:GoHome:LandCapLv,Attribute|Value,ConvertDatV3,3.6.6-Tablet
6896630,1.533,,,,,,,,,,,,,,,,,,,,,,,,,,,,,,,,,,,,,,,,,,,,,,,,,,,,,,,,,,,,,,,,,,,,,,,,,,,,,,,,,,,,,,,,,,,,,,,,,,,,,,,,,,,,,,,,,,,,,,,,,,,,,,,,,,,,,,,,,,,,,,,,,,,,,,,,,,,,,,,,,,,,,,,,,,,,,,,OK,,,,,,,,,,,,,,,,,,,,,,,,,,Firmware Date|
55311915,12.292,,,,,,,,,,,,,,,,,,,,,,,,,,,,,,,,,,,,,,,,,,,,,,,,,,,,,,,,,,,,,,,,,,,,,,,,,,,,,,,,,,,,,,,,,,,,,,,,,,,,,,,,,,,,,,,,,,,,,,,,,,,,,,,,,,,,,,,,,,,,,,,,,,,,,,,,,,,,,,,,,,,,,,,,,,,,,,,OK,,,,,,,,,,,,,,,,,,,,,,,,,,ACType|UNKNOWN
59847567,13.299,,,0,76.289055,76.38876,-0.49900848,0.58291405,-0.71788204,1.0507869,-11.242749,39.572426,-48.189476,63.360886,957,-767,886,1512.0,0.0,0.0,0.09406338,0.09406338,0.0,0.0,-30.59901899834871,-28.074865961133465,7.495752859804742,7.495752859804725,-8.099489765493287,-12.939586714224792,15.648998660009172,34.73383191695194,,0.0,,,42.6,,,0.0,0.0,20151018,13,2015-10-18T00:00:13Z,-17.0,99.99,99.99,3.75E7,0,0,0,0.0,0.0,0.0,0,0,0,0,0,0,,,,,,,,,,,,,,,,,,false,false,false,false,false,false,false,false,false,false,0,0,0,0,48,62,62,49,944,945,944,945,940,940,940,940,0.0,0.0,0.0,0.0,1539.3,1534.3,1534.3,1538.6,0.0,0.0,0.0,0.0,0,0,0,0,-45.0,9.037075308062886E-9,-2.1617902242945352E-8,0,76.289055,76.23024,-0.49900848,0.58291405,-0.71788204,1.0507869,-11.242749,39.572426,-48.189476,63.360886,957,-767,886,1512.0,-0.485088,0.20473634,0.23634867,0.5771378,0.526523828642877,-0.526523828642877,-29.159573217304864,-27.525613427140847,-2.5298371370588435,357.47016286294115,-8.09933266295359,-12.939603772876788,15.648680638554467,36.78950030216671,,0.006982236090472109,,,42.6,NONE,0.0,0.0,0.0,NONE,7.93020502672178E-9,-1.9434882019668797E-8,0.0012359619,15.478,15.478,5.526,1.4363532,0,1923,3.862,12.0,1.316,52,26.4,OK,14,0,0,0,0,0,65,100,0.0,0,0.0,589232.0,2.69E-43,0.0,3.6151733,67,1.15966424E-4,-1.1596691E-4,9.4E-44,False,False,0,None,0.0,1.0842022E-19,dateTime|2015-10-18 0:0:12 GMT
64441864,14.320,0.0,0.0,0,75.54128,75.52733,-0.108597025,0.09433611,-1.1612861,1.1701616,36.34792,23.82914,8.57858,44.301144,418,-508,1242,1405.0,0.0,0.0,0.96544373,0.96544373,0.0,0.0,-8.650946445151202,-0.8643029264181072,28.86057129805314,28.860571298053117,4.1778173702777215,7.768810892619795,36.47273773211564,38.376517287491865,,0.0,,,43.03,-0.8485943461914047,,0.0,0.0,20151018,14,2015-10-18T00:00:14Z,-17.0,99.99,99.99,3.75E7,0,0,0,0.0,0.0,0.0,0,0,0,0,0,0,,,,,,,,,,,,,,,,,,false,false,false,false,false,false,false,false,false,false,0,0,0,0,48,63,62,48,944,945,945,945,940,940,940,940,0.0,0.0,0.0,0.0,1539.3,1534.3,1534.3,1538.6,0.0,0.0,0.0,0.0,0,0,0,0,-45.0,8.337083407897893E-9,2.8390574580162825E-9,0,75.54128,75.63499,-0.108597025,0.09433611,-1.1612861,1.1701616,36.34792,23.82914,8.57858,44.301144,418,-508,1242,1405.0,0.06027382,0.18392892,0.8942261,0.9149334,0.19355304728870631,-0.19088828362302387,-7.211269734767751,-1.3679035102729864,20.007340462951408,20.00734046295139,4.177307750382422,7.76830649696324,36.472140233583765,41.972973418444845,,0.01617154810676162,,,43.03,NONE,0.0,0.0,0.0,NONE,1.1702795987905147E-8,4.372064114094625E-9,0.0063171387,15.475,15.475,5.525,1.4028411,0,1922,3.863,12.0,1.319,52,26.4,OK,15,0,0,0,0,0,65,100,0.0,0,0.0,589232.0,2.69E-43,0.0,3.6151733,67,1.15966424E-4,-1.1596691E-4,9.4E-44,False,False,0,None,0.0,1.0842022E-19,
69063662,15.347,0.0,0.0,0,75.11587,75.31445,0.05430433,-0.0073273648,-0.98018426,0.9817147,0.32834426,-0.021712352,0.07597409,0.33771798,129,-258,1316,1347.0,0.0,0.0,0.17898281,0.17898281,0.0,0.0,-1.032384378268611,2.899504552339634,24.358512860032953,24.35851286003293,-0.12260192496344208,17.390551403155225,37.71376742350479,50.13352896629179,,0.0,,,43.38,-1.2740093852539047,,0.0,0.0,20151018,15,2015-10-18T00:00:15Z,-17.0,99.99,99.99,3.75E7,0,0,0,0.0,0.0,0.0,0,0,0,0,0,0,,,,,,,,,,,,,,,,,,false,false,false,false,false,false,false,false,false,false,0,0,0,0,48,63,64,48,944,945,944,945,940,940,940,940,0.0,0.0,0.0,0.0,1538.0,1533.7,1534.3,1538.0,0.0,0.0,0.0,0.0,0,0,0,0,-45.0,-6.7155427837441E-10,4.8146151825128E-9,0,75.11587,75.18643,0.05430433,-0.0073273648,-0.98018426,0.9817147,0.32834426,-0.021712352,0.07597409,0.33771798,129,-258,1316,1347.0,0.10833371,-0.015046101,0.37002042,0.38584673,0.10937356522164007,-0.10837507208749116,-0.3291904883566412,1.370213439093705,15.916192190536721,15.91619219053672,-1.3161843222194276,16.682252186648473,37.845802950745856,57.350158976426336,,0.019126822653433805,,,43.38,NONE,0.0,0.0,0.0,NONE,-7.717886912827749E-10,4.893992851617612E-9,0.0018005371,15.474,15.474,5.525,1.3748335,0,1922,3.862,12.0,1.333,52,26.4,OK,16,0,0,0,0,0,65,100,0.0,0,0.0,589232.0,2.69E-43,0.0,3.6151733,67,1.15966424E-4,-1.1596691E-4,9.4E-44,False,False,0,None,0.0,1.0842022E-19,
73571263,16.349,0.0,0.0,0,75.097374,75.233475,0.053745653,-0.008571497,-0.98137623,0.9828842,0.46604595,0.006865656,0.029663218,0.46703947,138,-261,1313,1345.0,0.020119166,-0.25006542,0.14700171,0.29076967,0.2508734702846265,-0.2508734702846265,-0.2933585866752288,2.7277861054558485,24.51060009751491,24.510600097514896,-0.12919351194641418,17.64080137559916,37.69889722219349,51.758367016126705,,0.0,,,43.69,-1.2925030375976547,,0.0,0.0,20151018,17,2015-10-18T00:00:17Z,-17.0,99.99,99.99,3.75E7,0,0,0,0.0,0.0,0.0,0,0,0,0,0,0,,,,2170199,48,13,238,444,3533,3742,3743,0,14971,29,212,5,0,false,false,false,false,false,false,false,false,false,false,0,0,0,0,50,64,63,49,943,945,944,945,940,940,940,940,0.0,0.0,0.0,0.0,1538.0,1533.1,1533.1,1538.6,0.0,0.0,0.0,0.0,0,0,0,0,-45.0,-6.782576117591564E-10,6.572419328473373E-11,0,75.097374,75.33489,0.053745653,-0.008571497,-0.98137623,0.9828842,0.46604595,0.006865656,0.029663218,0.46703947,138,-261,1313,1345.0,0.001460686,-0.015162186,0.011086318,0.018839637,0.015232382813738765,-0.014705220138809328,-0.22809679665989308,2.956169073548448,20.39446292526787,20.394462925267874,-1.2679681082228318,17.004244641705778,37.79518838827961,51.20838150236543,,0.021898661631383435,94.10657148656153,94.10657148656153,43.69,NONE,0.0,0.0,0.0,NONE,-7.448518803949533E-10,3.455205168963021E-11,6.1035156E-5,15.472,15.472,5.523,1.3529879,0,1922,3.862,12.0,1.321,52,26.4,OK,17,0,0,0,0,0,65,100,0.0,0,0.0,589232.0,2.69E-43,0.0,3.6151733,67,1.15966424E-4,-1.1596691E-4,9.4E-44,False,False,0,None,0.0,1.0842022E-19,
78279576,17.395,0.0,0.0,0,75.48051,75.40735,0.054342162,-0.007312966,-0.98079723,0.9823288,0.20479608,0.17361057,0.07162029,0.2778696,132,-261,1319,1351.0,0.0,0.0,0.03679467,0.03679467,0.0,0.0,-0.0976852527872141,2.6486472814013116,24.22686027935155,24.22686027935157,-0.10807094676346381,17.90898339575239,37.66197976219465,53.30497508510329,,0.0,,,44.06,-0.9093701030273422,,0.0,0.0,20151018,18,2015-10-18T00:00:18Z,-17.0,99.99,99.99,3.75E7,0,0,0,0.0,0.0,0.0,0,0,0,0,0,0,,,,2170199,48,13,239,444,3533,3742,3743,0,14971,29,212,5,0,false,false,false,false,false,false,false,false,false,false,0,0,0,0,49,63,64,49,944,945,944,944,940,940,940,940,0.0,0.0,0.0,0.0,1538.6,1534.3,1532.5,1538.6,0.0,0.0,0.0,0.0,0,0,0,0,-45.0,-1.8106676682806038E-10,-8.75074644348223E-11,0,75.48051,75.24313,0.054342162,-0.007312966,-0.98079723,0.9823288,0.20479608,0.17361057,0.07162029,0.2778696,132,-261,1319,1351.0,-0.001985635,-0.004070358,0.045202456,0.045428764,0.004528858654948548,-0.004473567051711013,-0.17416964431798854,3.14001744726545,20.54669836978868,20.546698369788658,-1.2468442937208115,17.272428952358663,37.758271664223365,51.5442306379203,,0.023772968379299268,,,44.06,NONE,0.0,0.0,0.0,NONE,-4.488634726275488E-10,-2.398120532087072E-10,6.1035156E-4,15.47,15.47,5.524,1.3373113,0,1921,3.862,12.0,1.354,52,26.4,OK,18,0,0,0,0,0,65,100,0.0,0,0.0,589232.0,2.69E-43,0.0,-5.9807744E7,62,1.15966424E-4,-1.1596691E-4,9.4E-44,False,False,0,None,0.0,1.0842022E-19,
82787262,18.397,0.0,0.0,0,75.720955,75.59562,0.05405486,-0.007888489,-0.9794877,0.98100984,0.25243285,-0.028178139,0.070783935,0.2636792,129,-258,1322,1353.0,0.12083633,-0.0679955,0.011951404,0.13916768,0.13865355249703673,-0.13865355249703673,0.026659516699699664,2.6571094100260173,24.078992696458563,24.078992696458556,-0.0421792487201679,18.170867940246474,37.634916740310516,53.675509260543194,,0.0,,,44.46,-0.6689221049804672,,0.0,0.0,20151018,19,2015-10-18T00:00:19Z,-17.0,99.99,99.99,3.75E7,0,0,0,0.0,0.0,0.0,0,0,0,0,0,0,,,,2170201,114,13,240,444,3533,3742,3743,0,14974,29,3555,4,0,false,false,false,false,false,false,false,false,false,false,0,0,0,0,49,63,62,49,944,944,944,945,940,940,940,940,0.0,0.0,0.0,0.0,1538.6,1534.3,1534.3,1538.6,0.0,0.0,0.0,0.0,0,0,0,0,-45.0,5.306364854720523E-11,1.308638055290368E-10,0,75.720955,75.27687,0.05405486,-0.007888489,-0.9794877,0.98100984,0.25243285,-0.028178139,0.070783935,0.2636792,129,-258,1322,1353.0,0.0029245038,0.0011870769,0.006265598,0.0070156674,0.003156243610604294,-0.003120704033808042,-0.05099564537615498,3.0660018083707636,20.8439332849137,20.843933284913703,-1.1813994074894703,17.535925123695307,37.7196632582135,52.1549072495776,,0.02383377656384034,,,44.46,NONE,0.0,0.0,0.0,NONE,5.5999370331781735E-11,5.101447341954717E-11,3.0517578E-5,15.469,15.469,5.522,1.3274728,0,1921,3.861,12.0,1.331,52,26.5,OK,19,0,0,0,0,0,65,100,0.0,0,0.0,589232.0,2.69E-43,0.0,-5.9807744E7,62,1.15966424E-4,-1.1596691E-4,9.4E-44,False,False,0,None,0.0,1.0842022E-19,
87395145,19.421,0.0,0.0,0,75.76059,75.7864,0.054053903,-0.007258574,-0.9798055,0.9813223,0.28347012,0.08997958,0.028537652,0.2987742,135,-264,1313,1346.0,0.20806882,0.014108501,3.040135E-4,0.20854682,0.20854659887026758,-0.20854659887026758,0.12550944042806605,2.650390660996829,23.98566746854314,23.98566746854317,-0.010373037880745489,18.417655099052816,37.61720279241773,53.76918957426989,,0.0,,,44.79,-0.6292874003906235,,0.0,0.0,20151018,20,2015-10-18T00:00:20Z,-17.0,99.99,99.99,3.75E7,0,0,0,0.0,0.0,0.0,0,0,0,0,0,0,,,,2173961,16,13,241,445,3533,3745,3746,0,14982,26,1,17517,0,false,false,false,false,false,false,false,false,false,false,0,0,0,0,49,63,63,49,944,945,944,944,940,940,940,940,0.0,0.0,0.0,0.0,1538.0,1533.7,1533.1,1536.8,0.0,0.0,0.0,0.0,0,0,0,0,-45.0,1.0279653803054063E-10,3.272070966988118E-10,0,75.76059,75.26515,0.054053903,-0.007258574,-0.9798055,0.9813223,0.28347012,0.08997958,0.028537652,0.2987742,135,-264,1313,1346.0,0.0072714286,0.002292365,0.011033436,0.013411388,0.007624212173855611,-0.007602217612734088,0.11031519603659756,2.802243216642074,20.41453540736906,20.414535407369044,-1.1517615570258433,17.78187076780235,37.70754656949746,53.25287615610126,,0.023925456362918304,,,44.79,NONE,0.0,0.0,0.0,NONE,8.081457266673957E-11,2.9197320621992063E-10,4.5776367E-5,15.468,15.468,5.523,1.3220687,0,1921,3.861,12.0,1.339,52,26.5,OK,20,0,0,0,0,0,65,100,0.0,0,0.0,589232.0,2.69E-43,0.0,-5.9807744E7,62,1.15966424E-4,-1.1596691E-4,9.4E-44,False,False,0,None,0.0,1.0842022E-19,
91953308,20.434,0.0,0.0,0,75.982544,75.8265,0.053508986,-0.007477267,-0.9807138,0.9822009,0.2712564,-0.0017028799,-0.08884701,0.28544128,132,-264,1307,1339.0,0.0,0.0,0.03427034,0.03427034,0.0,0.0,0.14027412774798337,2.6742657791785507,23.940622759734552,23.940622759734538,0.04340718279718952,18.67701157819721,37.60308439652837,54.18623460533093,,0.0,,,45.15,-0.4073330546874985,,0.0,0.0,20151018,21,2015-10-18T00:00:21Z,-17.0,99.99,99.99,3.75E7,0,0,0,0.0,0.0,0.0,0,0,0,0,0,0,,,,2176836,19,92,243,3227,3532,4318,4329,-23,17344,30,1,17291,0,false,false,false,false,false,false,false,false,false,false,0,0,0,0,49,64,63,50,944,945,944,944,940,940,940,940,0.0,0.0,0.0,0.0,1536.8,1534.3,1533.1,1538.0,0.0,0.0,0.0,0.0,0,0,0,0,-45.0,-9.012854159020882E-12,1.1031996238919011E-11,0,75.982544,75.26594,0.053508986,-0.007477267,-0.9807138,0.9822009,0.2712564,-0.0017028799,-0.08884701,0.28544128,132,-264,1307,1339.0,2.1825034E-4,-2.1173731E-4,-0.0012512861,0.0012877045,3.040820551645515E-4,-2.672672770457099E-4,0.12591910760626843,2.728762227162786,20.031117907360347,20.03111790736034,-1.0933885343019794,18.057397341162446,37.69340589916827,53.97859423940979,,0.024047501122654795,,,45.15,NONE,0.0,0.0,0.0,NONE,2.4718599766131826E-11,-1.823551478027124E-12,0.0,15.466,15.466,5.524,1.3221066,0,1920,3.86,12.0,1.371,52,26.5,OK,22,0,0,0,0,0,65,100,0.0,0,0.0,589232.0,2.69E-43,0.0,-5.9807744E7,62,1.15966424E-4,-1.1596691E-4,9.4E-44,False,False,0,None,0.0,1.0842022E-19,
96561147,21.458,0.0,0.0,0,75.512215,75.862015,0.053954586,-0.006724829,-0.9804459,0.9819524,0.3132073,-0.118725285,-0.015308294,0.3353041,135,-264,1307,1340.0,0.18929891,0.054009203,0.04461882,0.20184626,0.19685292271548618,-0.19685292271548618,0.20687546547200802,2.679473642835809,23.910167101843527,23.910167101843513,0.08141922287957301,18.94620809255746,37.59365025010472,53.9061591788142,,0.0,,,45.56,-0.8776623393554672,,0.0,0.0,20151018,22,2015-10-18T00:00:22Z,-17.0,99.99,99.99,3.75E7,0,0,0,0.0,0.0,0.0,0,0,0,0,0,0,,,,2177135,48,92,244,3227,3532,4292,4303,0,17173,29,212,5,0,false,false,false,false,false,false,false,false,false,false,0,0,0,0,50,64,63,50,945,945,944,945,940,940,940,940,0.0,0.0,0.0,0.0,1538.0,1533.1,1533.7,1537.4,0.0,0.0,0.0,0.0,0,0,0,0,-45.0,1.492535709904804E-10,3.2417856377069404E-10,0,75.512215,75.25627,0.053954586,-0.006724829,-0.9804459,0.9819524,0.3132073,-0.118725285,-0.015308294,0.3353041,135,-264,1307,1340.0,0.0072141904,0.0033265224,0.010674591,0.013306284,0.007944198873476997,-0.007906097103385076,0.24646456047557647,2.6479657219920743,19.818148466281915,19.81814846628191,-1.0615832619621859,18.343237076339523,37.69968591381484,54.098170303640636,,0.024129966118083473,,,45.56,NONE,0.0,0.0,0.0,NONE,1.0053141268808234E-10,2.4041702712249175E-10,3.0517578E-5,15.466,15.466,5.524,1.326104,0,1919,3.86,12.0,1.325,52,26.5,OK,23,0,0,0,0,0,65,100,0.0,0,0.0,589232.0,2.69E-43,0.0,-5.9807744E7,62,1.15966424E-4,-1.1596691E-4,9.4E-44,False,False,0,None,0.0,1.0842022E-19,
101169402,22.482,0.0,0.0,0,75.21892,75.65913,0.053179946,-0.0061477963,-0.9813716,0.98283064,0.24419546,-0.11105778,0.013171139,0.26858655,135,-261,1328,1360.0,0.0,0.0,0.109733716,0.109733716,0.0,0.0,0.2544186764679184,2.6824199655278096,23.89898330778228,23.89898330778226,0.06799816071847684,19.243887754077257,37.569018728072116,53.575514282457156,,0.0,,,45.9,-1.170959153320311,,0.0,0.0,20151018,23,2015-10-18T00:00:23Z,-17.0,99.99,99.99,3.75E7,0,0,0,0.0,0.0,0.0,0,0,0,0,0,0,,,,2177135,48,92,245,3227,3532,4292,4303,0,17173,29,212,5,0,false,false,false,false,false,false,false,false,false,false,0,0,0,0,49,63,64,50,945,945,944,946,940,940,940,940,0.0,0.0,0.0,0.0,1538.0,1533.1,1534.3,1537.4,0.0,0.0,0.0,0.0,0,0,0,0,-45.0,4.876228952451137E-11,6.403672275953217E-13,0,75.173996,75.249596,0.0536646,-0.007615255,-0.97929734,0.98079616,0.27691552,0.01441315,0.05540263,0.28277093,132,-261,1322,1353.0,2.6870857E-5,0.0010936246,9.684014E-4,0.0014610059,0.0010939547015950445,-0.0010571684523751357,0.3101562289401805,2.480318631842747,19.301914442342788,19.301914442342763,-1.0858183727207573,18.617851245175395,37.674849988574515,54.8193006979168,,0.024254514413503816,,,45.92,NONE,0.0,0.0,0.0,NONE,5.526733558098939E-11,2.2657790572749807E-12,0.0,15.465,15.465,5.524,1.3296233,0,1919,3.861,12.0,1.331,52,26.5,OK,24,0,0,0,0,0,65,100,0.0,0,0.0,589232.0,2.69E-43,0.0,-5.9807744E7,62,1.15966424E-4,-1.1596691E-4,9.4E-44,False,False,0,None,0.0,1.0842022E-19,
105777467,23.506,0.0,0.0,0,75.44351,75.46617,0.05379599,-0.007897175,-0.97856885,0.9800783,0.2615717,-0.012333464,0.061392087,0.26896256,135,-264,1310,1343.0,0.20810214,0.03381757,0.101017416,0.23378332,0.21083198663472433,-0.21083198663472433,0.277835029691614,2.709464757378204,23.891125346094558,23.891125346094555,0.09057729096688663,19.531241354351454,37.55930629554477,53.9593469525765,,0.0,,,46.18,-0.9463650371093735,,0.0,0.0,20151018,24,2015-10-18T00:00:24Z,-17.0,99.99,99.99,3.75E7,0,0,0,0.0,0.0,0.0,0,0,0,0,0,0,,,,2177135,48,92,246,3227,3532,4292,4303,0,17173,29,212,5,0,false,false,false,false,false,false,false,false,false,false,0,0,0,0,49,64,64,49,944,945,944,945,940,940,940,940,0.0,0.0,0.0,0.0,1538.6,1532.5,1532.5,1538.6,0.0,0.0,0.0,0.0,0,0,0,0,-45.0,7.358886461060722E-11,1.4410945678727709E-10,0,75.44351,75.241264,0.05379599,-0.007897175,-0.97856885,0.9800783,0.2615717,-0.012333464,0.061392087,0.26896256,135,-264,1310,1343.0,0.003225077,0.0015996124,0.005624429,0.00667788,0.003599983490615118,-0.0035841730438649216,0.3379922830402214,2.5008580060031176,19.424471908403675,19.42447190840369,-1.059147925309502,18.92645071073996,37.661157411610205,54.76005161572782,,0.02432760230741621,,,46.18,NONE,0.0,0.0,0.0,NONE,1.5656816969391918E-10,1.9697284178002268E-10,4.5776367E-5,15.463,15.463,5.522,1.3320312,0,1919,3.86,12.0,1.339,52,26.5,OK,25,0,0,0,0,0,65,100,0.0,0,0.0,589232.0,2.69E-43,0.0,-5.9807744E7,62,1.15966424E-4,-1.1596691E-4,9.4E-44,False,False,0,None,0.0,1.0842022E-19,
110385521,24.530,0.0,0.0,0,75.456726,75.563805,0.0539753,-0.007327077,-0.97952527,0.98103863,0.27893016,-0.07965167,-0.037338838,0.29247326,140,-264,1316,1349.0,0.2296768,0.12763248,0.017057145,0.26331052,0.26275746060621946,-0.26275746060621946,0.3319464825773867,2.7033078580006533,23.87687448603187,23.876874486031852,0.09289771075466732,19.82010669303831,37.520584897383756,53.38419158664383,,0.0,,,46.56,-0.9331509257812485,,0.0,0.0,20151018,25,2015-10-18T00:00:25Z,-17.0,99.99,99.99,3.75E7,0,0,0,0.0,0.0,0.0,0,0,0,0,0,0,,,,2177135,48,92,247,3227,3532,4292,4303,0,17173,29,212,5,0,false,false,false,false,false,false,false,false,false,false,0,0,0,0,50,62,64,49,944,944,944,944,940,940,940,940,0.0,0.0,0.0,0.0,1537.4,1533.1,1533.7,1536.2,0.0,0.0,0.0,0.0,0,0,0,0,-45.0,4.5540943500479304E-10,7.929152203811752E-10,0,75.456726,75.22803,0.0539753,-0.007327077,-0.97952527,0.98103863,0.27893016,-0.07965167,-0.037338838,0.29247326,140,-264,1316,1349.0,0.017715007,0.010165983,0.01335996,0.02440609,0.020424707800297724,-0.020342961091612932,0.40397993946064836,2.4100170119810924,19.217118965182035,19.21711896518201,-1.0488725829791028,19.224406173828452,37.6245660032937,54.470606432615334,,0.02448895299255231,,,46.56,NONE,0.0,0.0,0.0,NONE,3.7927779423397063E-10,6.688792087085075E-10,4.5776367E-5,15.463,15.463,5.521,1.3341353,0,1918,3.859,12.0,1.347,52,26.5,OK,26,0,0,0,0,0,65,100,0.0,0,0.0,589232.0,2.69E-43,0.0,-5.9807744E7,62,1.15966424E-4,-1.1596691E-4,9.4E-44,False,False,0,None,0.0,1.0842022E-19,
114990376,25.553,0.0,0.0,0,75.38538,75.70995,0.053583186,-0.0076176045,-0.9798879,0.9813814,0.44922015,0.07805511,0.13426569,0.47530898,138,-267,1307,1341.0,0.0,0.0,-0.017255306,0.017255306,0.0,0.0,0.3305352945335457,2.7373448984251176,23.87013478709484,23.870134787094855,0.09956702792242916,20.079539543396116,37.482279937139346,53.90105368458061,,0.0,,,47.01,-1.0044933940429672,,0.0,0.0,20151018,27,2015-10-18T00:00:27Z,-17.0,99.99,99.99,3.75E7,0,0,0,0.0,0.0,0.0,0,0,0,0,0,0,,,,2177138,18,92,249,3210,3520,4325,4335,2959,17303,29,1,17319,0,false,false,false,false,false,false,false,false,false,false,0,0,0,0,50,63,64,50,944,946,945,944,940,940,940,940,0.0,0.0,0.0,0.0,1536.8,1532.5,1532.5,1536.8,0.0,0.0,0.0,0.0,0,0,0,0,-45.0,-6.099472530231323E-11,2.5056773914064188E-11,0,75.42502,75.23444,0.05458591,-0.0072467783,-0.9802527,0.98179805,0.17360236,0.008680734,-0.11620006,0.20908274,138,-267,1316,1349.0,5.927031E-4,-0.0013893975,5.8570533E-4,0.0016201152,0.0015105371801651351,-0.0014099854866946038,0.38961352075430605,2.5151382743091952,19.579242614756822,19.579242614756822,-1.042976521965023,19.457267656860157,37.58255956641104,54.67811582922593,,0.02464791519490312,,,46.92,NONE,0.0,0.0,0.0,NONE,-1.4436854505011378E-10,7.272271041570708E-11,0.0,15.463,15.463,5.522,1.3363172,0,1918,3.86,12.0,1.345,52,26.5,OK,27,0,0,0,0,0,65,100,0.0,0,0.0,589232.0,2.69E-43,0.0,-5.9807744E7,62,1.15966424E-4,-1.1596691E-4,9.4E-44,False,False,0,None,0.0,1.0842022E-19,
119651174,26.589,0.0,0.0,0,75.36689,75.60407,0.053393684,-0.00761103,-0.9796869,0.98117036,0.12320367,-0.12947768,0.10910092,0.20939586,143,-264,1322,1355.0,0.19872408,0.103231125,0.05950753,0.23170902,0.22393732286563886,-0.22393732286563886,0.3534508339756524,2.7375563109878223,23.87154136829412,23.871541368294118,0.12207009139885135,20.35894178223908,37.47557921625942,52.890284616124625,,0.0,,,47.35,-1.0229870463867172,,0.0,0.0,20151018,28,2015-10-18T00:00:28Z,-17.0,99.99,99.99,3.75E7,0,0,0,0.0,0.0,0.0,0,0,0,0,0,0,,,,2178775,48,99,250,3501,3501,4386,4394,171,17544,27,212,17543,0,false,false,false,false,false,false,false,false,false,false,0,0,0,0,50,64,64,51,943,945,944,944,940,940,940,940,0.0,0.0,0.0,0.0,1536.8,1533.1,1533.1,1537.4,0.0,0.0,0.0,0.0,0,0,0,0,-45.0,7.141524371206387E-11,4.789349488106041E-10,0,75.36689,75.2249,0.053393684,-0.00761103,-0.9796869,0.98117036,0.12320367,-0.12947768,0.10910092,0.20939586,143,-264,1322,1355.0,0.010697386,0.001548161,0.007892542,0.0133836875,0.010808833128240701,-0.010758074171269854,0.403998358178892,2.458337420747269,19.42925575929005,19.429255759290072,-1.043525402599842,19.746613144023218,37.578571865867175,53.87442764944293,,0.024788108229597844,,,47.35,NONE,0.0,0.0,0.0,NONE,2.2328950079142615E-10,6.122489812350488E-10,6.1035156E-5,15.46,15.46,5.522,1.3402498,0,1917,3.86,12.0,1.34,52,26.5,OK,29,0,0,0,0,0,65,100,0.0,0,0.0,589232.0,2.69E-43,0.0,-5.9807744E7,62,1.15966424E-4,-1.1596691E-4,9.4E-44,False,False,0,None,0.0,1.0842022E-19,
124278437,27.617,0.0,0.0,0,75.62319,75.63808,0.053813778,-0.0072246613,-0.9801881,0.98169076,0.1952272,0.11669062,0.17373165,0.28620455,140,-270,1298,1333.0,0.0,0.0,0.018422287,0.018422287,0.0,0.0,0.36290531939692383,2.749628683410299,23.883883780828533,23.883883780828512,0.17076782521139708,20.576542109812724,37.47182659912644,54.015228786303396,,0.0,,,47.7,-0.7666851665039047,,0.0,0.0,20151018,30,2015-10-18T00:00:30Z,-17.0,99.99,99.99,3.75E7,0,0,0,0.0,0.0,0.0,0,0,0,0,0,0,,,,2178775,48,99,251,3501,3501,4386,4394,171,17544,27,212,17543,0,false,false,false,false,false,false,false,false,false,false,0,0,0,0,49,64,64,51,943,945,944,944,940,940,940,940,0.0,0.0,0.0,0.0,1536.8,1532.5,1531.9,1537.4,0.0,0.0,0.0,0.0,0,0,0,0,-45.0,-2.2742759023854942E-11,8.451631742040016E-11,0,75.62319,75.22034,0.053813778,-0.0072246613,-0.9801881,0.98169076,0.1952272,0.11669062,0.17373165,0.28620455,140,-270,1298,1333.0,0.001903473,-5.206574E-4,-6.760944E-4,0.0020860003,0.0019733965562419055,-0.0019295469003544998,0.42342920394769595,2.4781825118936127,19.477930562393823,19.477930562393794,-0.9875713824538747,19.961121472098775,37.57152002820182,54.981047405252525,,0.024961759285028067,,,47.7,NONE,0.0,0.0,0.0,NONE,5.794161657071871E-11,8.956526743333992E-11,0.0,15.46,15.46,5.52,1.3415622,0,1916,3.859,12.0,1.344,52,26.5,OK,30,0,0,0,0,0,65,100,0.0,0,0.0,589232.0,2.69E-43,0.0,-5.9807744E7,62,1.15966424E-4,-1.1596691E-4,9.4E-44,False,False,0,None,0.0,1.0842022E-19,
128876875,28.639,0.0,0.0,0,75.98519,75.78339,0.053333685,-0.008096516,-0.9802769,0.98176,0.3578748,0.0868794,-0.09916582,0.3813873,135,-267,1307,1340.0,0.17675778,0.07304507,-0.035927005,0.19460124,0.19125609444276284,-0.19125609444276284,0.36706510014772964,2.7583663657764044,23.89305970262587,23.893059702625862,0.18224863505795894,20.8749051820961,37.47826199427708,54.329345698527,,0.0,,,48.02,-0.4046856547851547,,0.0,0.0,20151018,30,2015-10-18T00:00:30Z,-17.0,99.99,99.99,3.75E7,0,0,0,0.0,0.0,0.0,0,0,0,0,0,0,,,,2178775,48,99,251,3501,3501,4386,4394,171,17544,27,212,17543,0,false,false,false,false,false,false,false,false,false,false,0,0,0,0,50,64,65,50,944,946,945,944,940,940,940,940,0.0,0.0,0.0,0.0,1537.4,1532.5,1532.5,1536.8,0.0,0.0,0.0,0.0,0,0,0,0,-45.0,7.947599502281583E-11,3.247056310771891E-10,0,75.98519,75.214935,0.053333685,-0.008096516,-0.9802769,0.98176,0.3578748,0.0868794,-0.09916582,0.3813873,135,-267,1307,1340.0,0.007237897,0.0017170926,0.0081071835,0.011002817,0.007438787312512857,-0.0074103828302603475,0.4308722888786026,2.4905824297010133,19.54525947052798,19.54525947052798,-0.9673708617982574,20.263187247851896,37.56957635430064,55.31406803331147,,0.025033131130363696,,,48.02,NONE,0.0,0.0,0.0,NONE,6.701362188402634E-11,2.640178373516148E-10,3.0517578E-5,15.459,15.459,5.52,1.3428406,0,1916,3.858,12.0,1.36,52,26.6,OK,31,0,0,0,0,0,65,100,0.0,0,0.0,589232.0,2.69E-43,0.0,-5.9807744E7,62,1.15966424E-4,-1.1596691E-4,9.4E-44,False,False,0,None,0.0,1.0842022E-19,
133498652,29.666,0.0,0.0,0,75.797585,75.90618,0.054488473,-0.0076236934,-0.9796936,0.9812373,0.336694,0.0024736924,0.21362275,0.3987526,138,-270,1301,1335.0,0.2497588,0.11468515,-0.024932897,0.27595976,0.27483110876977834,-0.27483110876977834,0.3697926035474973,2.734009371250881,23.91673047287446,23.916730472874463,0.22625613968062863,21.154209099911984,37.45759906033696,54.33108378312092,,0.0,,,48.38,-0.5922924663085922,,0.0,0.0,20151018,32,2015-10-18T00:00:32Z,-17.0,99.99,99.99,3.75E7,0,0,0,0.0,0.0,0.0,0,0,0,0,0,0,,,,2178775,48,99,253,3501,3501,4386,4394,171,17544,27,212,17543,0,false,false,false,false,false,false,false,false,false,false,0,0,0,0,51,64,64,50,944,945,944,945,940,940,940,940,0.0,0.0,0.0,0.0,1536.8,1532.5,1532.5,1537.4,0.0,0.0,0.0,0.0,0,0,0,0,-45.0,9.922636501466701E-12,2.535586261114052E-10,0,75.797585,75.20699,0.054488473,-0.0076236934,-0.9796936,0.9812373,0.336694,0.0024736924,0.21362275,0.3987526,138,-270,1301,1335.0,0.005735082,2.4312874E-4,2.4607006E-4,0.005745505,0.005740233127966859,-0.0057294611222039275,0.3892525410339957,2.4073676280732865,19.49102255427838,19.491022554278402,-0.9233626828095579,20.542494097413268,37.54891452528841,55.38695468250452,,0.025258317234293608,,,48.38,NONE,0.0,0.0,0.0,NONE,1.9061355017339142E-10,6.160137344788956E-10,1.5258789E-5,15.457,15.457,5.519,1.3444566,0,1916,3.859,12.0,1.347,52,26.5,OK,32,0,0,0,0,0,65,100,0.0,0,0.0,589232.0,2.69E-43,0.0,-5.9807744E7,62,1.15966424E-4,-1.1596691E-4,9.4E-44,False,False,0,None,0.0,1.0842022E-19,
138092874,30.687,0.0,0.0,0,75.62055,75.79607,0.053609014,-0.0063409777,-0.98128253,0.9827663,0.2218502,0.030187048,0.17476653,0.28402835,140,-267,1301,1335.0,0.21241051,0.035002466,0.042827062,0.21949387,0.21527516658713608,-0.21527516658713608,0.3647528114796533,2.7729232597801317,23.91782769370227,23.917827693702293,0.29821469793153843,21.404393788147587,37.47502358604369,53.6350204717817,,0.0,,,48.77,-0.7693249370117172,,0.0,0.0,20151018,33,2015-10-18T00:00:33Z,-17.0,99.99,99.99,3.75E7,0,0,0,0.0,0.0,0.0,0,0,0,0,0,0,,,,2178775,48,99,253,3501,3501,4386,4394,171,17544,27,212,17543,0,false,false,false,false,false,false,false,false,false,false,0,0,0,0,49,64,65,50,944,945,944,945,940,940,940,940,0.0,0.0,0.0,0.0,1536.2,1531.9,1532.5,1536.2,0.0,0.0,0.0,0.0,0,0,0,0,-45.0,1.0369537346935688E-10,2.1908343756484772E-10,0,75.62055,75.20162,0.053609014,-0.0063409777,-0.98128253,0.9827663,0.2218502,0.030187048,0.17476653,0.28402835,140,-267,1301,1335.0,0.0048626107,0.0023352867,0.00740974,0.009165304,0.005394307009385525,-0.005383425444615735,0.38103681071759743,2.5070013550122243,19.690500410839913,19.69050041083989,-0.8514064066783353,20.792680440698966,37.56633832049775,54.489221270796726,,0.025360815427250848,,,48.77,NONE,0.0,0.0,0.0,NONE,7.618053042699841E-11,1.8841535369844642E-10,3.0517578E-5,15.458,15.458,5.519,1.3459783,0,1915,3.858,12.0,1.348,52,26.6,OK,33,0,0,0,0,0,65,100,0.0,0,0.0,589232.0,2.69E-43,0.0,-5.9807744E7,62,1.15966424E-4,-1.1596691E-4,9.4E-44,False,False,0,None,0.0,1.0842022E-19,
142729669,31.718,0.0,0.0,0,75.46201,75.64481,0.05384468,-0.008081979,-0.98010164,0.98161286,0.2594341,-0.17300895,0.065827124,0.31870264,132,-270,1301,1335.0,0.19202739,0.11747636,0.059858084,0.23293391,0.2251115575374676,-0.2251115575374676,0.38565186916259886,2.766066438778273,23.92160409388795,23.921604093887936,0.3331251331854516,21.67547355684927,37.4739097936298,55.08868756161086,,0.0,,,49.15,-0.9278637553710922,,0.0,0.0,20151018,34,2015-10-18T00:00:34Z,-17.0,99.99,99.99,3.75E7,0,0,0,0.0,0.0,0.0,0,0,0,0,0,0,,,,2178777,114,100,255,3501,3501,4379,4387,0,17518,27,3533,676,0,false,false,false,false,false,false,false,false,false,false,0,0,0,0,50,64,65,50,944,945,944,944,940,940,940,940,0.0,0.0,0.0,0.0,1536.2,1530.7,1531.9,1535.5,0.0,0.0,0.0,0.0,0,0,0,0,-45.0,2.034597192627879E-10,4.87961988762983E-10,0,75.46201,75.191475,0.05384468,-0.008081979,-0.98010164,0.98161286,0.2594341,-0.17300895,0.065827124,0.31870264,132,-270,1301,1335.0,0.010904794,0.0045099347,0.009977671,0.015453412,0.01180059443032038,-0.011769645627924685,0.4170903338494648,2.4404978893421654,19.45973533176436,19.459735331764364,-0.8059939712551738,21.064368612952386,37.5581984468312,56.18449043571146,,0.025467277797917822,,,49.15,NONE,0.0,0.0,0.0,NONE,1.8735494898103418E-10,4.0176172888172157E-10,4.5776367E-5,15.457,15.457,5.519,1.3471365,0,1915,3.858,12.0,1.35,52,26.6,OK,34,0,0,0,0,0,65,100,0.0,0,0.0,589232.0,2.69E-43,0.0,-5.9807744E7,62,1.15966424E-4,-1.1596691E-4,9.4E-44,False,False,0,None,0.0,1.0842022E-19,
147399549,32.755,0.0,0.0,0,75.15814,75.49156,0.053935327,-0.0070765424,-0.98196894,0.9834745,0.31796995,-0.037022512,-0.06153603,0.3259789,132,-270,1295,1329.0,0.0,0.0,0.06670424,0.06670424,0.0,0.0,0.3990407041978597,2.7865544583266573,23.92169371336528,23.9216937133653,0.35945231556217483,21.914151241247637,37.46504857328095,55.09087415977617,,0.0,,,49.41,-1.2317349101562485,,0.0,0.0,20151018,36,2015-10-18T00:00:36Z,-17.0,99.99,99.99,3.75E7,0,0,0,0.0,0.0,0.0,0,0,0,0,0,0,,,,2250214,48,100,257,3500,3514,4369,4377,0,17471,22,212,4,0,false,false,false,false,false,false,false,false,false,false,0,0,0,0,51,63,64,50,944,945,945,945,940,940,940,940,0.0,0.0,0.0,0.0,1536.2,1531.9,1531.3,1536.2,0.0,0.0,0.0,0.0,0,0,0,0,-45.0,6.964306577877163E-11,-6.40883579741055E-11,0,75.15814,75.18961,0.053935327,-0.0070765424,-0.98196894,0.9834745,0.31796995,-0.037022512,-0.06153603,0.3259789,132,-270,1295,1329.0,-0.0014330442,0.0015566694,3.0940155E-5,0.0021160794,0.0021158532260928077,-0.0020549880766474638,0.43573195559979816,2.5053283780340876,19.592546467458483,19.592546467458476,-0.788036935798285,21.287807160930516,37.54602826149025,56.051387541653234,,0.02560776660395689,,,49.41,NONE,0.0,0.0,0.0,NONE,1.2749770446588054E-11,-4.475439830354509E-11,0.0,15.459,15.459,5.522,1.3481092,0,1915,3.858,12.0,1.352,52,26.6,OK,35,0,0,0,0,0,65,100,0.0,0,0.0,589232.0,2.69E-43,0.0,-5.9807744E7,62,1.15966424E-4,-1.1596691E-4,9.4E-44,False,False,0,None,0.0,1.0842022E-19,
151945677,33.766,0.0,0.0,0,75.27705,75.34025,0.054422755,-0.008120422,-0.979292,0.98083663,0.23314522,0.01664271,-0.109272994,0.2580199,138,-270,1295,1330.0,0.17985678,0.08311767,0.06705367,0.20917267,0.19813381483823903,-0.19813381483823903,0.4122896155751631,2.7797215970295848,23.90981129986944,23.909811299869432,0.4202763815869187,22.187753572624924,37.45757303856309,54.32181822933866,,0.0,,,49.86,-1.1128307963867172,,0.0,0.0,20151018,37,2015-10-18T00:00:37Z,-17.0,99.99,99.99,3.75E7,0,0,0,0.0,0.0,0.0,0,0,0,0,0,0,,,,2250214,48,100,258,3500,3514,4369,4377,0,17471,22,212,4,0,false,false,false,false,false,false,false,false,false,false,0,0,0,0,50,64,64,50,944,946,944,945,940,940,940,940,0.0,0.0,0.0,0.0,1537.4,1531.9,1530.7,1536.2,0.0,0.0,0.0,0.0,0,0,0,0,-45.0,1.7673416712283865E-10,4.2656725899056746E-10,0,75.27705,75.179726,0.054422755,-0.008120422,-0.979292,0.98083663,0.23314522,0.01664271,-0.109272994,0.2580199,138,-270,1295,1330.0,0.009532298,0.0039413883,0.009539296,0.014049819,0.010315001010722564,-0.010259724806015962,0.44447974484776764,2.4834485480859962,19.5187290572283,19.518729057228313,-0.7437012104044981,21.564741595645156,37.5459617881874,55.30223185953023,,0.025722912666977453,,,49.86,NONE,0.0,0.0,0.0,NONE,1.3901344869966503E-10,3.1559493419378403E-10,4.5776367E-5,15.454,15.454,5.516,1.3504618,0,1914,3.857,12.0,1.359,52,26.6,OK,37,0,0,0,0,0,65,100,0.0,0,0.0,589232.0,2.69E-43,0.0,-5.9807744E7,62,1.15966424E-4,-1.1596691E-4,9.4E-44,False,False,0,None,0.0,1.0842022E-19,
156620056,34.804,0.0,0.0,0,75.66811,75.31312,0.05397305,-0.007912055,-0.97954375,0.9810615,0.38088807,-0.08971588,0.1757838,0.4289809,135,-270,1292,1326.0,0.24976595,0.14589247,0.014671098,0.2896254,0.28925359698410696,-0.28925359698410696,0.4319873137261816,2.7662885261360737,23.89853573531186,23.89853573531184,0.46973849744452156,22.506301840538,37.44799569486726,54.83186802268167,,0.0,,,50.19,-0.7217632915039047,,0.0,0.0,20151018,38,2015-10-18T00:00:38Z,-17.0,99.99,99.99,3.75E7,0,0,0,0.0,0.0,0.0,0,0,0,0,0,0,,,,2250214,48,100,259,3500,3514,4369,4377,0,17471,22,212,4,0,false,false,false,false,false,false,false,false,false,false,0,0,0,0,50,65,64,50,944,945,944,945,940,940,940,940,0.0,0.0,0.0,0.0,1536.8,1531.9,1532.5,1536.2,0.0,0.0,0.0,0.0,0,0,0,0,-45.0,6.662146070571629E-11,1.5928925003145144E-10,0,75.66811,75.17489,0.05397305,-0.007912055,-0.97954375,0.9810615,0.38088807,-0.08971588,0.1757838,0.4289809,135,-270,1292,1326.0,0.003584017,0.0014780149,8.443448E-4,0.0039676977,0.0038768165350596792,-0.003845872363055428,0.45479568751827987,2.4494267068244056,19.513387984898895,19.513387984898884,-0.7012199667538395,21.873731080544072,37.53991706873246,55.86373143990919,,0.02592366880540143,,,50.19,NONE,0.0,0.0,0.0,NONE,1.0574611772171688E-10,1.9942777555630548E-10,0.0,15.454,15.454,5.518,1.3519714,0,1913,3.857,12.0,1.358,52,26.6,OK,38,0,0,0,0,0,65,100,0.0,0,0.0,589232.0,2.69E-43,0.0,-1.05007105E-23,62,1.15966424E-4,-1.1596691E-4,9.4E-44,False,False,0,None,0.0,1.0842022E-19,
161171140,35.816,0.0,0.0,0,75.83722,75.59163,0.053922366,-0.007707921,-0.98106223,0.9825732,0.20608297,-0.04129633,0.008456261,0.2103499,138,-270,1292,1327.0,0.17016838,0.0660763,-0.08785135,0.20258631,0.18254685705071058,-0.18254685705071058,0.4306872469812423,2.784450723607377,23.885721902316348,23.885721902316334,0.4959403324470821,22.80750453605092,37.413902553159815,54.36589921896983,,0.0,,,50.56,-0.5526577617187485,,0.0,0.0,20151018,39,2015-10-18T00:00:39Z,-17.0,99.99,99.99,3.75E7,0,0,0,0.0,0.0,0.0,0,0,0,0,0,0,,,,2250216,114,100,260,3500,3514,4369,4377,0,17471,22,3501,6,0,false,false,false,false,false,false,false,false,false,false,0,0,0,0,51,65,66,51,944,945,944,944,940,940,940,940,0.0,0.0,0.0,0.0,1535.5,1532.5,1531.9,1536.2,0.0,0.0,0.0,0.0,0,0,0,0,-45.0,7.648720113851899E-12,1.3272526807352222E-10,0,75.83722,75.17526,0.053922366,-0.007707921,-0.98106223,0.9825732,0.20608297,-0.04129633,0.008456261,0.2103499,138,-270,1292,1327.0,0.0029425952,1.657574E-4,0.0021578039,0.0036527333,0.002947260078622612,-0.0029401487810778136,0.43484000331505873,2.516172207805287,19.673713080686504,19.673713080686525,-0.6694733525313481,22.183608350654872,37.498108215882475,55.19564783149894,,0.02600021166566464,,,50.56,NONE,0.0,0.0,0.0,NONE,1.5703301354108153E-10,5.105295836774762E-10,3.0517578E-5,15.453,15.453,5.516,1.3533837,0,1913,3.857,12.0,1.355,52,26.6,OK,39,0,0,0,0,0,65,100,0.0,0,0.0,589232.0,2.69E-43,0.0,-1.05007105E-23,62,1.15966424E-4,-1.1596691E-4,9.4E-44,False,False,0,None,0.0,1.0842022E-19,
165769618,36.838,0.0,0.0,0,75.7738,75.81439,0.054266173,-0.0075017195,-0.9817919,0.9833191,0.32686847,0.15727364,-0.019247167,0.3632471,135,-273,1295,1330.0,0.20686537,0.1311987,-0.07049321,0.25490326,0.24496199721829662,-0.24496199721829662,0.4317927429058868,2.7713516857402123,23.89500333092493,23.895003330924908,0.5185067749376789,23.053426378707194,37.456393534357716,55.08577823329492,,0.0,,,50.9,-0.6160732890624985,,0.0,0.0,20151018,41,2015-10-18T00:00:41Z,-17.0,99.99,99.99,3.75E7,0,0,0,0.0,0.0,0.0,0,0,0,0,0,0,,,,2289928,16,100,261,3491,3513,4325,4343,-1376,17436,22,0,17186,0,false,false,false,false,false,false,false,false,false,false,0,0,0,0,49,64,66,50,943,945,944,944,940,940,940,940,0.0,0.0,0.0,0.0,1535.5,1531.3,1531.3,1536.8,0.0,0.0,0.0,0.0,0,0,0,0,-45.0,3.326827239512719E-10,7.853689934975205E-10,0,75.7738,75.1609,0.054266173,-0.0075017195,-0.9817919,0.9833191,0.32686847,0.15727364,-0.019247167,0.3632471,135,-273,1295,1330.0,0.017519498,0.0074677267,0.014967739,0.024222571,0.019044677339833768,-0.01896534100063806,0.4317799029611834,2.427349708362067,19.46943883013428,19.469438830134266,-0.6512182341385513,22.440640940925565,37.54235464966241,56.15087217922745,,0.026135666109164058,,,50.9,NONE,0.0,0.0,0.0,NONE,2.873300174303091E-10,6.38535318620184E-10,6.1035156E-5,15.454,15.454,5.52,1.3545195,0,1913,3.857,12.0,1.357,52,26.6,OK,40,0,0,0,0,0,65,100,0.0,0,0.0,589232.0,2.69E-43,0.0,-1.05007105E-23,62,1.15966424E-4,-1.1596691E-4,9.4E-44,False,False,0,None,0.0,1.0842022E-19,
170406431,37.868,0.0,0.0,0,75.73153,75.83005,0.053714357,-0.006706027,-0.98180574,0.9832969,0.3048706,-0.0059219575,0.011920995,0.30516106,140,-270,1295,1330.0,0.0,0.0,-0.011631556,0.011631556,0.0,0.0,0.42818544373782397,2.785273286771857,23.87879657491473,23.87879657491476,0.5268741945309955,23.32801001185812,37.470159792962114,54.07106534191698,,0.0,,,51.27,-0.6583477641601547,,0.0,0.0,20151018,41,2015-10-18T00:00:41Z,-17.0,99.99,99.99,3.75E7,0,0,0,0.0,0.0,0.0,0,0,0,0,0,0,,,,2289928,20,100,262,3491,3513,4325,4343,-1376,17436,22,2,17186,0,false,false,false,false,false,false,false,false,false,false,0,0,0,0,51,65,64,51,944,944,943,944,940,940,940,940,0.0,0.0,0.0,0.0,1536.2,1533.1,1531.3,1536.2,0.0,0.0,0.0,0.0,0,0,0,0,-45.0,8.420023590013916E-11,-2.8552110658109762E-11,0,75.73153,75.16442,0.053714357,-0.006706027,-0.98180574,0.9832969,0.3048706,-0.0059219575,0.011920995,0.30516106,140,-270,1295,1330.0,-6.5014313E-4,0.0019013851,-0.0038265954,0.0043221274,0.002009465560681223,-0.0019176300814319888,0.4301456058427142,2.5038873375442554,19.616249016490322,19.616249016490315,-0.6282135568835844,22.702376748237135,37.561204106582174,54.932307975131344,,0.026257905171327835,,,51.27,NONE,0.0,0.0,0.0,NONE,8.029312974078487E-12,-6.2475593591764825E-12,-1.5258789E-5,15.452,15.452,5.518,1.3555076,0,1912,3.857,12.0,1.362,52,26.6,OK,41,0,0,0,0,0,65,100,0.0,0,0.0,589232.0,2.69E-43,0.0,-1.05007105E-23,62,1.15966424E-4,-1.1596691E-4,9.4E-44,False,False,0,None,0.0,1.0842022E-19,
174995395,38.888,0.0,0.0,0,75.70246,75.76229,0.053317443,-0.0075454717,-0.98154265,0.9830187,0.267872,-0.054336924,-0.034406323,0.2754845,143,-270,1295,1330.0,0.15506127,0.10528774,0.01807126,0.18829784,0.18742866947440923,-0.18742866947440923,0.4404189208693102,2.785685893494113,23.85975774088814,23.859757740888142,0.5065788165251979,23.602500551515927,37.44552754228348,53.6967278241772,,0.0,,,51.67,-0.6874157573242172,,0.0,0.0,20151018,43,2015-10-18T00:00:43Z,-17.0,99.99,99.99,3.75E7,0,0,0,0.0,0.0,0.0,0,0,0,0,0,0,,,,2289928,20,100,262,3491,3513,4325,4343,-1376,17436,22,2,17186,0,false,false,false,false,false,false,false,false,false,false,0,0,0,0,49,64,64,50,944,945,944,945,940,940,940,940,0.0,0.0,0.0,0.0,1536.2,1531.3,1531.9,1536.2,0.0,0.0,0.0,0.0,0,0,0,0,-45.0,9.618521784520058E-11,3.1570369492967634E-10,0,75.70246,75.15597,0.053317443,-0.0075454717,-0.98154265,0.9830187,0.267872,-0.054336924,-0.034406323,0.2754845,143,-270,1295,1330.0,0.0070222816,0.0021074968,0.0029009145,0.00788475,0.0073317106990256516,-0.007294150564622339,0.43040017185091645,2.4703754724803897,19.546185620309664,19.546185620309643,-0.6539107768100461,22.98030840042139,37.5447322224366,54.62593923058773,,0.02635894104261082,,,51.67,NONE,0.0,0.0,0.0,NONE,2.232330319437899E-10,4.2577666284583064E-10,4.5776367E-5,15.452,15.452,5.514,1.3567631,0,1912,3.857,12.0,1.372,52,26.6,OK,42,0,0,0,0,0,65,100,0.0,0,0.0,589232.0,2.69E-43,0.0,-1.05007105E-23,62,1.15966424E-4,-1.1596691E-4,9.4E-44,False,False,0,None,0.0,1.0842022E-19,
179578633,39.906,0.0,0.0,0,75.54656,75.71878,0.05360965,-0.006839826,-0.979574,0.9810638,0.28530633,-0.011783243,0.051745065,0.29020008,132,-270,1295,1329.0,0.22204697,0.1476206,0.013668365,0.26698974,0.26663965085888597,-0.26663965085888597,0.45044708352952195,2.780639126637622,23.858621495834633,23.858621495834655,0.5196923323473103,23.886210074675294,37.440326406389154,55.222339494012196,,0.0,,,52.04,-0.8433148051757797,,0.0,0.0,20151018,44,2015-10-18T00:00:44Z,-17.0,99.99,99.99,3.75E7,0,0,0,0.0,0.0,0.0,0,0,0,0,0,0,,,,2290129,17,98,265,3419,3513,4313,4323,-1079,17272,24,0,17270,0,false,false,false,false,false,false,false,false,false,false,0,0,0,0,51,66,65,51,944,945,944,944,940,940,940,940,0.0,0.0,0.0,0.0,1536.2,1531.9,1531.9,1536.2,0.0,0.0,0.0,0.0,0,0,0,0,-45.0,6.22994477989029E-11,5.594525314725237E-11,0,75.54656,75.150505,0.05360965,-0.006839826,-0.979574,0.9810638,0.28530633,-0.011783243,0.051745065,0.29020008,132,-270,1295,1329.0,0.0012678009,0.0014353817,-7.0552033E-4,0.0020409308,0.0019151082744986725,-0.001886508740510196,0.4436444120296345,2.451453740413561,19.55949700239871,19.5594970023987,-0.6407973600960932,23.264016798059025,37.53953188381499,56.23921571148703,,0.026533880110414496,,,52.04,NONE,0.0,0.0,0.0,NONE,7.319252099123522E-11,6.11698916314636E-11,-1.5258789E-5,15.452,15.452,5.515,1.3609141,0,1911,3.857,12.0,1.397,52,26.6,OK,44,0,0,0,0,0,65,100,0.0,0,0.0,589232.0,2.69E-43,0.0,-1.05007105E-23,62,1.15966424E-4,-1.1596691E-4,9.4E-44,False,False,0,None,0.0,1.0842022E-19,
184211112,40.936,0.0,0.0,0,75.53071,75.77824,0.053726953,-0.0076186033,-0.9805301,0.9820305,0.118265435,-0.19773866,0.09733,0.25012082,135,-270,1292,1326.0,0.15796192,0.07973418,-0.02146497,0.17824212,0.17694492868468323,-0.17694492868468323,0.4510366768102801,2.778358805440384,23.849501931870606,23.849501931870577,0.5440353665756009,24.13127187354477,37.43593988472455,54.83687374984028,,0.0,,,52.36,-0.8591686870117172,,0.0,0.0,20151018,45,2015-10-18T00:00:45Z,-17.0,99.99,99.99,3.75E7,0,0,0,0.0,0.0,0.0,0,0,0,0,0,0,,,,2290255,16,98,266,3416,3510,4335,4344,-525,17327,24,0,16685,0,false,false,false,false,false,false,false,false,false,false,0,0,0,0,50,66,65,49,943,945,944,944,940,940,940,940,0.0,0.0,0.0,0.0,1535.5,1531.9,1531.9,1535.5,0.0,0.0,0.0,0.0,0,0,0,0,-45.0,1.195601418201536E-10,2.852071166996992E-10,0,75.53071,75.145386,0.053726953,-0.0076186033,-0.9805301,0.9820305,0.118265435,-0.19773866,0.09733,0.25012082,135,-270,1292,1326.0,0.006367236,0.0026808404,0.0062303343,0.009302992,0.006908588944410747,-0.006883064522656327,0.45615363523728203,2.4653808387572607,19.5926085351615,19.592608535161503,-0.6164534344533104,23.509082342161957,37.53514765062971,55.81667269541517,,0.026629508454475623,,,52.36,NONE,0.0,0.0,0.0,NONE,9.247170892824024E-11,2.139905672733965E-10,3.0517578E-5,15.448,15.448,5.514,1.3639739,0,1910,3.855,12.0,1.358,52,26.6,OK,45,0,0,0,0,0,65,100,0.0,0,0.0,589232.0,2.69E-43,0.0,-1.05007105E-23,62,1.15966424E-4,-1.1596691E-4,9.4E-44,False,False,0,None,0.0,1.0842022E-19,
188809624,41.958,0.0,0.0,0,75.456726,75.77649,0.053644497,-0.007926384,-0.98150975,0.9830066,0.37229586,-0.1968281,0.026422583,0.42195222,138,-270,1295,1330.0,0.22644562,0.14450783,0.012248978,0.2689055,0.2686263664995444,-0.2686263664995444,0.4597003337741351,2.745164361511438,23.843485665841545,23.84348566584157,0.5590763059913455,24.427702337096353,37.422844687554054,54.5319329184943,,0.0,,,52.72,-0.9331509257812485,,0.0,0.0,20151018,47,2015-10-18T00:00:47Z,-17.0,99.99,99.99,3.75E7,0,0,0,0.0,0.0,0.0,0,0,0,0,0,0,,,,2290255,20,98,267,3416,3510,4335,4344,-525,17327,24,2,16685,0,false,false,false,false,false,false,false,false,false,false,0,0,0,0,50,65,65,50,943,945,944,944,940,940,940,940,0.0,0.0,0.0,0.0,1536.2,1531.9,1531.3,1536.2,0.0,0.0,0.0,0.0,0,0,0,0,-45.0,1.9937705723344716E-10,6.452616776242079E-10,0,75.456726,75.13389,0.053644497,-0.007926384,-0.98150975,0.9830066,0.37229586,-0.1968281,0.026422583,0.42195222,138,-270,1295,1330.0,0.014436349,0.00442654,0.008976152,0.017566267,0.015099749487869636,-0.015059619814445124,0.4595131952732832,2.3949772755470327,19.509129064835008,19.509129064835008,-0.6014150045212864,23.80551201958133,37.52205511518595,55.6104984245015,,0.02680682854006445,,,52.72,NONE,0.0,0.0,0.0,NONE,3.637586576552109E-10,9.265890093974905E-10,7.6293945E-5,15.449,15.449,5.512,1.3663601,0,1910,3.857,12.0,1.364,52,26.6,OK,46,0,0,0,0,0,65,100,0.0,0,0.0,589232.0,2.69E-43,0.0,-1.05007105E-23,62,1.15966424E-4,-1.1596691E-4,9.4E-44,False,False,0,None,0.0,1.0842022E-19,
193326431,42.961,0.0,0.0,0,75.40388,75.58652,0.053359378,-0.0068590427,-0.9814159,0.98288935,0.28399765,-0.09265064,-0.060116604,0.3047176,140,-270,1292,1327.0,0.0,0.0,0.047440715,0.047440715,0.0,0.0,0.47730507422841884,2.75649717631477,23.827620574328527,23.827620574328535,0.49909149258553687,24.732104721761946,37.41683714760135,54.28387144284359,,0.0,,,53.09,-0.9859997416992172,,0.0,0.0,20151018,48,2015-10-18T00:00:48Z,-17.0,99.99,99.99,3.75E7,0,0,0,0.0,0.0,0.0,0,0,0,0,0,0,,,,2290297,48,97,268,3401,3510,4312,4323,-1066,17264,25,212,17257,0,false,false,false,false,false,false,false,false,false,false,0,0,0,0,51,64,66,51,943,945,944,944,940,940,940,940,0.0,0.0,0.0,0.0,1534.9,1531.9,1531.3,1534.3,0.0,0.0,0.0,0.0,0,0,0,0,-45.0,1.5756432816989163E-11,-5.7609848627478635E-11,0,75.40388,75.13455,0.053359378,-0.0068590427,-0.9814159,0.98288935,0.28399765,-0.09265064,-0.060116604,0.3047176,140,-270,1292,1327.0,-0.0013024808,3.6805152E-4,-9.1342605E-4,0.0016328703,0.0013534837316318477,-0.001273005582126641,0.48593026000951306,2.4855711829375204,19.651358093529954,19.65135809352995,-0.6614014216783354,24.10991237273158,37.516047860693256,55.126578399028354,,0.026928412143326075,,,53.09,NONE,0.0,0.0,0.0,NONE,-2.2040659314538286E-11,1.8931667381679887E-11,0.0,15.449,15.449,5.516,1.3677008,0,1910,3.856,12.0,1.37,52,26.6,OK,47,0,0,0,0,0,65,100,0.0,0,0.0,589232.0,2.69E-43,0.0,-5.9807744E7,62,1.15966424E-4,-1.1596691E-4,9.4E-44,False,False,0,None,0.0,1.0842022E-19,
197881809,43.974,0.0,0.0,0,75.173996,75.485085,0.05340121,-0.0070135607,-0.9798737,0.98135287,0.28542945,-0.02285792,-0.019233245,0.28698847,138,-270,1295,1330.0,0.16131146,0.13751094,0.042863764,0.21625897,0.2119684984457893,-0.2119684984457893,0.4920555365069909,2.7516564770088383,23.808235846020036,23.80823584602001,0.5046374887857897,25.010732718285226,37.387451221330934,54.5836290438519,,0.0,,,53.46,-1.215881028320311,,0.0,0.0,20151018,49,2015-10-18T00:00:49Z,-17.0,99.99,99.99,3.75E7,0,0,0,0.0,0.0,0.0,0,0,0,0,0,0,,,,2290297,17,97,269,3401,3510,4312,4323,-1066,17264,25,0,17257,0,false,false,false,false,false,false,false,false,false,false,0,0,0,0,50,64,65,50,943,945,944,944,940,940,940,940,0.0,0.0,0.0,0.0,1536.2,1531.3,1531.9,1536.2,0.0,0.0,0.0,0.0,0,0,0,0,-45.0,2.89229127210973E-10,4.776716731191217E-10,0,75.173996,75.123726,0.05340121,-0.0070135607,-0.9798737,0.98135287,0.28542945,-0.02285792,-0.019233245,0.28698847,138,-270,1295,1330.0,0.010660973,0.0064688954,0.011066386,0.016672367,0.012470082573398497,-0.012404056535912306,0.505289305848407,2.433183007965015,19.56283510593506,19.56283510593505,-0.6558562904610344,24.388541519994146,37.48666185080043,55.59095261671927,,0.02706354919228928,,,53.46,NONE,0.0,0.0,0.0,NONE,8.086518948693545E-10,1.291221928119646E-9,1.5258789E-4,15.448,15.448,5.517,1.3684441,0,1909,3.855,12.0,1.361,52,26.6,OK,48,0,0,0,0,0,65,100,0.0,0,0.0,589232.0,2.69E-43,0.0,-5.9807744E7,62,1.15966424E-4,-1.1596691E-4,9.4E-44,False,False,0,None,0.0,1.0842022E-19,
202386553,44.975,0.0,0.0,0,75.247986,75.30842,0.053336862,-0.0076175528,-0.9801571,0.98163676,0.21285911,0.026760427,-0.034024388,0.21721597,135,-270,1295,1329.0,0.23398277,0.17935066,0.059947237,0.30084592,0.29481282017884325,-0.29481282017884325,0.48275354672765447,2.7463297573790095,23.797409727295967,23.797409727295985,0.5163584045120361,25.280738697084548,37.33932436103322,54.98724311159216,,0.0,,,53.84,-1.1418911601562485,,0.0,0.0,20151018,50,2015-10-18T00:00:50Z,-17.0,99.99,99.99,3.75E7,0,0,0,0.0,0.0,0.0,0,0,0,0,0,0,,,,2354384,48,97,270,3400,3513,4341,4351,0,17364,24,212,5,0,false,false,false,false,false,false,false,false,false,false,0,0,0,0,50,66,65,51,944,946,944,944,940,940,940,940,0.0,0.0,0.0,0.0,1534.9,1531.9,1531.9,1534.9,0.0,0.0,0.0,0.0,0,0,0,0,-45.0,2.236657834895821E-11,4.63670980755009E-11,0,75.353676,75.120415,0.054389723,-0.007850964,-0.98318607,0.98472065,0.2952494,-0.11511277,0.10725966,0.3345561,135,-270,1295,1329.0,0.0010734004,5.043808E-4,-0.0015406443,0.0019442667,0.001185996776280448,-0.0011296594808972455,0.49616672390949296,2.4586447638843016,19.625826812916987,19.625826812917012,-0.6472612124814393,24.636849825542917,37.442306717173935,55.908785753940165,,0.02725849192321704,,,53.82,NONE,0.0,0.0,0.0,NONE,9.816973590324876E-12,5.6900689830193194E-11,0.0,15.448,15.448,5.513,1.368644,0,1909,3.855,12.0,1.368,52,26.7,OK,49,0,0,0,0,0,65,100,0.0,0,0.0,589232.0,2.69E-43,0.0,-5.9807744E7,62,1.15966424E-4,-1.1596691E-4,9.4E-44,False,False,0,None,0.0,1.0842022E-19,
206920856,45.982,0.0,0.0,0,75.26648,75.267624,0.052236635,-0.0073669204,-0.98206383,0.9834797,0.29759043,-0.089294255,0.06893255,0.3182534,138,-270,1295,1330.0,0.1401002,0.08400648,0.022987131,0.16496533,0.1633559122452866,-0.1633559122452866,0.4862029863668128,2.765331025174258,23.78565338773327,23.785653387733248,0.47554690525175214,25.55051935965284,37.314588075034884,54.52924326457439,,0.0,,,54.15,-1.1233975078124985,,0.0,0.0,20151018,51,2015-10-18T00:00:51Z,-17.0,99.99,99.99,3.75E7,0,0,0,0.0,0.0,0.0,0,0,0,0,0,0,,,,2354384,48,97,271,3400,3513,4341,4351,0,17364,24,212,5,0,false,false,false,false,false,false,false,false,false,false,0,0,0,0,50,65,65,51,943,946,944,944,940,940,940,940,0.0,0.0,0.0,0.0,1534.9,1530.7,1531.3,1535.5,0.0,0.0,0.0,0.0,0,0,0,0,-45.0,-3.533585325004275E-11,1.8654134660282413E-10,0,75.26648,75.11643,0.052236635,-0.0073669204,-0.98206383,0.9834797,0.29759043,-0.089294255,0.06893255,0.3182534,138,-270,1295,1330.0,0.0041283043,-8.3210744E-4,0.0052866684,0.0067590056,0.004211329678461732,-0.004194601573229917,0.4755441053502863,2.4912227813857846,19.689511516547213,19.689511516547213,-0.6849429781567443,24.92833344094667,37.4137982993341,55.34605055036064,,0.02733954261669649,,,54.15,NONE,0.0,0.0,0.0,NONE,-3.074102629988708E-11,1.9299998699639776E-10,3.0517578E-5,15.447,15.447,5.515,1.3686403,0,1909,3.855,12.0,1.371,52,26.7,OK,50,0,0,0,0,0,65,100,0.0,0,0.0,589232.0,2.69E-43,0.0,-5.9807744E7,62,1.15966424E-4,-1.1596691E-4,9.4E-44,False,False,0,None,0.0,1.0842022E-19,
211446390,46.988,0.0,0.0,0,75.36689,75.43377,0.053896375,-0.007152043,-0.98298377,0.9844862,0.3232711,-0.014705568,-0.044124275,0.32659975,138,-270,1298,1332.0,0.16996846,0.10294772,-0.071696214,0.21125306,0.19871464696788438,-0.19871464696788438,0.4803054716056549,2.7627989153536183,23.772781889533,23.772781889533007,0.489860587727985,25.860961206644998,37.30134789861922,54.50677423703074,,0.0,,,54.52,-1.0229870463867172,,0.0,0.0,20151018,52,2015-10-18T00:00:52Z,-17.0,99.99,99.99,3.75E7,0,0,0,0.0,0.0,0.0,0,0,0,0,0,0,,,,2354384,48,97,273,3400,3513,4341,4351,0,17364,24,212,5,0,false,false,false,false,false,false,false,false,false,false,0,0,0,0,50,66,65,51,943,946,945,944,940,940,940,940,0.0,0.0,0.0,0.0,1534.9,1531.9,1530.7,1535.5,0.0,0.0,0.0,0.0,0,0,0,0,-45.0,1.29308757480742E-10,3.6865283612706163E-10,0,75.36689,75.1069,0.053896375,-0.007152043,-0.98298377,0.9844862,0.3232711,-0.014705568,-0.044124275,0.32659975,138,-270,1298,1332.0,0.008215682,0.0029164832,0.007484601,0.011490107,0.008717987147825111,-0.008690842322590894,0.46153724134954127,2.473943339609423,19.69116370622112,19.69116370622112,-0.6706262099651993,25.238773430429013,37.400558439091874,55.35344581393163,,0.02743745796329202,,,54.52,NONE,0.0,0.0,0.0,NONE,4.183580142151748E-10,1.3636933989871648E-9,1.5258789E-4,15.445,15.445,5.512,1.3688877,0,1908,3.855,12.0,1.377,52,26.7,OK,51,0,0,0,0,0,65,100,0.0,0,0.0,589232.0,2.69E-43,0.0,-5.9807744E7,62,1.15966424E-4,-1.1596691E-4,9.4E-44,False,False,0,None,0.0,1.0842022E-19,
216054390,48.012,0.0,0.0,0,75.39331,75.632835,0.05404438,-0.0077970205,-0.9806947,0.9822137,0.30157095,-0.18304826,0.10495303,0.3680582,143,-273,1292,1328.0,0.0,0.0,-0.06580672,0.06580672,0.0,0.0,0.4674664923220548,2.7599234465905043,23.76749758640795,23.767497586407956,0.5139936267241574,26.154798490027453,37.27223644559348,54.14071230223942,,0.0,,,54.84,-0.9965664531249985,,0.0,0.0,20151018,54,2015-10-18T00:00:54Z,-17.0,99.99,99.99,3.75E7,0,0,0,0.0,0.0,0.0,0,0,0,0,0,0,,,,2535995,16,97,274,3376,3503,4321,4334,-601,17312,24,0,17268,0,false,false,false,false,false,false,false,false,false,false,0,0,0,0,51,66,65,51,943,946,944,944,940,940,940,940,0.0,0.0,0.0,0.0,1534.9,1531.9,1530.7,1535.5,0.0,0.0,0.0,0.0,0,0,0,0,-45.0,6.22692517969666E-11,3.5922331012095854E-11,0,75.39331,75.10519,0.05404438,-0.0077970205,-0.9806947,0.9822137,0.30157095,-0.18304826,0.10495303,0.3680582,143,-273,1292,1328.0,8.016579E-4,0.001421243,-9.253514E-4,0.0018758631,0.0016317435135693055,-0.0015948866328343153,0.4511621299551383,2.485257346478651,19.740063251443445,19.740063251443416,-0.6464957543348426,25.532613798462013,37.37144689804041,54.92940330270948,,0.027568313057054247,,,54.84,NONE,0.0,0.0,0.0,NONE,8.891741806517276E-11,4.367033345982053E-11,0.0,15.445,15.445,5.513,1.3716575,0,1907,3.854,12.0,1.379,52,26.7,OK,53,0,0,0,0,0,65,100,0.0,0,0.0,589232.0,2.69E-43,0.0,-5.9807744E7,62,1.15966424E-4,-1.1596691E-4,9.4E-44,False,False,0,None,0.0,1.0842022E-19,
220662389,49.036,0.0,0.0,0,75.58356,75.60665,0.05293903,-0.0085853115,-0.9800387,0.98150504,0.30028036,0.09762976,-0.006638257,0.31582263,135,-273,1295,1330.0,0.1210968,0.08408869,-0.012144981,0.1479285,0.14742910913205687,-0.14742910913205687,0.46870923758670374,2.7912183797959447,23.752533899268716,23.752533899268713,0.47995698695465583,26.436632246250912,37.26494082537594,55.105452784263925,,0.0,,,55.24,-0.8063198710937485,,0.0,0.0,20151018,55,2015-10-18T00:00:55Z,-17.0,99.99,99.99,3.75E7,0,0,0,0.0,0.0,0.0,0,0,0,0,0,0,,,,2535995,20,97,275,3376,3503,4321,4334,-601,17312,24,2,17268,0,false,false,false,false,false,false,false,false,false,false,0,0,0,0,50,66,65,51,944,945,944,944,940,940,940,940,0.0,0.0,0.0,0.0,1536.2,1531.3,1530.7,1534.9,0.0,0.0,0.0,0.0,0,0,0,0,-45.0,2.67046375680233E-11,1.1896196550705115E-10,0,75.58356,75.09868,0.05293903,-0.0085853115,-0.9800387,0.98150504,0.30028036,0.09762976,-0.006638257,0.31582263,135,-273,1295,1330.0,0.0026299842,5.4996926E-4,0.0066874814,0.0072070584,0.0026868723279288497,-0.0026770629506687542,0.45537208006318486,2.529005460545368,19.78460017579215,19.78460017579215,-0.6805333585505104,25.814447367481996,37.36415239370263,55.88396953591246,,0.027676420332547677,,,55.24,NONE,0.0,0.0,0.0,NONE,3.2429151432194386E-11,1.242995465730611E-10,3.0517578E-5,15.444,15.444,5.512,1.3737824,0,1907,3.854,12.0,1.386,52,26.7,OK,54,0,0,0,0,0,65,100,0.0,0,0.0,589232.0,2.69E-43,0.0,-5.9807744E7,62,1.15966424E-4,-1.1596691E-4,9.4E-44,False,False,0,None,0.0,1.0842022E-19,
225270474,50.060,0.0,0.0,0,75.59941,75.68679,0.052729934,-0.008306851,-0.98289734,0.9843458,0.3223021,-0.07909832,-0.08840597,0.34343967,138,-273,1292,1327.0,0.1939149,0.10666999,-0.034379665,0.22397196,0.22131760052112096,-0.22131760052112096,0.4738688219608089,2.751432407041572,23.74982028012241,23.749820280122435,0.5039040624830513,26.703955007017168,37.234930941446294,54.84872567735836,,0.0,,,55.58,-0.790465989257811,,0.0,0.0,20151018,56,2015-10-18T00:00:56Z,-17.0,99.99,99.99,3.75E7,0,0,0,0.0,0.0,0.0,0,0,0,0,0,0,,,,2535997,114,97,276,3375,3503,4259,4280,-2901,17213,24,3513,17322,0,false,false,false,false,false,false,false,false,false,false,0,0,0,0,51,66,66,52,943,945,945,944,940,940,940,940,0.0,0.0,0.0,0.0,1534.9,1530.7,1530.7,1534.9,0.0,0.0,0.0,0.0,0,0,0,0,-45.0,1.1394229698084199E-10,5.38200514488384E-10,0,75.59941,75.088066,0.052729934,-0.008306851,-0.98289734,0.9843458,0.3223021,-0.07909832,-0.08840597,0.34343967,138,-273,1292,1327.0,0.011969722,0.0025623252,0.0061505334,0.013699226,0.01224090465946891,-0.012194405749731626,0.4442297269988887,2.4173808666106504,19.668008348010456,19.66800834801046,-0.6565838043710059,26.08176587593885,37.33414575445025,55.80712678394629,,0.02782468325157182,,,55.58,NONE,0.0,0.0,0.0,NONE,1.1493368155221104E-10,5.379327988153747E-10,3.0517578E-5,15.443,15.443,5.513,1.3759658,0,1907,3.855,12.0,1.385,52,26.7,OK,55,0,0,0,0,0,65,100,0.0,0,0.0,589232.0,2.69E-43,0.0,-5.9807744E7,62,1.15966424E-4,-1.1596691E-4,9.4E-44,False,False,0,None,0.0,1.0842022E-19,
