Tick#,offsetTime,IMU_ATTI(0):Longitude,IMU_ATTI(0):Latitude,IMU_ATTI(0):numSats,IMU_ATTI(0):barometer:Raw,IMU_ATTI(0):barometer:Smooth,IMU_ATTI(0):accel:X,IMU_ATTI(0):accel:Y,IMU_ATTI(0):accel:Z,IMU_ATTI(0):accel:Composite,IMU_ATTI(0):gyro:X,IMU_ATTI(0):gyro:Y,IMU_ATTI(0):gyro:Z,IMU_ATTI(0):gyro:Composite,IMU_ATTI(0):mag:X,IMU_ATTI(0):mag:Y,IMU_ATTI(0):mag:Z,IMU_ATTI(0):mag:Mod,IMU_ATTI(0):velN,IMU_ATTI(0):velE,IMU_ATTI(0):velD,IMU_ATTI(0):velComposite,IMU_ATTI(0):velH,IMU_ATTI(0):GPS-H,IMU_ATTI(0):roll,IMU_ATTI(0):pitch,IMU_ATTI(0):yaw,IMU_ATTI(0):yaw360,IMU_ATTI(0):totalGyro:Z,IMU_ATTI(0):totalGyro:X,IMU_ATTI(0):totalGyro:Y,IMU_ATTI(0):magYaw,IMU_ATTI(0):distanceHP,IMU_ATTI(0):distanceTravelled,IMU_ATTI(0):directionOfTravel[mag],IMU_ATTI(0):directionOfTravel[true],IMU_ATTI(0):temperature,General:relativeHeight,General:absoluteHeight,GPS(0):Long,GPS(0):Lat,GPS(0):Date,GPS(0):Time,GPS:dateTimeStamp,GPS(0):heightMSL,GPS(0):hDOP,GPS(0):pDOP,GPS(0):sAcc,GPS(0):numGPS,GPS(0):numGLNAS,GPS(0):numSV,GPS(0):velN,GPS(0):velE,GPS(0):velD,RC:Aileron,RC:Elevator,RC:Rudder,RC:Throttle,Controller:navHealth,Controller:ctrl_level,HP:Longitude,HP:Latitude,HP:rthHeight,OA:avoidObst,OA:emergBrake,OA:radiusLimit,OA:airportLimit,OA:groundForceLanding,OA:horizNearBoundary,OA:vertLowLimit,OA:vertAirportLimit,OA:roofLimit,OA:hitGroundLimit,Motor:Speed:RFront,Motor:Speed:LFront,Motor:Speed:LBack,Motor:Speed:RBack,Motor:EscTemp:RFront,Motor:EscTemp:LFront,Motor:EscTemp:LBack,Motor:EscTemp:RBack,Motor:PPMrecv:RFront,Motor:PPMrecv:LFront,Motor:PPMrecv:LBack,Motor:PPMrecv:RBack,Motor:PPMsend:RFront,Motor:PPMsend:LFront,Motor:PPMsend:LBack,Motor:PPMsend:RBack,Motor:V_out:RFront,Motor:V_out:LFront,Motor:V_out:LBack,Motor:V_out:RBack,Motor:Volts:RFront,Motor:Volts:LFront,Motor:Volts:LBack,Motor:Volts:RBack,Motor:Current:RFront,Motor:Current:LFront,Motor:Current:LBack,Motor:Current:RBack,Motor:Status:RFront,Motor:Status:LFront,Motor:Status:LBack,Motor:Status:RBack,Motor:thrustAngle,IMU_ATTI(1):Longitude,IMU_ATTI(1):Latitude,IMU_ATTI(1):numSats,IMU_ATTI(1):barometer:Raw,IMU_ATTI(1):barometer:Smooth,IMU_ATTI(1):accel:X,IMU_ATTI(1):accel:Y,IMU_ATTI(1):accel:Z,IMU_ATTI(1):accel:Composite,IMU_ATTI(1):gyro:X,IMU_ATTI(1):gyro:Y,IMU_ATTI(1):gyro:Z,IMU_ATTI(1):gyro:Composite,IMU_ATTI(1):mag:X,IMU_ATTI(1):mag:Y,IMU_ATTI(1):mag:Z,IMU_ATTI(1):mag:Mod,IMU_ATTI(1):velN,IMU_ATTI(1):velE,IMU_ATTI(1):velD,IMU_ATTI(1):velComposite,IMU_ATTI(1):velH,IMU_ATTI(1):GPS-H,IMU_ATTI(1):roll,IMU_ATTI(1):pitch,IMU_ATTI(1):yaw,IMU_ATTI(1):yaw360,IMU_ATTI(1):totalGyro:Z,IMU_ATTI(1):totalGyro:X,IMU_ATTI(1):totalGyro:Y,IMU_ATTI(1):magYaw,IMU_ATTI(1):distanceHP,IMU_ATTI(1):distanceTravelled,IMU_ATTI(1):directionOfTravel[mag],IMU_ATTI(1):directionOfTravel[true],IMU_ATTI(1):temperature,IMUEX(0):err,IMUEX(0):rtk_Longitude,IMUEX(0):rtk_Latitude,IMUEX(0):rtk_Alti,IMUEX(1):err,IMUEX(1):rtk_Longitude,IMUEX(1):rtk_Latitude,IMUEX(1):rtk_Alti,MotorCtrl:Status,MotorCtrl:PWM:RFront,MotorCtrl:PWM:LFront,MotorCtrl:PWM:LBack,MotorCtrl:PWM:RBack,BattInfo:Voltage,BattInfo:BatVoltage,BattInfo:AdVoltage,BattInfo:AvgCurrent,BattInfo:R_time,BattInfo:R_CAP_MAH,BattInfo:LowCellVoltage,BattInfo:LowCellVolThreshold,BattInfo:BatCurrent,BattInfo:Remaining%,BattInfo:Temp,BattInfo:status,battery_info:BatDynCnt,battery_info:Vol1Protect,battery_info:Vol2Protect,battery_info:Cap1Protect,battery_info:Cap2Protect,battery_info:Batpresent,battery_info:sopPercentage,battery_info:sopValue,battery_info:sopScale,battery_info:sopFlg,BattInfo:WindHeading:WindDir,battery_info:home_dir,BattInfo:Wind:rangeMin,BattInfo:Wind:rangeMax,battery_info:cap_speed,battery_info:against_wind,battery_info:emergency_land_cap,battery_info:intel_bat_land_cap,battery_info:intel_bat_gh_cap,BattInfo:Smart:SmartGh,BattInfo:Smart:SmartLand,BattInfo:GoHome:CntDown,BattInfo:GoHome:GhCmd,BattInfo:GoHome:CapLevel,BattInfo:GoHome:LandCapLv,Attribute|Value,ConvertDatV3,3.6.6-Tablet
400816228,89.070,,,,,,,,,,,,,,,,,,,,,,,,,,,,,,,,,,,,,,,,,,,,,,,,,,,,,,,,,,,,,,,,,,,,,,,,,,,,,,,,,,,,,,,,,,,,,,,,,,,,,,,,,,13.991475460827244,66.38549304235168,0,5.9229712,1.9901956,-0.013363278,0.028320767,-0.9982049,0.99869597,17.349504,7.44137,12.86262,22.843517,-155,-176,1444,1462.0,-0.011806928,-0.033298273,0.08591925,0.09289939,0.035329568657424856,-0.035329568657424856,-1.356801945889273,-0.5130414091601614,152.2606547012748,152.2606547012748,0.0,0.0,0.0,139.8350266525786,,0.0,,,64.99,,,,,,,,,,,,,,,,,,,,,,,,,OK,,,,,,,,,,,,,,,,,,,,,,,,,,Firmware Date|a1:4
405354703,90.079,13.991475230865936,66.38549369452488,21,6.0925417,5.3078475,-0.0115704425,0.02653611,-0.99537474,0.9957956,4.813115,6.041205,0.38565126,7.7337546,-149,-178,1444,1462.0,0.02920896,-0.002642187,0.08126103,0.086391546,0.029328220208881806,-0.029328220208881806,-1.5330273954561007,-0.8711960911730782,153.0154408582299,153.0154408582299,1.439783419586976,2.145335767221054,-0.8472176821313435,140.83257660872442,26.88617746581566,0.03238343908648315,15.361014588414271,20.635728500069,64.97,,,13.9914757,66.3854934,20190516,104022,2019-05-16T10:40:22Z,184.011,0.54,1.01,6.7,12,9,21,0.04,-0.01,0.05,0,0,0,0,5,5,13.991862940737835,66.38567901364976,50,false,false,false,false,false,false,false,false,false,false,5536,5427,4719,4843,68,86,86,68,1603,1594,1501,1512,1599,1587,1486,1511,0.0,0.0,0.0,0.0,1460.8,1457.7,1458.9,1462.0,4.47,3.6,3.3,2.94,0,0,0,0,-170.5575744619165,13.991475423529426,66.38549324487343,0,6.04498,1.9751979,-0.013198277,0.026992045,-0.9984979,0.9989499,-4.989377,-2.3782916,0.13727123,5.5289235,-149,-178,1444,1462.0,-0.014006383,-0.030480513,0.07573937,0.08283533,0.033544604120873456,-0.01115544113385502,-1.4684078535811758,-0.672912217089847,152.2340870109687,152.23408701096866,-2.0973667780699734,-2.3027972857678733,-0.23100577203003547,139.66734112830503,26.919014202167403,0.06832025125425709,-35.14179178088512,-29.867077869230393,64.96,NONE,0.0,0.0,0.0,NONE,-1.7109146405904149E-9,-8.566999487667456E-11,1.9454956E-4,2,60.96,57.31,44.85,49.88,14.757,14.757,5.244,8.170545,494,1123,3.679,12.0,8.064,32,39.5,OK,1175,0,0,0,0,0,65,100,0.0,0,0.0,1.0366875E-8,8.8E-44,0.0,5.043573E-16,64,-2.694683E-36,-7.5674916E18,1.5577987E-20,False,False,0,None,-1.5635542E-31,2587.6409,ACType|UNKNOWN
409962650,91.103,13.991474977694155,66.3854939784213,21,5.93198,5.2277074,-0.012133074,0.034728236,-0.99182314,0.99250513,-9.644944,3.681069,-10.653953,14.835158,-147,-178,1447,1465.0,0.024936594,-0.021869367,0.08498604,0.091229,0.03316779922129339,-4.3148646563368614E-4,-1.6765319361199695,-0.8743142052617949,152.993510345037,152.99351034503707,0.8580316735519827,1.53547169059417,1.0092306464358436,141.28179115928634,26.86924159066823,0.07678257672381095,-54.40208568133684,-49.127371769682114,64.96,,,13.9914754,66.3854937,20190516,104024,2019-05-16T10:40:24Z,183.935,0.54,1.01,6.7,12,9,21,0.03,-0.02,0.06,0,0,0,0,5,5,13.991862940737835,66.38567901364976,50,false,false,false,false,false,false,false,false,false,false,5568,5450,4734,4883,69,85,86,68,1617,1600,1501,1532,1609,1572,1481,1533,0.0,0.0,0.0,0.0,1461.4,1458.9,1458.3,1461.4,4.78,3.83,3.12,2.94,0,0,0,0,-169.2100644487487,13.991474951404063,66.3854935174211,0,5.9055567,1.9568783,-0.011858117,0.03292717,-0.9889907,0.9896097,13.033521,-4.327654,8.347927,16.071377,-147,-178,1447,1465.0,-0.019152846,-0.04635322,0.0754431,0.09059312,0.050154286439731806,-0.014130811317054834,-1.4952872953840786,-0.6746401895836548,152.30425807401753,152.30425807401753,-0.06546031058851898,-0.511489630952146,-1.3286649086908233,139.49072642493599,26.909266691707074,0.14958950837756918,-85.73101647461856,-80.45630256296383,64.96,NONE,0.0,0.0,0.0,NONE,-2.010324726052059E-9,-2.7414398431171973E-10,1.847744E-4,2,61.12,57.34,46.15,50.58,14.757,14.757,5.242,8.112959,496,1119,3.679,12.0,8.076,31,39.6,OK,1177,0,0,0,0,0,65,100,0.0,0,0.0,1.5767455E-8,8.8E-44,0.0,5.043573E-16,64,-2.6738823E-36,-7.5037375E18,1.5463836E-20,False,False,0,None,-1.5562116E-31,2562.5784,dateTime|2019-5-16 10:40:22 GMT
414570649,92.127,13.99147379246184,66.3854941969194,21,5.9598317,5.203575,-0.019352265,0.04015577,-0.99922985,1.0002236,0.70444477,-5.453428,8.107343,9.796179,-152,-197,1444,1465.0,0.028504236,-0.025955271,0.04838077,0.06186167,0.038550843628888845,0.018202680623830313,-2.500991278437111,-0.8459186629583624,152.94739810584502,152.94739810584497,-1.316884080103054,-2.805462852288908,1.8789067948904965,142.34644209331847,26.884649138718157,0.14093796407227996,-23.39633253355437,-18.121618621899643,64.98,,,13.9914744,66.3854938,20190516,104025,2019-05-16T10:40:25Z,183.838,0.54,1.01,6.69,12,9,21,0.02,-0.04,0.07,0,0,0,0,5,5,13.991862940737835,66.38567901364976,50,false,false,false,false,false,false,false,false,false,false,5669,5424,4696,4825,68,86,86,67,1616,1595,1498,1536,1604,1570,1507,1531,0.0,0.0,0.0,0.0,1460.8,1458.3,1458.9,1461.4,4.78,4.12,2.8,2.75,0,0,0,0,-166.61735760642574,13.991473924516434,66.38549369441346,0,5.943978,1.9298669,-0.01853166,0.033818316,-0.99893206,0.9996761,-1.3366407,9.56623,-6.77255,11.796898,-152,-197,1444,1465.0,-0.019877758,-0.052318398,0.053566184,0.07747049,0.055967312179586726,-0.007339823084022687,-2.3254475188869743,-0.6180424654585194,152.17057931899842,152.17057931899842,0.5260125783393647,0.2807834443677405,-2.574185232641697,140.4889165579273,26.923599184073446,0.23495977122504474,-78.8266406077727,-73.55192669611797,64.99,NONE,0.0,0.0,0.0,NONE,-3.678466577028994E-9,-6.168239673883681E-10,1.398325E-4,2,60.82,56.54,48.02,51.07,14.757,14.757,5.245,8.0962515,496,1117,3.679,12.0,8.226,31,39.6,OK,1178,0,0,0,0,0,65,100,0.0,0,0.0,2.9216608E-8,8.8E-44,0.0,5.043573E-16,64,-2.642796E-36,-7.4084582E18,1.5352167E-20,False,False,0,None,-1.5490194E-31,2525.1409,geoDeclination|527 degrees
419178650,93.151,13.991472943380403,66.3854942782504,21,5.8751297,5.150547,-0.014469473,0.034105275,-0.98269385,0.98339194,-24.137577,-6.9237947,-20.533731,32.437565,-138,-189,1447,1465.0,0.0440912,-0.045169696,0.053780627,0.08292582,0.06312159174390941,-0.02514650288297443,-2.4126849625954656,-1.1891194974257076,152.95300714012842,152.95300714012842,-2.8476882256048266,-2.2645041801671715,3.6748305471128746,142.73631097163303,26.90214275499409,0.18829007982693344,-63.95584873788555,-58.681134826230824,64.98,,,13.9914734,66.385494,20190516,104026,2019-05-16T10:40:26Z,183.737,0.54,1.01,6.7,12,9,21,0.05,-0.03,0.07,0,0,0,0,5,5,13.991862940737835,66.38567901364976,50,false,false,false,false,false,false,false,false,false,false,5628,5344,4753,5022,68,85,86,68,1621,1588,1501,1522,1615,1600,1486,1505,0.0,0.0,0.0,0.0,1460.8,1457.7,1457.0,1460.8,4.86,3.24,3.01,3.32,0,0,0,0,-155.20361516832514,13.991472942283536,66.3854938489091,0,5.9094796,1.9114765,-0.015193624,0.038531523,-0.98177725,0.9826505,18.380842,-3.1734962,17.615007,25.655699,-138,-189,1447,1465.0,-0.008276252,-0.05859723,0.046987507,0.07556426,0.05917881101015861,-0.0132773832674596,-2.176979741899316,-0.9459114112810867,152.33814897513923,152.33814897513923,3.357962758121808,2.883176889784721,-5.908946031942156,140.4201891223834,26.93864521322528,0.32706829536714743,-79.70877582917285,-74.43406191751812,64.99,NONE,0.0,0.0,0.0,NONE,-3.079646451878934E-9,-5.140199743627687E-11,1.1539459E-4,2,60.74,55.37,46.77,53.49,14.752,14.752,5.234,8.092886,495,1114,3.678,12.0,8.223,31,39.6,OK,1179,0,0,0,0,0,65,100,0.0,0,0.0,5.381753E-8,8.8E-44,0.0,5.043573E-16,64,-2.6224085E-36,-7.3459708E18,1.5290128E-20,False,False,0,None,-1.5450171E-31,2500.5784,geoInclination|7646 degrees
423725822,94.161,13.991471706564178,66.38549452026324,21,5.6872177,5.129713,-0.01990188,0.03824897,-0.98760027,0.98854107,11.468527,1.7890754,6.874315,13.490149,-132,-195,1444,1463.0,0.033919767,-0.025357537,0.032797858,0.053565424,0.042350386265815235,0.018325852382670912,-2.2933781907709574,-1.2784862204888592,152.96463215646946,152.9646321564694,-3.795989030294498,-5.230470389498418,3.3961072927038263,140.17070182587895,26.917233807962685,0.2624402928478725,-55.07884145476581,-49.80412754311108,64.99,,,13.9914722,66.3854942,20190516,104027,2019-05-16T10:40:27Z,183.675,0.54,1.01,6.7,12,9,21,0.04,-0.02,0.08,0,0,0,0,5,5,13.991862940737835,66.38567901364976,50,false,false,false,false,false,false,false,false,false,false,5550,5381,4788,4902,68,86,86,69,1623,1587,1482,1536,1609,1571,1486,1523,0.0,0.0,0.0,0.0,1462.0,1458.9,1457.7,1461.4,4.84,3.61,2.97,3.1,0,0,0,0,-167.15383501925214,13.991471869586327,66.3854940051524,0,5.763845,1.8923085,-0.020920169,0.035332512,-0.98783296,0.988686,-2.5443106,-0.056856416,-6.640425,7.1113987,-132,-195,1444,1463.0,-0.008908325,-0.027022019,0.027928747,0.03986932,0.02845255215621747,0.02186127126408713,-2.243411158163501,-1.134690868277681,152.20448145058856,152.20448145058856,2.6472435001415544,4.622483183654032,-7.952588069843205,139.2789613915015,26.956220195991737,0.4098074024079898,-86.79619032028111,-81.52147640862638,64.99,NONE,0.0,0.0,0.0,NONE,-2.3525077452368573E-9,-1.713399919835993E-10,9.608269E-5,2,60.23,56.41,47.92,49.53,14.752,14.752,5.238,8.100959,494,1112,3.677,12.0,8.209,31,39.6,OK,1180,0,0,0,0,0,65,100,0.0,0,0.0,1.0265103E-7,8.8E-44,0.0,5.043573E-16,64,-2.600322E-36,-7.2784168E18,1.5225608E-20,False,False,0,None,-1.5408643E-31,2474.0784,geoIntensity|5257913 nanoTesla
428410776,95.202,13.991471199407933,66.38549478993356,21,5.8840604,5.0642915,-0.021672245,0.033936583,-0.99199885,0.99281573,3.3194425,14.700273,-4.5633183,15.746129,-141,-189,1444,1463.0,0.040372472,-0.020112425,0.04577751,0.06426528,0.04510483593330403,-0.009044073993553996,-2.1260128728370877,-1.0637473001193218,152.94338231537287,152.9433823153729,-0.9755105222631295,-0.3524705388455112,6.4952602477570895,141.13576717361312,26.909030129267418,0.31148653186741726,-37.42819925156389,-32.15348533990916,65.01,,,13.9914717,66.3854944,20190516,104028,2019-05-16T10:40:28Z,183.576,0.54,1.01,6.71,12,9,21,0.03,-0.02,0.09,0,0,0,0,5,5,13.991862940737835,66.38567901364976,50,false,false,false,false,false,false,false,false,false,false,5544,5387,4787,4932,67,86,85,68,1605,1583,1521,1536,1605,1572,1486,1531,0.0,0.0,0.0,0.0,1459.5,1457.7,1458.3,1460.8,4.42,3.44,3.2,3.47,0,0,0,0,-166.0082580994457,13.991471221665062,66.38549433156878,0,5.8047905,1.864624,-0.023931706,0.040968403,-0.9938938,0.99502563,3.3420076,-9.2865305,6.5650277,11.853618,-141,-189,1444,1463.0,-0.0137938,-0.021521872,0.026991295,0.037175126,0.02556286218994012,0.018977729682441203,-2.073560029142996,-1.0155907736996312,152.2387880147419,152.23878801474189,2.096269035228398,2.8941134095350782,-11.159513026788838,140.65771241740745,26.947208302293326,0.4861686372654164,-61.793567283021076,-56.51885337136635,65.04,NONE,0.0,0.0,0.0,NONE,-1.6681418727324493E-9,-3.4267998528793023E-10,6.2704086E-5,2,62.65,56.5,44.02,51.93,14.753,14.753,5.237,8.114031,492,1110,3.677,12.0,8.156,31,39.6,OK,1181,0,0,0,0,0,65,100,0.0,0,0.0,1.8918945E-7,8.8E-44,0.0,5.043573E-16,64,-2.5689143E-36,-7.1820116E18,1.506679E-20,False,False,0,None,-1.5306629E-31,2436.1409,
433018803,96.226,13.99147094619338,66.38549494627722,21,5.85707,5.009897,-0.01982891,0.03891911,-1.0006542,1.0016071,-3.1219046,5.8406405,-5.5639853,8.6497,-141,-192,1444,1463.0,0.01967791,-0.024284702,0.028005408,0.041967485,0.03125647015944102,-0.011019418721496595,-2.212311617056637,-1.0900480141449818,152.8712780938583,152.87127809385834,-8.278508833978202,-5.713890595654459,6.799709038861778,141.0794696791213,26.903116929383327,0.35659706244398015,-16.42945443546212,-11.15474052380739,64.98,,,13.9914715,66.3854946,20190516,104030,2019-05-16T10:40:30Z,183.477,0.54,1.01,6.71,12,9,21,0.02,-0.01,0.07,0,0,0,0,5,5,13.991862940737835,66.38567901364976,50,false,false,false,false,false,false,false,false,false,false,5645,5377,4734,4925,67,85,85,67,1606,1585,1500,1537,1596,1574,1511,1524,0.0,0.0,0.0,0.0,1460.2,1457.7,1458.3,1462.0,4.67,3.62,2.9,3.16,0,0,0,0,-161.3886795017131,13.991471085262837,66.38549451082281,0,5.8280044,1.8337027,-0.020125901,0.03507482,-1.0039948,1.0048089,0.34063306,1.9621949,1.4908427,2.4877403,-141,-192,1444,1463.0,-0.02630766,-0.024798015,0.008513252,0.037141755,0.03615293071606254,-0.015803859926730786,-2.0599822063706195,-1.0225975202579132,152.2319143949347,152.23191439493473,9.107641695321387,10.27302928033801,-9.497910414575571,140.0075531650955,26.935958206700167,0.5422848046647353,,,64.99,NONE,0.0,0.0,0.0,NONE,-1.7536876320479197E-9,-5.482879792860921E-10,1.8954277E-5,2,60.38,57.0,47.55,51.12,14.748,14.748,5.237,8.126449,490,1107,3.676,12.0,8.136,31,39.6,OK,1182,0,0,0,0,0,65,100,0.0,0,0.0,2.297711E-7,8.8E-44,0.0,5.043573E-16,64,-2.5340628E-36,-7.0751918E18,1.4888118E-20,False,False,0,None,-1.5191374E-31,2394.1409,
437626769,97.250,13.991470439037135,66.38549493545132,21,5.631905,4.9418263,-0.012992084,0.044197824,-0.9825739,0.98365325,4.0418644,2.562296,1.6132851,5.0502195,-147,-192,1444,1464.0,0.017209765,-0.051694475,0.029245615,0.061836887,0.054483894687895176,-0.03239184055555111,-2.2514110164844907,-1.0662406707912078,152.78692977937283,152.78692977937283,-9.999414758516245,-6.5693143117092685,5.894413900156579,142.16212032167726,26.918698849644226,0.3968598557158744,-116.99210117241222,-111.71738726075749,65.02,,,13.9914709,66.3854946,20190516,104031,2019-05-16T10:40:31Z,183.368,0.54,1.01,6.7,12,9,21,0.02,-0.04,0.07,0,0,0,0,5,5,13.991862940737835,66.38567901364976,50,false,false,false,false,false,false,false,false,false,false,5725,5286,4826,4972,68,86,86,68,1641,1577,1491,1524,1631,1599,1480,1490,0.0,0.0,0.0,0.0,1460.8,1458.3,1458.3,1460.8,5.08,3.05,2.81,3.55,0,0,0,0,-154.25313249976097,13.991470705825972,66.38549442165841,0,5.6054816,1.8031936,-0.013420417,0.046207618,-0.9838231,0.98499906,-6.491113,-10.873041,-4.1107554,13.313748,-147,-192,1444,1464.0,-0.03279444,-0.04234086,-0.006614047,0.053962663,0.053555797722603195,-0.034420340706581606,-2.1611858370349757,-0.9667789392092856,152.11093397525613,152.1109339752561,10.162675194731358,12.810640374313527,-8.700989915369478,141.28918339272224,26.95446215135258,0.5788769393697885,-128.17034795824472,-122.89563404658999,65.05,NONE,0.0,0.0,0.0,NONE,-2.3525078150115806E-9,-5.482879818424436E-10,1.001358E-5,2,63.1,59.75,46.57,46.17,14.746,14.746,5.236,8.146784,487,1103,3.675,12.0,8.219,31,39.6,OK,1184,0,0,0,0,0,65,100,0.0,0,0.0,2.4978362E-7,8.8E-44,0.0,5.043573E-16,64,-2.4994408E-36,-6.9690758E18,1.476735E-20,False,False,0,None,-1.5113735E-31,2352.4534,
442234881,98.274,13.991468793056988,66.38549491983129,21,5.1755743,4.879005,-0.012867901,0.037447374,-0.99509174,0.99587923,5.436861,-6.799466,9.164891,12.640705,-163,-195,1447,1469.0,0.025611583,-0.042030018,0.028328756,0.05678903,0.04921865217259691,0.022397542472151394,-2.5133521068148568,-0.5328229165204365,152.9220422488956,152.92204224889565,-5.811872706348457,-3.286799255903796,8.215981761916106,143.34436486354997,26.967691581373398,0.4712739904394237,-80.03881174815137,-74.76409783649665,65.04,,,13.9914692,66.3854946,20190516,104032,2019-05-16T10:40:32Z,183.265,0.54,1.01,6.72,12,9,21,0.01,-0.04,0.04,0,0,0,0,5,5,13.991862940737835,66.38567901364976,50,false,false,false,false,false,false,false,false,false,false,5608,5431,4768,4874,68,85,85,68,1620,1598,1507,1529,1610,1581,1493,1521,0.0,0.0,0.0,0.0,1460.2,1458.9,1457.7,1461.4,4.5,3.83,3.26,3.04,0,0,0,0,-168.54816852726373,13.991468821815674,66.38549441480488,0,5.305048,1.7826322,-0.012090569,0.03173707,-0.9921209,0.99270207,-6.468786,3.3578901,-8.96015,11.550104,-163,-195,1447,1469.0,-0.029912882,-0.029928666,-0.028281078,0.050895236,0.04231436636762003,0.0396388498899476,-2.4053845408413173,-0.3999930167313669,152.25730484391042,152.25730484391045,6.057333727193346,8.608693160595323,-9.647418192030928,142.24290190116255,27.00951031739862,0.6690801009215084,-108.31350640499524,-103.03879249334051,65.05,NONE,0.0,0.0,0.0,NONE,-2.1814163418846044E-9,-7.538959778266821E-10,-3.540516E-5,2,62.11,57.29,45.76,49.78,14.743,14.743,5.234,8.159434,485,1100,3.674,12.0,8.267,31,39.7,OK,1185,0,0,0,0,0,65,100,0.0,0,0.0,5.916372E-7,8.8E-44,0.0,1.4640026E-27,64,-2.4760686E-36,-6.8975811E18,1.4770659E-20,False,False,0,None,-1.5115842E-31,2324.3909,
446765820,99.281,13.991467358416893,66.3854951933317,21,5.4404426,4.797175,-0.014837901,0.041841213,-1.0012208,1.0022047,-8.56654,0.7756655,-13.035632,15.617777,-144,-192,1444,1463.0,0.033599924,-0.0643469,0.03518345,0.080668174,0.07259117398739028,-0.0023042357807458863,-2.328878519678255,-1.3026332200189945,152.77445544947864,152.77445544947864,-4.454129779845859,0.8826182615692125,7.366080102403865,143.03510332787056,26.98629448442451,0.5457657718239762,-93.22298028963218,-87.94826637797745,65.06,,,13.9914681,66.3854948,20190516,104033,2019-05-16T10:40:33Z,183.175,0.54,1.01,6.73,12,9,21,0.07,-0.04,0.02,0,0,0,0,5,5,13.991862940737835,66.38567901364976,50,false,false,false,false,false,false,false,false,false,false,5723,5427,4674,4825,68,85,85,68,1634,1586,1496,1531,1610,1568,1499,1530,0.0,0.0,0.0,0.0,1460.8,1458.3,1457.7,1462.0,5.02,3.7,2.93,3.22,0,0,0,0,-164.85064715273103,13.991467484398049,66.38549462973151,0,5.398165,1.7699523,-0.014144669,0.048832245,-0.9999164,1.001208,7.3397093,0.6390013,11.299569,13.489252,-144,-192,1444,1463.0,-0.023743793,-0.045837574,-0.02977923,0.05959575,0.05162219282359334,0.012126557731091399,-2.192894026581263,-1.2251670278867186,152.23478770956237,152.2347877095624,6.8595479589460595,7.836745108958522,-10.823100334407934,142.0204001010796,27.030135380125223,0.7540900433128952,-100.64230029255089,-95.36758638089616,65.04,NONE,0.0,0.0,0.0,NONE,-2.523599335399813E-9,-6.85359981222094E-11,-4.5776367E-5,2,60.4,55.44,48.65,52.52,14.742,14.742,5.234,8.173256,483,1098,3.674,12.0,8.169,31,39.7,OK,1186,0,0,0,0,0,65,100,0.0,0,0.0,1.3237586E-6,8.8E-44,0.0,1.4640026E-27,64,-2.4617882E-36,-6.853671E18,1.4745843E-20,False,False,0,None,-1.5099893E-31,2307.1409,
451450768,100.322,13.99146542064119,66.3854954168324,21,5.6030073,4.7704086,-0.0064127157,0.046834942,-0.9844015,0.9855359,-9.21234,3.663086,-5.4244833,11.300904,-144,-200,1438,1458.0,0.0330032,-0.054858655,0.00801115,0.06452024,0.06402095852137846,0.022253319636568444,-2.663224339798713,-1.1224856133430319,153.10570506033753,153.10570506033753,-5.943418407877165,-3.689632361561162,6.6440452198263396,142.34106963103886,27.02395076711996,0.6485533504059502,-54.18725226952346,-48.91253835786873,65.02,,,13.991466,66.3854952,20190516,104034,2019-05-16T10:40:34Z,183.167,0.54,1.01,6.71,12,9,21,0.04,-0.06,0.01,0,0,0,0,5,5,13.991862940737835,66.38567901364976,50,false,false,false,false,false,false,false,false,false,false,5597,5442,4561,5250,67,85,85,67,1617,1599,1482,1562,1619,1621,1462,1520,0.0,0.0,0.0,0.0,1458.3,1455.2,1456.4,1457.7,4.83,3.64,2.79,3.62,0,0,0,0,-145.4993984528332,13.991465519076801,66.38549497696549,0,5.6109343,1.7505921,-0.008834233,0.045568418,-0.98905677,0.9901453,3.0216815,-5.383619,2.4775524,6.652231,-144,-200,1438,1458.0,-0.024048803,-0.032335557,-0.033495955,0.052401453,0.04029805458726749,0.051602041523963284,-2.480812099502149,-1.109314569905686,152.58121519154363,152.5812151915436,7.112849659480243,8.160216404839261,-11.071358709724977,141.33904223136744,27.058050555677944,0.8762656449126496,-89.00887872885502,-83.7341648172003,65.02,NONE,0.0,0.0,0.0,NONE,-2.4808264847210027E-9,-8.566999793568214E-11,-9.047985E-5,2,62.77,61.67,43.43,49.74,14.744,14.744,5.239,8.186759,480,1093,3.675,12.0,8.319,31,39.7,OK,1187,0,0,0,0,0,65,100,0.0,0,0.0,4.253234E-6,8.8E-44,0.0,1.4640026E-27,64,-2.4394722E-36,-6.7852726E18,1.4700349E-20,False,False,0,None,-1.5070402E-31,2280.3284,
456058769,101.346,13.991463793053317,66.38549578854753,21,5.6216207,4.843052,-0.007132386,0.05326921,-0.9917833,0.99323845,-7.92318,1.5325584,0.9703607,8.128168,-161,-200,1441,1463.0,0.015983991,-0.04005566,-0.03151751,0.053416263,0.043127064955639664,0.03836886799193354,-2.754809247444802,-0.39817270764848256,152.93971296055147,152.93971296055145,-6.6976807697943705,-4.1749623209602795,7.850887385484654,142.65876298791935,27.040350916945442,0.7411730417815574,-94.7693409783026,-89.49462706664787,65.03,,,13.9914644,66.3854953,20190516,104036,2019-05-16T10:40:36Z,183.233,0.54,1.01,6.72,12,9,21,0.01,-0.03,-0.04,0,0,0,0,5,5,13.991862940737835,66.38567901364976,50,false,false,false,false,false,false,false,false,false,false,5678,5406,4633,5216,68,86,86,67,1617,1599,1479,1543,1600,1608,1489,1523,0.0,0.0,0.0,0.0,1458.9,1456.4,1457.0,1459.5,4.8,3.37,2.74,3.52,0,0,0,0,-145.30484646876602,13.991463843455227,66.38549523153976,0,5.584628,1.7493365,-0.0070731826,0.047996625,-0.9942041,0.99538714,-1.4978498,-2.440148,-1.5038236,3.2340937,-161,-200,1441,1463.0,-0.04278048,-0.03246675,-0.035158906,0.0641904,0.053705301856105475,0.024248071148929073,-2.5805177850511885,-0.38697970455220004,152.41159203461814,152.41159203461814,7.1790855614816245,9.331876124534748,-10.154373542942674,141.69073830067245,27.085574507778304,0.9747404371557293,-90.62417610420054,-85.34946219254581,65.03,NONE,0.0,0.0,0.0,NONE,-1.4115047486984179E-9,-8.738339791823102E-10,-1.0287762E-4,2,61.11,60.27,44.25,52.3,14.74,14.74,5.232,8.203693,478,1091,3.674,12.0,8.352,31,39.7,OK,1188,0,0,0,0,0,65,100,0.0,0,0.0,1.17043965E-5,8.8E-44,0.0,1.4640026E-27,64,-2.4385998E-36,-6.7825986E18,1.4750807E-20,False,False,0,None,-1.5102902E-31,2279.2034,
460666788,102.370,13.99146246401909,66.38549585605631,21,5.506035,4.936588,-0.012690967,0.057755884,-1.0050943,1.0068324,0.53225356,13.9744425,2.467487,14.200593,-141,-217,1438,1461.0,0.042080414,-0.032902803,-0.06519863,0.08428652,0.05341681229840684,0.004857013841398687,-3.1636162085949593,-0.9821054955242293,153.0764115407494,153.0764115407494,-2.085628171194777,0.0543412318968538,7.486917318089444,140.3687103239782,27.07366318397558,0.835738592981013,-53.62254375014569,-48.34782983849096,65.01,,,13.9914631,66.3854955,20190516,104037,2019-05-16T10:40:37Z,183.34,0.54,1.01,6.76,12,9,21,0.05,-0.04,-0.07,0,0,0,0,5,5,13.991862940737835,66.38567901364976,50,false,false,false,false,false,false,false,false,false,false,5602,5471,4328,5342,67,86,85,66,1594,1604,1462,1599,1585,1569,1466,1599,0.0,0.0,0.0,0.0,1460.8,1456.4,1457.0,1460.8,4.5,3.82,2.6,3.55,0,0,0,0,-140.78182882013633,13.991462619941379,66.38549532036149,0,5.498108,1.7581865,-0.012033313,0.050783146,-1.0030246,1.0043814,5.0972667,-0.8274435,-1.9250679,5.5111413,-141,-217,1438,1461.0,-0.021685485,-0.019293258,-0.038898457,0.04853432,0.029025679300542607,0.025062152415447635,-3.022355687054532,-1.0317701185617074,152.56693464829226,152.56693464829232,3.1528798557541,4.723218220115168,-9.99559054671798,139.8564338267753,27.113932785909256,1.0707713475125211,-86.53624354756964,-81.26152963591491,64.98,NONE,0.0,0.0,0.0,NONE,-2.395280790791986E-9,-3.769479906191979E-10,-8.952618E-5,2,59.51,60.67,42.28,55.41,14.739,14.739,5.24,8.224922,476,1089,3.674,12.0,8.308,31,39.7,OK,1189,0,0,0,0,0,65,100,0.0,0,0.0,2.1953136E-5,8.8E-44,0.0,1.4640026E-27,64,-2.4487935E-36,-6.8138423E18,1.4853377E-20,False,False,0,None,-1.5169106E-31,2291.5159,
465274848,103.394,13.991461648428697,66.38549634875832,21,5.8067727,5.053856,-0.013376843,0.055433992,-0.9841338,0.98578453,14.2106,-3.8313208,16.441591,22.066854,-161,-214,1459,1483.0,0.04699044,-0.03145109,-0.08170745,0.09936488,0.05654442773758344,0.007650344270835309,-3.334977969464774,-0.8626823032400607,152.8278027538922,152.82780275389223,-0.473956203565689,2.052196863630086,7.891960999576634,144.88356460102955,27.0564605035112,0.9161148881414141,117.14001058705475,122.41472449870948,65.07,,,13.9914621,66.3854959,20190516,104038,2019-05-16T10:40:38Z,183.464,0.54,1.01,6.78,12,9,21,0.03,-0.05,-0.1,0,0,0,0,5,5,13.991862940737835,66.38567901364976,50,false,false,false,false,false,false,false,false,false,false,5596,5338,4615,5423,66,85,86,67,1626,1576,1466,1559,1612,1628,1468,1502,0.0,0.0,0.0,0.0,1460.8,1456.4,1457.0,1459.5,4.7,3.06,2.65,3.98,0,0,0,0,-130.0479019254733,13.991461891992339,66.38549576181434,0,5.899254,1.7751082,-0.0152908275,0.04483066,-0.9906791,0.9918108,-21.130453,-10.179792,-21.50093,31.818459,-161,-214,1459,1483.0,-0.01352429,-0.029047834,-0.031838644,0.04517059,0.03204189478381068,0.02540818614811012,-3.2744180190964993,-0.8286105984919997,152.27942405278043,152.27942405278043,1.76056228378581,5.333924574878093,-6.996721092125168,144.43016619078247,27.0983368018241,1.1589841818591902,-49.086380113687774,-43.811666202033045,65.07,NONE,0.0,0.0,0.0,NONE,-2.0958707242250086E-9,-7.710299786704245E-10,-6.771088E-5,2,59.67,57.99,45.85,54.22,14.739,14.739,5.235,8.246817,474,1086,3.673,12.0,8.344,31,39.7,OK,1190,0,0,0,0,0,65,100,0.0,0,0.0,4.5984983E-5,8.8E-44,0.0,1.4640026E-27,64,-2.468079E-36,-6.8729521E18,1.491128E-20,False,False,0,None,-1.5206421E-31,2314.7034,
469805827,104.401,13.991461906861526,66.38549653425764,21,5.64815,5.189959,-0.0133869415,0.05421611,-1.0053599,1.0069097,5.3263726,-1.430328,-0.9215082,5.5915346,-149,-192,1462,1482.0,0.0033314137,0.005366757,-0.08944971,0.08967247,0.006316676215046522,0.017143105953669083,-2.3818161884806037,-1.0184857057913688,152.675044033698,152.675044033698,0.20742150087755395,4.383913592457139,7.55595688040083,143.17969897779176,27.033371698706578,0.9714937853389729,,,65.03,,,13.9914621,66.3854963,20190516,104039,2019-05-16T10:40:39Z,183.642,0.54,1.01,6.78,12,9,21,0.03,0.02,-0.14,0,0,0,0,5,5,13.991862940737835,66.38567901364976,50,false,false,false,false,false,false,false,false,false,false,5637,5467,4605,5163,67,86,86,67,1618,1581,1482,1565,1606,1593,1480,1545,0.0,0.0,0.0,0.0,1459.5,1456.4,1457.0,1458.3,4.75,3.74,2.76,3.62,0,0,0,0,-151.413583882566,13.991461997512666,66.38549601145408,0,5.664004,1.8026555,-0.014510422,0.055142656,-1.0038846,1.0055027,-7.510931,-2.1113586,0.22572644,7.8053107,-149,-192,1462,1482.0,-0.03603701,0.01468676,-0.021915521,0.044661585,0.03891486790830081,-0.010953581837755504,-2.3294175143971616,-1.0073357047115108,152.2139808078771,152.21398080787708,-0.2508788418621587,4.28096935245438,-7.192867184642365,142.85377094073942,27.0743691498945,1.2514662791170472,92.33013126672374,97.60484517837847,65.0,NONE,0.0,0.0,0.0,NONE,1.1120946797283096E-9,-7.367619769141945E-10,-6.484985E-5,2,59.81,57.45,46.22,53.87,14.733,14.733,5.232,8.286393,470,1082,3.673,12.0,8.291,30,39.7,OK,1192,0,0,0,0,0,65,100,0.0,0,0.0,5.5239536E-5,8.8E-44,0.0,1.4640026E-27,64,-2.5003132E-36,-6.9718905E18,1.5009714E-20,False,False,0,None,-1.5269615E-31,2353.5784,
474490788,105.442,13.991461411938282,66.38549665347276,21,5.9108605,5.349587,-0.011079821,0.04080031,-0.98935276,0.99025565,-8.178459,-1.7683195,-2.8274212,8.832239,-147,-197,1444,1464.0,0.011153039,-0.023533054,-0.107023254,0.110146135,0.02604217578469746,-0.0013339518345374633,-2.6648288248675076,-1.1174712637085091,152.74474536390505,152.74474536390505,-1.2710601847013754,4.4423086428811045,6.550756804697952,143.5107419103351,27.038000566046595,1.0175597086266484,-103.86821348987439,-98.59349957821966,64.95,,,13.9914618,66.3854963,20190516,104040,2019-05-16T10:40:40Z,183.84,0.54,1.01,6.78,12,9,21,0.0,-0.02,-0.15,0,0,0,0,5,5,13.991862940737835,66.38567901364976,50,false,false,false,false,false,false,false,false,false,false,5516,5399,4615,5315,67,87,86,68,1604,1597,1500,1568,1607,1596,1462,1547,0.0,0.0,0.0,0.0,1458.9,1455.2,1456.4,1459.5,4.14,3.46,3.36,3.61,0,0,0,0,-140.32627489100216,13.99146149450539,66.38549613063692,0,5.9372835,1.8344586,-0.012888263,0.042289987,-0.99571687,0.9966979,5.0530796,1.4090463,3.1292562,6.108295,-147,-197,1444,1464.0,-0.041477572,-0.01718807,-0.0106734,0.04614911,0.044897871238571994,-0.019894360293287214,-2.5347670377745093,-1.127374237196792,152.33678017064187,152.33678017064187,2.563988152209616,7.435926559703597,-6.984611997949227,142.8592853111712,27.079199733292203,1.3012517576178526,-124.30002201262533,-119.0253081009706,64.95,NONE,0.0,0.0,0.0,NONE,-3.84955849186238E-10,-9.252359663299379E-10,-1.3947487E-5,2,62.34,58.18,42.21,53.68,14.735,14.735,5.231,8.300369,467,1079,3.674,12.0,8.327,30,39.7,OK,1193,0,0,0,0,0,65,100,0.0,0,0.0,7.839501E-5,8.8E-44,0.0,1.4640026E-27,64,-2.5363587E-36,-7.0822287E18,1.5180113E-20,False,False,0,None,-1.5379453E-31,2396.9534,
479021738,106.449,13.991461538716647,66.38549665219607,21,6.2198696,5.5288205,-0.0070575075,0.04199081,-0.9726373,0.97356886,-20.394278,-5.2616863,-20.846594,29.634312,-169,-203,1441,1465.0,-0.008915578,-0.001995378,-0.09679002,0.09722026,0.009136140620092735,-0.0035259077537729755,-2.944035303131326,-0.3279504683931507,152.66911485399697,152.66911485399692,-0.9334530406967125,3.902407825304484,6.4476686025044785,144.01904846681774,27.034372000384344,1.0787075092801177,,,64.95,,,13.9914621,66.3854962,20190516,104042,2019-05-16T10:40:42Z,184.056,0.54,1.01,6.79,12,9,21,-0.03,0.03,-0.16,0,0,0,0,5,5,13.991862940737835,66.38567901364976,50,false,false,false,false,false,false,false,false,false,false,5545,5505,4563,5217,67,86,86,67,1623,1608,1482,1547,1625,1612,1450,1529,0.0,0.0,0.0,0.0,1458.3,1457.0,1456.4,1458.3,4.78,4.0,2.96,3.22,0,0,0,0,-151.34530625695214,13.99146162115544,66.38549603357384,0,6.169666,1.8786861,-0.0080220075,0.048800595,-0.97346824,0.9747237,12.875163,-6.8089695,17.236734,22.566277,-169,-203,1441,1465.0,-0.06780118,0.004004375,0.015112737,0.06958038,0.06791932635728415,-0.05582418643778094,-2.7539761962936846,-0.29119306915917026,152.3719544608435,152.37195446084354,0.93876482742298,4.134519529007789,-7.133887737986071,142.8695713683924,27.083582144735658,1.3750129112001372,164.20336362629382,169.47807753794854,64.94,NONE,0.0,0.0,0.0,NONE,8.126845663927823E-10,-1.5934619316916542E-9,2.3126602E-5,2,62.23,58.22,43.33,53.87,14.734,14.734,5.231,8.310628,466,1077,3.672,12.0,8.321,30,39.8,OK,1194,0,0,0,0,0,65,100,0.0,0,0.0,6.57998E-5,8.8E-44,0.0,1.05007105E-23,64,-2.5871896E-36,-7.2380251E18,1.5417928E-20,False,False,0,None,-1.5532625E-31,2458.2034,
483706782,107.490,13.991461735898929,66.3854960470793,21,6.3919973,5.7379036,-0.0032301852,0.04213332,-0.99063593,0.9915368,21.38248,2.497733,14.080732,25.723845,-172,-206,1435,1459.0,-0.02210417,0.026347103,-0.11396928,0.119045205,0.034391338830057995,0.030785268234559522,-2.835736122373104,0.19618947646328969,152.42622519413123,152.42622519413123,-1.081080096686402,4.3015075421880375,8.073669715044831,141.10897283938965,27.079080777653566,1.1761822863062863,178.19016770249237,-176.53511838585288,64.94,,,13.9914622,66.3854958,20190516,104043,2019-05-16T10:40:43Z,184.311,0.54,1.01,6.77,12,9,21,-0.04,0.02,-0.17,0,0,0,0,5,5,13.991862940737835,66.38567901364976,50,false,false,false,false,false,false,false,false,false,false,5654,5529,4617,4825,67,86,86,68,1620,1596,1498,1514,1615,1588,1485,1515,0.0,0.0,0.0,0.0,1459.5,1458.3,1456.4,1458.9,4.78,3.71,3.15,2.94,0,0,0,0,-169.17185294442163,13.991461835446804,66.38549553268378,0,6.3840704,1.9284678,-0.0037711463,0.047383487,-0.9912123,0.9923514,-12.49716,-0.3366072,-8.5330715,15.136235,-172,-206,1435,1459.0,-0.06518456,0.031971492,0.03479881,0.08051187,0.07260305651924746,-0.01832653474517789,-2.875586266470049,0.17680391771736095,151.93653130187727,151.93653130187727,0.6057353211130472,5.7106555427137815,-6.244433240896149,141.39974674054224,27.11915967858601,1.470722239242348,151.1463549877111,156.42106889936585,64.95,NONE,0.0,0.0,0.0,NONE,1.2404132508724475E-9,-1.6791319148283138E-9,8.523464E-5,2,62.34,59.03,44.61,49.38,14.735,14.735,5.241,8.318381,465,1075,3.673,12.0,8.332,30,39.7,OK,1195,0,0,0,0,0,65,100,0.0,0,0.0,3.8566068E-5,8.8E-44,0.0,1.05007105E-23,64,-2.6440358E-36,-7.4122581E18,1.5743423E-20,False,False,0,None,-1.574207E-31,2526.5784,
488314853,108.514,13.991462337283492,66.38549603926278,21,6.381275,5.852153,-0.008720816,0.05074815,-0.98373526,0.985082,11.920762,1.4832636,15.880381,19.912085,-152,-197,1450,1471.0,0.007002085,-0.010435818,-0.08459709,0.08552545,0.01256723862432719,0.013605515651432325,-2.6511953501783134,-0.9108560310355068,152.56620354147566,152.56620354147572,-3.2223960017288653,1.7875931620100105,6.721632747964369,143.4760337318573,27.06206375609684,1.2210686131770152,41.5444689522722,46.819182863926926,64.94,,,13.9914626,66.3854958,20190516,104044,2019-05-16T10:40:44Z,184.514,0.54,1.01,6.78,12,9,21,0.0,-0.01,-0.15,0,0,0,0,5,5,13.991862940737835,66.38567901364976,50,false,false,false,false,false,false,false,false,false,false,5580,5416,4558,4987,67,85,86,67,1605,1593,1474,1532,1587,1603,1493,1510,0.0,0.0,0.0,0.0,1459.5,1457.0,1457.0,1460.8,4.62,3.5,2.69,3.44,0,0,0,0,-157.77096735444778,13.991462329257931,66.38549565907996,0,6.397129,1.9802592,-0.008865724,0.038553253,-0.98601264,0.9868059,-19.073822,0.95986974,-17.65649,26.0093,-152,-197,1450,1471.0,-0.036498345,-0.0075472877,0.059102,0.06987229,0.0372705082697839,-0.011780197610837585,-2.5837826253537703,-0.877406977029091,152.14451951153734,152.14451951153728,2.368935075365693,7.668470570306877,-8.545020563926487,142.98128399681838,27.094096392511656,1.5303610265085366,-179.92171759172845,-174.6470036800737,64.94,NONE,0.0,0.0,0.0,NONE,-6.843659222083608E-10,-6.510919615632052E-10,1.5795231E-4,2,60.17,60.19,44.17,49.74,14.734,14.734,5.232,8.321414,463,1072,3.671,12.0,8.192,30,39.8,OK,1196,0,0,0,0,0,65,100,0.0,0,0.0,3.3845194E-5,8.8E-44,0.0,1.05007105E-23,64,-2.7031778E-36,-7.593528E18,1.5960972E-20,False,False,0,None,-1.5882001E-31,2597.8284,
492845839,109.521,13.991462469237362,66.38549538310406,21,6.312413,5.987737,0.0024929529,0.041208178,-0.99022454,0.99108475,-7.946588,3.1753008,-6.7078395,10.873174,-175,-208,1435,1460.0,-0.031534564,0.026309188,-0.06794547,0.07939263,0.04106826186235436,0.03162903717508571,-2.9640304463963316,0.37447272108466945,152.44206021793335,152.44206021793332,-3.439007636945789,2.039704991619564,6.204718009476952,141.1147949692519,27.113093321825357,1.3069744154423655,153.57903221484383,158.85374612649858,64.94,,,13.9914627,66.385495,20190516,104045,2019-05-16T10:40:45Z,184.695,0.54,1.01,6.79,12,9,21,-0.07,0.02,-0.1,0,0,0,0,5,5,13.991862940737835,66.38567901364976,50,false,false,false,false,false,false,false,false,false,false,5648,5480,4649,4903,68,85,86,68,1623,1588,1501,1528,1623,1600,1470,1507,0.0,0.0,0.0,0.0,1459.5,1457.7,1457.0,1459.5,4.62,3.47,3.25,3.33,0,0,0,0,-165.0097668970331,13.991462572035934,66.38549493983649,0,6.2992015,2.0118284,0.0017205495,0.047309507,-0.9918484,0.99297756,7.1017675,-5.678159,6.9141793,11.422893,-175,-208,1435,1460.0,-0.07166241,0.01821061,0.08328764,0.11137307,0.0739400266631191,0.006212080223335276,-2.8457146599771486,0.3960919982817622,152.12925536869804,152.12925536869807,2.0833793258097875,7.744992531724923,-6.781316840826515,140.4026666713714,27.14722410067166,1.6242323028824814,157.98689757987108,163.26161149152583,64.92,NONE,0.0,0.0,0.0,NONE,1.0693217235629649E-9,-1.936141874978993E-9,2.0837784E-4,2,62.36,58.38,44.46,49.76,14.729,14.729,5.231,8.315172,463,1070,3.673,12.0,8.162,30,39.8,OK,1197,0,0,0,0,0,65,100,0.0,0,0.0,1.5095342E-5,8.8E-44,0.0,1.05007105E-23,64,-2.7403712E-36,-7.7075254E18,1.6232287E-20,False,False,0,None,-1.6056839E-31,2642.5784,
497530785,110.562,13.991463003041016,66.38549460525499,21,6.6041565,6.054387,0.0033687905,0.04401489,-0.9873012,0.9882875,16.051373,-5.846422,16.89004,24.022919,-186,-192,1441,1465.0,-0.05694644,0.052824903,-0.027748508,0.082482405,0.07767475444027735,0.00848564536115283,-2.1089716571312715,0.5682379182275166,152.50268678283425,152.5026867828342,-2.907596684415591,1.955585846454174,6.19380804755473,141.03024804130834,27.16269097856722,1.4026104929989196,148.03684862691472,153.31156253856946,65.02,,,13.9914633,66.3854943,20190516,104046,2019-05-16T10:40:46Z,184.774,0.54,1.01,6.78,12,9,21,-0.06,0.05,-0.07,0,0,0,0,5,5,13.991862940737835,66.38567901364976,50,false,false,false,false,false,false,false,false,false,false,5712,5542,4522,4717,67,86,86,67,1637,1597,1486,1528,1627,1608,1477,1492,0.0,0.0,0.0,0.0,1458.3,1454.6,1455.8,1458.3,4.96,4.05,2.94,2.96,0,0,0,0,-169.73269170855338,13.99146305896066,66.38549407783404,0,6.63058,2.0511248,0.0033548817,0.037046246,-0.9882346,0.9889344,-16.476807,4.9725747,-16.188705,23.628075,-186,-192,1441,1465.0,-0.0818237,0.043167222,0.101878025,0.13761416,0.09251230531756294,0.0018817184356157285,-2.100570674338694,0.6664280131561484,152.09747630119807,152.09747630119807,1.5654225637419399,7.291482861175957,-7.545016133107692,140.57848452561674,27.2053600864748,1.7315493052230937,154.57580044726103,159.85051435891575,65.0,NONE,0.0,0.0,0.0,NONE,2.780236385609937E-9,-1.747667876867333E-9,2.5582314E-4,2,62.93,59.3,45.38,47.42,14.727,14.727,5.232,8.286521,462,1065,3.671,12.0,8.195,30,39.7,OK,1199,0,0,0,0,0,65,100,0.0,0,0.0,5.720649E-6,8.8E-44,0.0,1.05007105E-23,64,-2.7856002E-36,-7.8461518E18,1.654951E-20,False,False,0,None,-1.6260867E-31,2697.0784,
502138800,111.586,13.991463018738608,66.3854938460744,21,6.666828,6.017954,0.004999199,0.04389907,-0.9745084,0.97550946,14.87394,-3.5921476,12.116475,19.517853,-172,-206,1441,1465.0,-0.020621933,0.024631267,0.03215173,0.045449942,0.032124186954757626,0.05031687850811704,-2.776914404972509,0.3626084889591632,152.7192736028747,152.71927360287464,-2.3072839128353984,3.172096551318438,6.952473430153104,140.1408026924815,27.22601688088711,1.4887780597070186,158.67390987056314,163.94862378221785,65.05,,,13.9914634,66.3854937,20190516,104048,2019-05-16T10:40:48Z,184.727,0.54,1.01,6.76,12,9,21,-0.04,0.02,0.0,0,0,0,0,5,5,13.991862940737835,66.38567901364976,50,false,false,false,false,false,false,false,false,false,false,5569,5513,4414,4985,67,85,84,68,1623,1586,1466,1547,1620,1610,1451,1501,0.0,0.0,0.0,0.0,1458.9,1456.4,1457.0,1458.9,4.6,3.11,3.28,3.72,0,0,0,0,-159.56717132060135,13.991463013151064,66.3854933767867,0,6.574347,2.0820625,0.0017307352,0.044907734,-0.9817278,0.9827559,-10.503861,8.507029,-11.290773,17.61199,-172,-206,1441,1465.0,-0.04510604,0.024377262,0.112301394,0.12345205,0.05127187905158406,0.024879834666576964,-2.7541333484157824,0.47629109629381816,152.33765338024045,152.33765338024045,1.4851539516038277,8.014385037357325,-6.874563253602215,139.51778698862506,27.265663957038665,1.823055121898761,165.22923615030948,170.5039500619642,65.06,NONE,0.0,0.0,0.0,NONE,5.132743905657132E-10,-1.1308439145901289E-9,2.5367737E-4,2,59.82,58.66,44.96,50.44,14.726,14.726,5.231,8.272485,462,1063,3.669,12.0,8.271,30,39.8,OK,1200,0,0,0,0,0,65,100,0.0,0,0.0,2.966146E-6,8.8E-44,0.0,1.05007105E-23,64,-2.8210946E-36,-7.9549419E18,1.6828684E-20,False,False,0,None,-1.644052E-31,2739.8284,
506746800,112.610,13.99146446680934,66.38549366411857,21,6.569818,5.861594,0.0050539747,0.023917593,-0.99024206,0.9905437,-13.262988,-8.249029,-17.398422,23.380728,-183,-192,1441,1465.0,-0.0049907584,0.050639108,0.10890068,0.120202266,0.05088444686931545,0.01513081878561498,-2.0966036366720324,0.35465320246585336,152.51142177211648,152.51142177211648,-3.514925165287375,3.142721326205841,5.04933434686401,141.35591529032266,27.19918696155648,1.582413491089229,77.63348993748518,82.90820384913991,64.95,,,13.9914648,66.3854934,20190516,104049,2019-05-16T10:40:49Z,184.638,0.54,1.01,6.77,12,9,21,-0.01,0.04,0.05,0,0,0,0,5,5,13.991862940737835,66.38567901364976,50,false,false,false,false,false,false,false,false,false,false,5561,5602,4548,4906,67,85,85,67,1618,1601,1489,1543,1604,1589,1475,1528,0.0,0.0,0.0,0.0,1458.3,1455.8,1456.4,1458.9,4.81,3.79,2.69,3.12,0,0,0,0,-169.49171648225905,13.991464614561961,66.38549326903211,0,6.5803876,2.0833678,0.0052606277,0.031778615,-0.98963076,0.9901548,20.653336,3.0755823,17.025415,26.94224,-183,-192,1441,1465.0,-0.020751407,0.038472254,0.124894336,0.13232282,0.04371195665403741,0.02692308659380848,-1.9705146346356524,0.5060142028589795,152.3044109932655,152.3044109932655,2.3849419844788358,9.987367077044267,-7.608157598853629,140.09706289475872,27.228201976605593,1.9279464243687654,99.91311930063422,105.18783321228895,64.97,NONE,0.0,0.0,0.0,NONE,2.52359906255398E-9,-7.367619435795958E-10,3.1995773E-4,2,60.62,61.24,44.0,48.41,14.724,14.724,5.229,8.261193,462,1061,3.669,12.0,8.239,30,39.7,OK,1201,0,0,0,0,0,65,100,0.0,0,0.0,1.3298122E-6,8.8E-44,0.0,1.05007105E-23,64,-2.823115E-36,-7.9609936E18,1.676706E-20,False,False,0,None,-1.6400798E-31,2742.2034,
511354885,113.634,13.991466416989134,66.38549333005307,21,6.1953716,5.678553,-0.003306237,0.027827185,-0.9860371,0.9864352,10.873171,4.2448144,11.501962,16.387173,-172,-159,1453,1471.0,-0.022497136,0.029607302,0.15236412,0.15683602,0.03718485496735235,0.055074376270528975,-1.0838586198107074,0.1754422809063686,152.384502048878,152.38450204887795,-3.140088273950669,4.899787622461694,9.983156497965124,141.87512250861957,27.170798891830184,1.6848957479531845,140.88541882316713,146.16013273482187,64.97,,,13.9914668,66.385493,20190516,104050,2019-05-16T10:40:50Z,184.509,0.54,1.01,6.8,12,9,21,-0.02,0.06,0.08,0,0,0,0,5,5,13.991862940737835,66.38567901364976,50,false,false,false,false,false,false,false,false,false,false,5550,5495,4630,4680,67,85,86,67,1607,1605,1487,1501,1588,1601,1505,1484,0.0,0.0,0.0,0.0,1458.9,1457.0,1457.0,1458.9,4.66,3.62,3.2,2.92,0,0,0,0,-176.536756017283,13.99146651709285,66.38549278740047,0,6.150452,2.0791714,-0.0016163264,0.016419034,-0.9831186,0.983257,-21.715004,-2.0529213,-16.989046,27.647488,-172,-159,1453,1471.0,-0.02598686,0.040408235,0.12717466,0.13594683,0.048043130325528295,0.04985330339073873,-1.0203759011768065,0.2685629626270795,152.05470996951212,152.05470996951215,-0.8200580206693628,7.5739942240737195,-12.514446647267198,141.1378067999474,27.213786430494963,2.0529472852372486,121.42770535201392,126.70241926366865,64.99,NONE,0.0,0.0,0.0,NONE,2.566371897414932E-9,-5.825559555753144E-10,3.1852722E-4,2,61.64,57.62,44.95,47.72,14.729,14.729,5.228,8.250582,461,1058,3.669,12.0,8.128,30,39.8,OK,1202,0,0,0,0,0,65,100,0.0,0,0.0,3.6603888E-7,8.8E-44,0.0,1.05007105E-23,64,-2.817513E-36,-7.9439644E18,1.6711638E-20,False,False,0,None,-1.6365289E-31,2735.5159,
515885851,114.641,13.991466362496677,66.38549283419837,21,6.063023,5.5261927,-0.002918581,0.027262937,-0.99160784,0.9919869,-10.094523,-8.991184,-7.1762757,15.304893,-158,-176,1447,1466.0,-0.024290437,-0.0043320567,0.13934894,0.14151649,0.024673711979530083,0.03013902873198098,-1.6597345209424266,-0.27813378610614675,152.52478256783922,152.52478256783922,-1.55274053349565,5.958585920038691,13.8180198746882,140.92346070904685,27.21429624782052,1.7504755025344407,-124.48762362409485,-119.21290971244012,65.01,,,13.9914668,66.3854926,20190516,104051,2019-05-16T10:40:51Z,184.328,0.54,1.01,6.79,12,9,21,-0.02,-0.02,0.13,0,0,0,0,5,5,13.991862940737835,66.38567901364976,50,false,false,false,false,false,false,false,false,false,false,5541,5495,4537,4897,67,85,85,68,1609,1591,1481,1532,1599,1589,1472,1528,0.0,0.0,0.0,0.0,1459.5,1457.0,1455.8,1458.3,4.46,3.69,2.91,3.2,0,0,0,0,-165.77876933374574,13.991466538051476,66.38549230460369,0,6.0181036,2.0561128,-0.0032541906,0.03021244,-0.9971437,0.9976066,8.732173,11.925664,9.558018,17.601933,-158,-176,1447,1466.0,-0.043118462,-0.0076191057,0.1160037,0.12399238,0.043786442535351106,0.009539273951567888,-1.5124618029176788,-0.09838469103611705,152.29818445769217,152.29818445769217,-2.46890083822193,4.586983476163749,-15.387419148568968,139.36130764672754,27.254053437031118,2.1516121309757312,177.43617894985664,-177.28910713848865,65.0,NONE,0.0,0.0,0.0,NONE,-5.560472358942189E-10,-6.853599499448297E-10,3.0994415E-4,2,59.34,58.84,44.29,51.31,14.732,14.732,5.235,8.235053,461,1056,3.67,12.0,8.073,30,39.8,OK,1203,0,0,0,0,0,65,100,0.0,0,0.0,2.2143286E-7,8.8E-44,0.0,1.4640026E-27,64,-2.7909266E-36,-7.8624774E18,1.6669038E-20,False,False,0,None,-1.6337904E-31,2703.5159,
520570919,115.682,13.991466510533094,66.3854925463025,21,5.80031,5.2885323,-0.0035965461,0.012809803,-0.9883078,0.98839736,0.17828415,-6.5722136,-2.5526025,7.052769,-169,-173,1444,1464.0,-0.0029696194,0.037084535,0.16288002,0.16707478,0.03720324495779658,-0.005809729874969555,-1.3297969330416546,-0.040995419560674685,152.45993603791717,152.45993603791715,0.2904228088431107,8.441163408528372,12.407465248986458,140.64566261367037,27.234380791482668,1.797336767509367,70.58311160416201,75.85782551581674,64.97,,,13.991467,66.3854921,20190516,104052,2019-05-16T10:40:52Z,184.129,0.54,1.01,6.77,12,9,21,-0.02,0.03,0.14,0,0,0,0,5,5,13.991862940737835,66.38567901364976,50,false,false,false,false,false,false,false,false,false,false,5442,5491,4587,4709,68,86,85,68,1609,1597,1487,1512,1604,1587,1469,1506,0.0,0.0,0.0,0.0,1457.7,1456.4,1457.0,1458.9,4.55,3.85,2.88,2.69,0,0,0,0,-177.4466568716267,13.991466490530984,66.38549204608863,0,5.7606754,2.0258904,-0.0043548653,0.017015621,-0.9897035,0.98985934,8.694928,3.8322134,4.5957985,10.555046,-169,-173,1444,1464.0,-0.013384554,0.031998344,0.097996995,0.103954084,0.034684872200164925,-0.007000055934860333,-1.2511398975454733,0.10136576799023245,152.20939982071295,152.20939982071297,-3.9331746347541907,3.9306280890932523,-13.424636515081636,139.64421780738002,27.277327377921562,2.2358273683577012,119.31458544195927,124.589299353614,64.96,NONE,0.0,0.0,0.0,NONE,1.3259587810701273E-9,-6.682259543471693E-10,2.5629997E-4,2,59.44,58.65,44.91,48.15,14.733,14.733,5.238,8.212717,462,1054,3.672,12.0,8.05,30,39.8,OK,1204,0,0,0,0,0,65,100,0.0,0,0.0,1.8218998E-7,8.8E-44,0.0,1.4640026E-27,64,-2.756075E-36,-7.7556576E18,1.655985E-20,False,False,0,None,-1.6267488E-31,2661.5784,
525178919,116.706,13.99146775273868,66.38549232304935,21,5.6829276,5.0955086,1.061901E-4,0.007600369,-0.9888442,0.9888734,4.9330783,-2.8962343,2.961321,6.441495,-178,-159,1444,1463.0,-0.029910874,0.029130887,0.15298185,0.15857716,0.04175247202392543,0.017470918175573454,-0.6135708234275562,0.27577477522023053,152.52809800676877,152.5280980067688,-4.234707004719627,5.164339741095441,11.19163407864836,139.99841239417427,27.217467861365375,1.872269064523649,116.44552774363457,121.7202416552893,65.02,,,13.9914681,66.3854922,20190516,104054,2019-05-16T10:40:54Z,183.961,0.54,1.01,6.77,12,9,21,-0.01,0.03,0.14,0,0,0,0,5,5,13.991862940737835,66.38567901364976,50,false,false,false,false,false,false,false,false,false,false,5353,5553,4532,4667,67,86,86,68,1595,1602,1488,1511,1588,1594,1478,1503,0.0,0.0,0.0,0.0,1458.9,1456.4,1456.4,1458.9,4.61,3.92,3.01,2.86,0,0,0,0,177.8193162127527,13.991467713146607,66.38549186231128,0,5.738416,1.9898716,1.3491558E-4,0.00945026,-0.99009866,0.9901438,-0.75933707,4.6949325,-2.1767895,5.23043,-178,-159,1444,1463.0,-0.027545338,0.027564906,0.09043687,0.09847537,0.03896882925947063,0.017834186158629153,-0.5771629448512176,0.3732986258239657,152.27248248674124,152.27248248674118,-0.17388643144698557,7.689493829528112,-13.66943601313063,139.40839466801202,27.25770202628271,2.306513382567389,126.72246691704528,131.9971808287,65.04,NONE,0.0,0.0,0.0,NONE,1.7536874135790796E-9,-7.710299513623777E-10,2.1290779E-4,2,58.48,59.4,45.26,47.61,14.732,14.732,5.235,8.183451,462,1052,3.67,12.0,7.934,30,39.8,OK,1205,0,0,0,0,0,65,100,0.0,0,0.0,8.9879904E-8,8.8E-44,0.0,1.4640026E-27,64,-2.715346E-36,-7.6308235E18,1.6337753E-20,False,False,0,None,-1.6124548E-31,2612.4534,
529786923,117.730,13.99146783255259,66.38549222020985,21,5.3881083,4.936285,-0.0058755595,0.01711078,-0.9994108,0.99957454,5.104705,4.4634295,5.107344,8.489121,-161,-167,1447,1465.0,0.010013006,-0.022727462,0.10571093,0.10858913,0.024835414796526407,-0.01314097793744888,-1.318034552225774,-0.42121349812129133,152.65781612915316,152.65781612915316,-3.55235118103594,5.437787317500647,9.35328798536521,142.09184214258462,27.223892302148904,1.947781752088749,-117.78838976930301,-112.51367585764828,64.99,,,13.9914683,66.3854919,20190516,104055,2019-05-16T10:40:55Z,183.787,0.54,1.01,6.76,12,9,21,0.0,-0.03,0.14,0,0,0,0,5,5,13.991862940737835,66.38567901364976,50,false,false,false,false,false,false,false,false,false,false,5436,5613,4537,5016,68,85,85,68,1600,1616,1479,1530,1589,1614,1471,1508,0.0,0.0,0.0,0.0,1459.5,1457.0,1457.0,1458.9,4.33,3.88,2.96,2.98,0,0,0,0,-168.58699118984353,13.991467799547507,66.38549180366223,0,5.425101,1.9206554,-0.006142824,0.013811911,-0.9949756,0.9950905,-12.298418,-10.153962,-8.633627,18.135422,-161,-167,1447,1465.0,-0.015959457,-0.025334442,0.0598309,0.06690497,0.02994224775000265,-0.022547362533572857,-1.2547843150208795,-0.30928429360780313,152.42235175597088,152.4223517559709,0.24798461174513597,7.414954934269897,-12.003724323590589,141.29637468761013,27.260196334675392,2.395556866280874,-111.88588974706572,-106.61117583541099,64.98,NONE,0.0,0.0,0.0,NONE,-1.96755174305968E-9,-3.598139811176661E-10,1.707077E-4,2,58.46,59.82,44.05,50.61,14.731,14.731,5.236,8.106715,464,1045,3.671,12.0,8.039,29,39.8,OK,1207,0,0,0,0,0,65,100,0.0,0,0.0,8.060124E-8,8.8E-44,0.0,1.4640026E-27,64,-2.6362298E-36,-7.3883328E18,1.5985787E-20,False,False,0,None,-1.589795E-31,2517.2034,
534394882,118.754,13.99146698013488,66.38549219458466,21,5.576215,4.791472,-0.01152475,0.019069582,-1.0032445,1.0034919,9.457246,-2.8406537,2.590096,10.208693,-158,-167,1453,1471.0,-0.0013331777,-0.03333135,0.08825756,0.094351225,0.03335800058349903,0.0038255835365744242,-1.2752355947922873,-0.6186614459688522,152.31920265425714,152.3192026542572,-1.2760055965626478,7.821656804916332,9.928462030837354,142.22594603975227,27.250624909266847,1.9969829561736028,-96.33298223367028,-91.05826832201555,64.95,,,13.9914676,66.3854919,20190516,104056,2019-05-16T10:40:56Z,183.622,0.54,1.01,6.76,12,9,21,-0.01,-0.03,0.09,0,0,0,0,5,5,13.991862940737835,66.38567901364976,50,false,false,false,false,false,false,false,false,false,false,5522,5478,4726,4839,68,85,85,68,1616,1602,1497,1530,1594,1577,1493,1525,0.0,0.0,0.0,0.0,1458.3,1456.4,1455.8,1459.5,4.64,3.76,3.03,3.08,0,0,0,0,-173.75623618854425,13.991467158983145,66.38549169186406,0,5.5656457,1.8730172,-0.010629662,0.027945854,-0.9994288,0.9998759,-2.1375794,-2.472845,2.302794,3.9983833,-158,-167,1453,1471.0,-0.018936295,-0.037021566,0.034734588,0.054181837,0.04158340581733595,-0.01118965003575256,-1.2540597010110601,-0.4987776102833615,152.0731141405375,152.07311414053754,-2.827161128522035,5.731081489892847,-11.780051455983314,141.62320039842152,27.288114721560095,2.451117027287398,-119.71109243705017,-114.43637852539544,64.95,NONE,0.0,0.0,0.0,NONE,-1.6253688391295323E-9,-5.48287975433104E-10,9.214878E-5,2,59.81,58.35,46.19,49.35,14.73,14.73,5.233,8.071774,465,1043,3.67,12.0,7.97,29,39.8,OK,1208,0,0,0,0,0,65,100,0.0,0,0.0,9.600808E-8,8.8E-44,0.0,1.4640026E-27,64,-2.5818172E-36,-7.2215588E18,1.5794708E-20,False,False,0,None,-1.5775172E-31,2451.7034,
538925879,119.761,13.991466266685764,66.38549199306146,21,6.6508837,6.001201,-0.005611348,0.035611697,-1.3174434,1.3179365,13.022365,4.877289,15.535793,20.850199,-163,-195,1438,1460.0,-0.072686,0.0094415,-3.4931922,3.493961,0.07329663478142695,-0.03467781031653022,-2.342135778281114,-0.14627802394759262,152.33938276106582,152.33938276106585,-2.3363358224025275,5.34112843454303,9.92325253433374,140.77451320353327,27.288276440901154,2.0589623943866124,-173.81086240713165,-168.5361484954769,64.99,,,13.9914668,66.3854917,20190516,104057,2019-05-16T10:40:57Z,184.392,0.54,1.01,6.77,12,9,21,-0.16,0.06,-1.12,0,0,0,10000,5,5,13.991862940737835,66.38567901364976,50,false,false,false,false,false,false,false,false,false,false,6528,6473,5483,5663,67,85,85,67,1713,1703,1579,1592,1701,1696,1580,1577,0.0,0.0,0.0,0.0,1449.7,1446.7,1446.0,1449.1,5.76,4.76,3.96,3.71,0,0,0,0,-172.77996586173157,13.991466228975753,66.38549141114355,0,6.5821834,3.0587077,-0.005064521,0.025954343,-1.3243349,1.3245989,-12.5347805,-0.19274122,-18.161419,22.067963,-163,-195,1438,1460.0,-0.08750234,0.0046611773,-3.4982767,3.499374,0.08762639646992101,-0.03611234277455672,-2.2801759291668455,0.0840425622553565,152.125719186264,152.12571918626395,-2.693249666363341,5.687648751300064,-11.841960799568412,139.45307772025274,27.33870545981814,2.5528562687945326,-169.4961608843496,-164.22144697269488,64.99,NONE,0.0,0.0,0.0,NONE,-2.438053048469748E-9,-1.8162037666238677E-9,-0.0061104298,2,72.28,70.71,55.84,58.51,14.718,14.718,5.162,8.050125,465,1040,3.67,12.0,8.346,29,39.8,OK,1209,0,0,0,0,0,65,100,0.0,0,0.0,1.0970689E-7,8.8E-44,0.0,1.4640026E-27,64,-4.6879266E-36,-1.2985077E19,2.1599862E-20,False,False,0,None,-1.9511777E-31,3977.2034,
543610821,120.802,13.991466268610537,66.38549245949993,21,11.144722,10.231116,-0.0036557629,0.020388383,-0.56301266,0.5633936,1.04776,-1.8105122,2.2728753,3.088967,-186,-167,1444,1465.0,0.017950391,0.0067484495,-2.4580727,2.4581475,0.019177020027289955,0.03064120203017463,-0.9947475036762956,0.3483083889614322,152.4659795474535,152.46597954745346,-1.0681375831665436,7.164508719608788,9.798399052613926,141.31175943102645,27.248715913491097,2.1760074612897933,-1.206088789870333,4.068625121784396,64.94,,,13.9914664,66.3854921,20190516,104058,2019-05-16T10:40:58Z,188.764,0.54,1.01,6.77,12,9,21,0.09,-0.1,-3.28,0,0,0,0,5,5,13.991862940737835,66.38567901364976,50,false,false,false,false,false,false,false,false,false,false,4343,4253,3423,3911,68,86,86,67,1470,1448,1343,1408,1465,1449,1339,1397,0.0,0.0,0.0,0.0,1466.9,1464.4,1465.0,1466.9,2.7,1.95,1.32,1.64,0,0,0,0,-155.3920701475511,13.991466472438109,66.38549207252613,0,11.091875,7.5455136,-0.0048407856,0.018795755,-0.5657059,0.5660387,-1.8266295,-4.556582,-0.92198706,4.994905,-186,-167,1444,1465.0,0.017663937,-0.04479736,-2.61873,2.6191728,0.04815411046815378,0.023248988820667782,-0.9022819393616507,0.51245846516984,152.28211952294015,152.2821195229401,-3.1201604437606556,6.358105758204308,-11.258774943360326,140.1890630304275,27.275608663043116,2.6687005342746346,-38.394903720450706,-33.12018980879598,64.95,NONE,0.0,0.0,0.0,NONE,-1.2831849191758366E-10,-8.56699289014157E-11,-0.008653164,2,41.63,40.67,28.82,33.94,14.691,14.691,5.26,8.128351,458,1036,3.642,12.0,12.125,29,39.8,OK,1210,0,0,0,0,0,65,100,0.0,0,0.0,1.8127321E-7,8.8E-44,0.0,1.4640026E-27,64,-4.6994795E-35,-1.3297387E20,6.9503457E-20,False,False,0,None,-5.8076417E-31,31865.627,
548218935,121.826,13.991463157621661,66.38549291107397,21,13.06938,12.249032,0.0119591765,0.02931739,-0.8245254,0.82513314,3.721289,6.5880394,-2.5945766,7.99888,-144,-192,1447,1466.0,-0.017080646,-0.019984264,-0.9470899,0.9474547,0.02628914666197797,0.11764138058537381,-2.1004898340608973,-0.9583878345018684,152.3270394275817,152.32703942758167,-1.8324047535751098,6.24986446408781,8.35509856029694,140.47721891297692,27.30069174095351,2.3461513389453024,167.73264084367236,173.0073547553271,65.01,,,13.9914632,66.3854926,20190516,104100,2019-05-16T10:41:00Z,190.812,0.54,1.01,6.75,12,9,21,-0.01,-0.12,-1.78,0,0,0,985,5,5,13.991862940737835,66.38567901364976,50,false,false,false,false,false,false,false,false,false,false,5046,5030,3851,4086,67,85,85,68,1504,1487,1368,1416,1497,1452,1349,1395,0.0,0.0,0.0,0.0,1469.9,1468.7,1468.1,1470.5,2.56,1.66,0.7,0.9,0,0,0,0,-173.3072594503724,13.991463364913963,66.38549246665535,0,13.106373,9.442712,0.0102953585,0.03190908,-0.83628017,0.83695203,6.457568,0.9398797,2.5367799,7.0013437,-144,-192,1447,1466.0,-0.048394106,-0.010510254,-0.9982604,0.999488,0.049522265321098824,0.09226071499285105,-2.0227515822609963,-0.8677144458859546,152.1855137990148,152.18551379901487,-2.627070261624306,6.424006020298834,-12.407878649669634,139.69187640947635,27.332155118903042,2.83363345762065,160.3713493067218,165.64606321837653,65.01,NONE,0.0,0.0,0.0,NONE,-2.4808233525596707E-9,-2.912776524008082E-10,-0.0030937195,2,46.18,40.28,26.69,32.28,14.783,14.783,5.239,8.31729,447,1034,3.655,12.0,6.827,29,39.9,OK,1211,0,0,0,0,0,65,100,0.0,0,0.0,1.0479707E-6,8.8E-44,0.0,1.4640026E-27,64,-1.3453827E-34,-3.6809056E20,1.0974788E-19,False,False,0,None,-8.822444E-31,80174.51,
