Tick#,offsetTime,IMU_ATTI(0):Longitude,IMU_ATTI(0):Latitude,IMU_ATTI(0):numSats,IMU_ATTI(0):barometer:Raw,IMU_ATTI(0):barometer:Smooth,IMU_ATTI(0):accel:X,IMU_ATTI(0):accel:Y,IMU_ATTI(0):accel:Z,IMU_ATTI(0):accel:Composite,IMU_ATTI(0):gyro:X,IMU_ATTI(0):gyro:Y,IMU_ATTI(0):gyro:Z,IMU_ATTI(0):gyro:Composite,IMU_ATTI(0):mag:X,IMU_ATTI(0):mag:Y,IMU_ATTI(0):mag:Z,IMU_ATTI(0):mag:Mod,IMU_ATTI(0):velN,IMU_ATTI(0):velE,IMU_ATTI(0):velD,IMU_ATTI(0):velComposite,IMU_ATTI(0):velH,IMU_ATTI(0):GPS-H,IMU_ATTI(0):roll,IMU_ATTI(0):pitch,IMU_ATTI(0):yaw,IMU_ATTI(0):yaw360,IMU_ATTI(0):totalGyro:Z,IMU_ATTI(0):totalGyro:X,IMU_ATTI(0):totalGyro:Y,IMU_ATTI(0):magYaw,IMU_ATTI(0):distanceHP,IMU_ATTI(0):distanceTravelled,IMU_ATTI(0):directionOfTravel[mag],IMU_ATTI(0):directionOfTravel[true],IMU_ATTI(0):temperature,General:relativeHeight,General:absoluteHeight,GPS(0):Long,GPS(0):Lat,GPS(0):Date,GPS(0):Time,GPS:dateTimeStamp,GPS(0):heightMSL,GPS(0):hDOP,GPS(0):pDOP,GPS(0):sAcc,GPS(0):numGPS,GPS(0):numGLNAS,GPS(0):numSV,GPS(0):velN,GPS(0):velE,GPS(0):velD,RC:Aileron,RC:Elevator,RC:Rudder,RC:Throttle,Controller:navHealth,Controller:ctrl_level,HP:Longitude,HP:Latitude,HP:rthHeight,BatBlackBox:tick,BatBlackBox:id,BatBlackBox:rsoc,BatBlackBox:index,BatBlackBox:rm,BatBlackBox:fcc,BatBlackBox:cell_min,BatBlackBox:cell_max,BatBlackBox:current,BatBlackBox:voltage,BatBlackBox:temp,BatBlackBox:flag,BatBlackBox:reserve,BatBlackBox:user_data,OA:avoidObst,OA:emergBrake,OA:radiusLimit,OA:airportLimit,OA:groundForceLanding,OA:horizNearBoundary,OA:vertLowLimit,OA:vertAirportLimit,OA:roofLimit,OA:hitGroundLimit,Motor:Speed:RFront,Motor:Speed:LFront,Motor:Speed:LBack,Motor:Speed:RBack,Motor:EscTemp:RFront,Motor:EscTemp:LFront,Motor:EscTemp:LBack,Motor:EscTemp:RBack,Motor:PPMrecv:RFront,Motor:PPMrecv:LFront,Motor:PPMrecv:LBack,Motor:PPMrecv:RBack,Motor:PPMsend:RFront,Motor:PPMsend:LFront,Motor:PPMsend:LBack,Motor:PPMsend:RBack,Motor:V_out:RFront,Motor:V_out:LFront,Motor:V_out:LBack,Motor:V_out:RBack,Motor:Volts:RFront,Motor:Volts:LFront,Motor:Volts:LBack,Motor:Volts:RBack,Motor:Current:RFront,Motor:Current:LFront,Motor:Current:LBack,Motor:Current:RBack,Motor:Status:RFront,Motor:Status:LFront,Motor:Status:LBack,Motor:Status:RBack,Motor:thrustAngle,IMU_ATTI(1):Longitude,IMU_ATTI(1):Latitude,IMU_ATTI(1):numSats,IMU_ATTI(1):barometer:Raw,IMU_ATTI(1):barometer:Smooth,IMU_ATTI(1):accel:X,IMU_ATTI(1):accel:Y,IMU_ATTI(1):accel:Z,IMU_ATTI(1):accel:Composite,IMU_ATTI(1):gyro:X,IMU_ATTI(1):gyro:Y,IMU_ATTI(1):gyro:Z,IMU_ATTI(1):gyro:Composite,IMU_ATTI(1):mag:X,IMU_ATTI(1):mag:Y,IMU_ATTI(1):mag:Z,IMU_ATTI(1):mag:Mod,IMU_ATTI(1):velN,IMU_ATTI(1):velE,IMU_ATTI(1):velD,IMU_ATTI(1):velComposite,IMU_ATTI(1):velH,IMU_ATTI(1):GPS-H,IMU_ATTI(1):roll,IMU_ATTI(1):pitch,IMU_ATTI(1):yaw,IMU_ATTI(1):yaw360,IMU_ATTI(1):totalGyro:Z,IMU_ATTI(1):totalGyro:X,IMU_ATTI(1):totalGyro:Y,IMU_ATTI(1):magYaw,IMU_ATTI(1):distanceHP,IMU_ATTI(1):distanceTravelled,IMU_ATTI(1):directionOfTravel[mag],IMU_ATTI(1):directionOfTravel[true],IMU_ATTI(1):temperature,IMUEX(0):err,IMUEX(0):rtk_Longitude,IMUEX(0):rtk_Latitude,IMUEX(0):rtk_Alti,IMUEX(1):err,IMUEX(1):rtk_Longitude,IMUEX(1):rtk_Latitude,IMUEX(1):rtk_Alti,MotorCtrl:Status,MotorCtrl:PWM:RFront,MotorCtrl:PWM:LFront,MotorCtrl:PWM:LBack,MotorCtrl:PWM:RBack,BattInfo:Voltage,BattInfo:BatVoltage,BattInfo:AdVoltage,BattInfo:AvgCurrent,BattInfo:R_time,BattInfo:R_CAP_MAH,BattInfo:LowCellVoltage,BattInfo:LowCellVolThreshold,BattInfo:BatCurrent,BattInfo:Remaining%,BattInfo:Temp,BattInfo:status,battery_info:BatDynCnt,battery_info:Vol1Protect,battery_info:Vol2Protect,battery_info:Cap1Protect,battery_info:Cap2Protect,battery_info:Batpresent,battery_info:sopPercentage,battery_info:sopValue,battery_info:sopScale,battery_info:sopFlg,BattInfo:WindHeading:WindDir,battery_info:home_dir,BattInfo:Wind:rangeMin,BattInfo:Wind:rangeMax,battery_info:cap_speed,battery_info:against_wind,battery_info:emergency_land_cap,battery_info:intel_bat_land_cap,battery_info:intel_bat_gh_cap,BattInfo:Smart:SmartGh,BattInfo:Smart:SmartLand,BattInfo:GoHome:CntDown,BattInfo:GoHome:GhCmd,BattInfo:GoHome:CapLevel,BattInfo:GoHome:LandCapLv,Attribute|Value,ConvertDatV3,3.6.6-Tablet
63992382,.000,10.465245103104575,63.40476599926241,19,22.932693,23.17546,0.031660594,-0.042890776,-0.9895229,0.9909579,0.17766012,-0.03506621,-0.042176344,0.18593441,430,-118,1456,1522.0,0.0123841185,0.0019833338,0.035129376,0.037301116,0.012541929855598714,-0.012541929855598714,2.4930641659075903,1.8494330054538668,26.586528519466945,26.586528519466924,-0.17016408622579185,0.7313876699065394,-0.2850109775687504,20.820548689345877,0.2828700521870098,0.6793222058442633,-100.98200952114254,-97.79587166063014,62.7,,,10.4652455,63.4047663,20190429,120411,2019-04-29T12:04:11Z,160.872,0.59,1.11,8.99,11,8,19,0.0,0.0,0.0,-9998,-9997,9992,-9998,5,5,10.465246615434504,63.40476354710152,50,,,,,,,,,,,,,,,false,false,false,false,false,false,false,false,false,false,0,0,0,0,57,71,71,56,944,945,945,945,940,940,940,940,0.0,0.0,0.0,0.0,1717.7,1714.6,1713.4,1718.3,0.0,0.0,0.0,0.0,0,0,0,0,-45.0,10.465245187634695,63.40476545400277,0,23.05424,23.168789,0.031764254,-0.04369914,-0.9892084,0.99068254,0.3092296,-0.11728421,-0.062415943,0.33656248,430,-118,1456,1522.0,-9.332119E-4,3.995653E-4,-0.0026903136,0.0028754694,0.001015153609322972,-0.001015153609322972,2.4849443013127135,1.7948742534393571,21.35452479224537,21.354524792245343,-0.007082516306460215,0.298504547590457,-0.18209379794088332,20.85361118654406,0.22363327177053752,7103238.5610445505,-177.8552967865707,-174.6691589260583,62.64,NONE,0.0,0.0,0.0,NONE,1.7713104593264155E-10,-1.97692895826734E-11,-1.9073486E-5,,,,,,17.292,17.292,6.178,1.4550585,0,3514,4.32,12.0,1.275,99,22.9,OK,14,0,0,0,0,0,65,100,0.0,0,0.0,5.3427357E-7,9.0E-44,0.0,-3.6307313E-10,67,4.172307E-8,-4.1723307E-8,7.369947E-35,False,False,0,None,4.13501E29,1.0842106E-19,Firmware Date| Oct 17 2018
67846141,1.002,10.465244405569935,63.404765757649976,19,23.235502,23.193314,0.03281158,-0.042665627,-0.9897937,0.99125606,0.1358634,-0.34147915,0.10434768,0.38204098,424,-121,1435,1501.0,0.005437994,-0.0019601104,0.023703687,0.02439833,0.005780467925100336,0.038053864601793747,2.504615611275156,1.8455357302150104,26.5925976194433,26.592597619443325,-0.3710650787801992,1.0159069615708054,-0.321988377921287,21.345951223396376,0.2692957409732721,0.7307534573377923,-91.72675743790063,-88.54061957738823,63.03,0.058187243041992076,,10.4652449,63.4047662,20190429,120412,2019-04-29T12:04:12Z,160.949,0.59,1.11,8.68,11,8,19,0.0,-0.01,0.0,0,0,0,0,5,5,10.465246615434504,63.40476354710152,50,,,,,,,,,,,,,,,false,false,false,false,false,false,false,false,false,false,487,450,490,496,60,77,77,60,1401,1210,1206,1405,1392,1392,1392,1392,0.1,0.1,0.1,0.1,1687.0,1682.8,1684.0,1687.0,7.68,7.05,7.75,7.3,0,0,0,0,-41.26860300083956,10.465244264277818,63.40476533255148,0,23.235502,23.162466,0.03380853,-0.038894136,-0.9879373,0.98928046,0.16176668,0.17996925,-0.48405373,0.5411704,424,-121,1444,1509.0,0.015865225,-0.034350812,0.012862302,0.039964017,0.037837597398621546,0.009994864189543921,2.3861964241140337,1.7964082548605846,21.290352561729893,21.29035256172989,-0.3070469672932638,0.5570406506447677,-0.14768514766601845,21.110369978385684,0.2304647259077113,7103238.608952334,-109.55922778982706,-106.37308992931466,63.02,NONE,0.0,0.0,0.0,NONE,-4.354656078389879E-9,9.193932766783501E-10,8.773804E-5,1,22.5,22.5,22.5,22.5,17.267,17.267,6.062,1.4000758,0,3513,4.32,12.0,3.437,99,22.9,OK,16,0,0,0,0,0,65,100,0.0,0,0.0,7.2097883E-13,9.0E-44,0.0,-3.6307313E-10,67,4.172307E-8,-4.1723307E-8,7.498517E-35,False,False,0,None,4.286174E29,1.0842106E-19,ACType|MavicEnterprise
71704931,2.004,10.465243908751333,63.40476587737764,19,23.235502,23.195461,0.03158183,-0.045411736,-0.9877077,0.9892553,1.2321285,2.2166517,1.9448942,3.1959817,430,-118,1453,1519.0,-0.001541861,-0.0036861943,0.019854376,0.020252448,0.0039956679996443105,0.024010956811779154,2.5541971060989166,1.830978054850027,26.596597135266403,26.596597135266393,1.0967815521653501,1.2555450427579475,0.01742662033481004,20.991487140889973,0.2920534787532428,0.7627251439235108,,,63.32,0.058187243041992076,,10.4652444,63.4047662,20190429,120413,2019-04-29T12:04:13Z,161.032,0.59,1.11,8.42,11,8,19,0.01,0.0,0.0,0,0,0,0,5,5,10.465246615434504,63.40476354710152,50,96,48,26,18,946,3728,3781,3782,0,15155,25,212,15141,0,false,false,false,false,false,false,false,false,false,false,2131,2078,2118,2140,61,78,78,60,1205,1208,1210,1211,1202,1200,1201,1203,0.0,0.0,0.0,0.0,1712.2,1706.7,1706.7,1711.6,0.6,0.17,0.76,0.36,0,0,0,0,-56.84207611532776,10.465243679009184,63.40476539786402,0,23.235502,23.128056,0.030034829,-0.04388057,-0.9904768,0.9919032,-0.093026645,-0.45969063,2.226191,2.2750595,430,-118,1453,1519.0,0.034342825,-0.07601574,0.035194945,0.09053456,0.08341356292179139,-0.053473516973226734,2.449799987158847,1.7964432826228818,21.324054553441343,21.32405455344133,-0.13832188049753247,0.6165872648233452,-0.05759268126092472,20.748454949587153,0.2524265914588292,7103238.651987498,107.22663662456621,110.41277448507861,63.32,NONE,0.0,0.0,0.0,NONE,-7.1778579362607575E-9,1.4667256838616823E-9,1.6784668E-4,2,10.55,10.0,10.37,10.77,17.051,17.051,6.152,1.5120882,0,3512,4.321,12.0,3.071,98,22.9,OK,17,0,0,0,0,0,65,100,0.0,0,0.0,3.2224657E-15,9.0E-44,0.0,-3.6307313E-10,67,4.172307E-8,-4.1723307E-8,7.6927674E-35,False,False,0,None,4.5143224E29,1.0842106E-19,dateTime|2019-4-29 12:4:3 GMT
75585618,3.013,10.465243723048664,63.404765662691936,19,23.235502,23.195818,0.032364774,-0.043428145,-0.9911857,0.9926644,-2.033624,-0.7648716,0.4937097,2.2280943,430,-118,1456,1522.0,-0.00663786,5.9201894E-4,0.015302103,0.016690297,0.006664208432024656,0.01871756762973135,2.542722723268569,1.8160534311613508,26.58004496393835,26.58004496393835,1.102087819080765,1.1561514711630372,-0.1405347521572384,20.98620293789045,0.2758089059820497,0.8015936579002333,-177.29339114596036,-174.10725328544794,63.63,0.058187243041992076,,10.4652442,63.4047659,20190429,120414,2019-04-29T12:04:14Z,161.046,0.59,1.11,8.17,11,8,19,0.0,0.0,0.0,0,0,0,0,5,5,10.465246615434504,63.40476354710152,50,97,17,26,19,946,3728,3781,3782,0,15157,25,2,15157,0,false,false,false,false,false,false,false,false,false,false,2129,2082,2113,2138,61,77,78,62,1206,1208,1209,1209,1202,1200,1204,1206,0.0,0.0,0.0,0.0,1711.6,1708.5,1707.9,1710.9,0.66,0.28,0.82,0.4,0,0,0,0,-60.94539590092285,10.46524363094899,63.40476509391008,0,23.235502,23.116001,0.030584753,-0.04385073,-0.99058276,0.9920245,0.28820482,0.20874327,0.47688296,0.59502363,430,-118,1462,1528.0,0.02667121,-0.06894945,0.033221655,0.08104973,0.07392821415030984,-0.04033352004725883,2.4828941327836622,1.8113060229529705,21.3185370029762,21.3185370029762,0.7671003399504198,1.0230834300759986,-0.48781352647844695,20.851403391312274,0.22727881039116646,7103238.74151559,161.73132231380907,164.9174601743215,63.59,NONE,0.0,0.0,0.0,NONE,-6.834303824665776E-9,1.1819073638626577E-9,1.6593933E-4,2,10.22,10.0,10.46,10.72,17.215,17.215,6.151,1.5120882,0,3512,4.246,12.0,3.071,98,22.9,OK,17,0,0,0,0,0,65,100,0.0,0,0.0,6.2411505E-18,9.0E-44,0.0,-3.6307313E-10,67,4.172307E-8,-4.1723307E-8,7.363188E-35,False,False,0,None,4.1269826E29,1.0842106E-19,geoDeclination|319 degrees
79444855,4.016,10.465243702868284,63.40476532134637,19,23.235502,23.201235,0.032516174,-0.044143066,-0.9873064,0.9888275,-0.54508775,-0.33699113,1.4182109,1.5562794,430,-118,1456,1522.0,-0.012083576,0.010309312,0.005757154,0.016894955,0.01588378743835122,0.021971893737262535,2.5798827944905467,1.8142443855659287,26.548929346347617,26.54892934634762,1.3219849305564277,0.8854216972107105,-0.20576191988696235,21.08680931303595,0.24483420510604698,0.8417403849213873,125.03683753216434,128.22297539267674,63.94,0.058187243041992076,,10.4652441,63.4047657,20190429,120415,2019-04-29T12:04:15Z,161.071,0.59,1.11,7.95,11,8,19,0.0,0.0,0.0,0,0,0,0,5,5,10.465246615434504,63.40476354710152,50,107,22,26,20,946,3728,3781,3782,0,15127,25,5,0,0,false,false,false,false,false,false,false,false,false,false,2131,2063,2105,2150,61,78,78,61,1206,1208,1208,1214,1202,1200,1200,1202,0.0,0.0,0.0,0.0,1711.6,1706.7,1707.3,1711.6,0.67,0.32,0.81,0.4,0,0,0,0,-61.63880567042628,10.46524375487132,63.404764833752196,0,23.235502,23.14058,0.03279716,-0.04455578,-0.9859567,0.98750776,1.2272106,2.8172183,4.588438,5.522366,430,-118,1456,1522.0,0.014321778,-0.046358958,0.012405192,0.050081484,0.04852078271023842,-0.01903053235263966,2.5398180696176587,1.8081386324434159,21.329239321408622,21.329239321408636,1.0354355861826854,2.0207303247730786,-0.35541969965106057,20.986460477119238,0.2018573666306576,7103238.77917347,33.79096911638019,36.97710697689259,63.94,NONE,0.0,0.0,0.0,NONE,-5.24525412267348E-9,8.189990883011992E-10,9.1552734E-5,2,10.29,10.0,10.59,10.9,17.226,17.226,6.145,1.6923903,0,3512,4.301,12.0,1.87,98,23.0,OK,18,0,0,0,0,0,65,100,0.0,0,0.0,1.7315206E-19,9.0E-44,0.0,-3.3654391E38,62,4.172307E-8,-4.1723307E-8,7.0577065E-35,False,False,0,None,3.76798E29,1.0842106E-19,geoInclination|7478 degrees
83474458,5.063,10.465243952530177,63.404765133947976,19,23.235502,23.20403,0.039905645,-0.027019344,-0.99441594,0.995583,-4.2919254,5.8143754,-5.156875,8.878116,427,-121,1453,1519.0,-0.014475839,0.021114308,-0.0028455118,0.025757734,0.02560007722914153,-0.0024327491270037666,2.570403671328703,1.7971189828484513,26.4733363736158,26.47333637361578,1.3306981325910798,0.4822175130120456,-0.21815886260235262,21.50627144597594,0.2206955528594142,0.8682910999734522,168.2584207554654,171.44455861597783,64.22,0.058187243041992076,,10.4652442,63.4047655,20190429,120416,2019-04-29T12:04:16Z,161.113,0.59,1.11,7.8,11,8,19,0.0,0.01,0.0,0,0,0,9998,5,5,10.465246615434504,63.40476354710152,50,0,48,0,21,0,0,0,0,0,0,19,212,0,0,false,false,false,false,false,false,false,false,false,false,4550,4220,3937,4152,59,75,75,59,1447,1429,1385,1406,1448,1428,1389,1406,0.0,0.0,0.0,0.0,1679.1,1677.3,1676.0,1679.7,4.15,3.37,3.44,2.84,0,0,0,0,-141.32993287770927,10.465243779466153,63.40476472344732,0,23.235502,23.143946,0.031660497,-0.041637357,-0.9924428,0.99382025,0.7342731,-1.8217909,-3.7807717,4.2605534,430,-118,1456,1522.0,0.013103864,-0.045224175,0.010171555,0.048170507,0.047084363150112496,-0.0353144939812286,2.5340502110930467,1.8099761385808424,21.300013564391087,21.300013564391065,1.0757388210408336,2.118610029232947,-0.30574702791222796,20.969257379763846,0.19245794960933954,7103238.791499769,171.11342984747614,174.29956770798853,64.02,NONE,0.0,0.0,0.0,NONE,-3.2053084519623333E-9,3.135645253222931E-10,-1.5258789E-5,2,40.6,38.45,32.34,34.39,17.212,17.212,6.114,1.8472188,0,3511,4.304,12.0,1.91,98,23.1,OK,19,0,0,0,0,0,65,100,0.0,0,0.0,3.1568314E-21,9.0E-44,0.0,-3.3654391E38,62,4.172307E-8,-4.1723307E-8,6.815408E-35,False,False,0,None,3.483157E29,1.0842106E-19,geoIntensity|5185039 nanoTesla
87415999,6.088,10.465245249501214,63.40476429543132,19,24.357649,24.133312,-0.03416959,0.017359108,-1.4173945,1.4179126,1.356459,2.3782601,-5.1345887,5.8189435,510,-207,1408,1511.0,-0.09413432,0.039205413,-2.5533602,2.5553956,0.10197222574578234,0.008738115507626112,-0.982891798876514,-1.7216098134954514,25.817362208386403,25.817362208386385,-4.669651317828517,-8.515345313866177,-7.849339439342087,21.363563237872643,0.10745934998282633,1.0005283001021095,168.0057397998957,171.1918776604081,64.39,1.1803338494873046,,10.4652452,63.4047647,20190429,120417,2019-04-29T12:04:17Z,161.981,0.59,1.11,7.68,11,8,19,-0.18,0.07,-1.05,0,0,0,10000,5,5,10.465246615434504,63.40476354710152,50,0,48,0,22,0,0,0,0,0,0,19,212,0,0,false,false,false,false,false,false,true,false,false,false,6762,6619,5852,5940,59,74,75,59,1670,1672,1570,1576,1662,1658,1562,1574,0.0,0.0,0.0,0.0,1629.4,1625.7,1625.7,1629.4,6.66,6.23,5.45,4.49,0,0,0,0,-171.72860131202555,10.465245367754637,63.404763802249576,0,24.426342,24.248888,-0.034187473,0.0151108345,-1.4209125,1.4214041,6.1282897,1.0251791,5.9340973,8.591882,510,-207,1408,1511.0,-0.08548446,0.030538833,-2.6955192,2.6970472,0.09077561724582148,0.03554134843824491,-0.8687014501427786,-1.697540485533097,20.703535382505905,20.70353538250589,1.1789268193764493,10.274997333499496,-20.34664928646513,21.63635964735061,0.0682829113396988,7103238.92851043,157.2745851372468,160.4607229977592,64.39,NONE,0.0,0.0,0.0,NONE,5.523961441325287E-9,-4.288605326381235E-9,-0.007423401,2,70.71,69.27,57.44,60.13,17.153,17.153,5.836,2.1641169,0,3509,4.304,12.0,8.735,98,23.1,OK,21,0,0,0,0,0,65,100,0.0,0,0.0,-5.1830802E19,2.66E-43,0.0,-3.3654391E38,62,1.576991E-7,-8.114741E-8,7.86292E-35,False,False,0,None,4.714424E29,2.014888E-19,
91266623,7.088,10.465243849490461,63.40476307971641,19,28.742731,27.87522,-0.053594895,0.010132858,-1.047974,1.0493925,-4.123774,82.417175,-1.871684,82.541504,487,-199,1405,1500.0,-0.00733785,0.013497494,-3.9871767,3.9872062,0.015363150385164212,0.13661046132918864,-0.7303388739375775,2.8154803113416524,25.911311455471697,25.91131145547172,-4.586135742156229,-9.874332795488892,-3.093241703244715,18.05295036234219,0.23191387948371678,1.1653331168329124,167.65020089256274,170.83633875307513,64.48,5.5654160943603515,,10.4652445,63.4047641,20190429,120418,2019-04-29T12:04:18Z,165.723,0.59,1.11,7.57,11,8,19,0.13,-0.03,-3.39,0,-9997,0,10000,5,5,10.465243816584714,63.404765165316,50,0,48,0,23,0,0,0,0,0,0,19,212,0,0,false,false,false,false,false,false,true,false,false,false,6191,6141,5273,5468,61,75,76,60,1589,1590,1505,1521,1577,1573,1503,1515,0.0,0.0,0.0,0.0,1650.2,1646.6,1645.9,1649.0,5.16,4.74,4.1,3.4,0,0,0,0,-171.24571950491332,10.465244160071371,63.40476247932781,0,28.766489,28.0441,-0.050383594,0.013858321,-1.0386688,1.0399824,2.3737798,82.98472,2.8752046,83.068436,487,-199,1405,1500.0,-0.0025109192,-0.014167489,-4.054012,4.0540376,0.014388275025119596,0.14440399981049565,-0.6762886887481251,3.2884122234781685,20.766202440512455,20.766202440512473,0.31520665239489576,11.414234854850365,-4.44591038790438,17.835196287074343,0.29915731811837765,7103239.11599384,128.00318717318675,131.18932503369916,64.48,NONE,0.0,0.0,0.0,NONE,-6.222240477528793E-10,4.5980508013037363E-10,-0.02044487,2,57.22,56.79,49.46,52.46,16.625,16.625,5.926,2.724865,0,3506,4.301,12.0,10.318,98,23.2,OK,22,0,0,0,0,0,65,100,0.0,0,0.0,9.4346406E-14,2.65E-43,0.0,-3.3654391E38,62,8.83732E-6,-6.099619E-7,2.4483938E-34,False,False,0,None,3.5823664E30,1.2694444E-18,
95132256,8.093,10.465227759043199,63.404752648618185,19,31.205473,31.007854,0.02039673,0.021574344,-0.56508183,0.5658613,-2.8089602,3.7531607,-1.047926,4.803605,-190,-245,1450,1482.0,-2.298972,-1.6402303,-1.2611234,3.0929046,2.8241152500377185,-1.421075084610779,-1.4956292262786017,24.761263661393908,38.060795155540326,38.06079515554035,-3.8872007306673297,-11.616084951922176,18.858075529543413,25.340779616266534,1.6050069405276874,2.6096571990783395,-146.40049632717228,-143.21435846665986,64.6,8.028157946166992,,10.4652283,63.4047533,20190429,120419,2019-04-29T12:04:19Z,169.383,0.59,1.11,7.52,11,8,19,-2.23,-1.59,-3.38,0,-10000,0,0,5,5,10.465243816584714,63.404765165316,50,0,48,0,23,0,0,0,0,0,0,19,212,0,0,false,false,false,false,false,false,true,false,false,false,4918,4681,3908,4128,58,76,76,59,1450,1437,1368,1374,1442,1432,1347,1365,0.0,0.0,0.0,0.0,1682.1,1674.1,1676.0,1680.9,2.89,2.25,2.13,1.56,0,0,0,0,-163.70179608213684,10.465228630827088,63.40475119085554,0,31.184492,31.180449,0.019457337,0.021526571,-0.56206095,0.56280947,-2.0389574,4.560568,1.0445554,5.1036477,-190,-245,1450,1482.0,-2.3651786,-1.3105736,-1.3014427,3.0009043,2.7040105703135993,-1.2366764041769203,-1.5373048856834886,23.990210397739435,30.816823064738205,30.81682306473823,2.366311395635809,11.793936842220273,20.31546871385676,26.213857550725454,1.7280143855271994,7103240.633137325,-144.42748392372738,-141.24134606321496,64.58,NONE,0.0,0.0,0.0,NONE,-1.4148660186220776E-7,-1.1297250324095898E-7,-0.004585266,2,41.58,37.04,26.36,30.85,16.664,16.664,6.055,2.724865,0,3506,4.113,12.0,10.318,98,23.2,OK,22,0,0,0,0,0,65,100,0.0,0,0.0,1.05156235E-36,8.8E-44,0.0,-3.3654391E38,62,1.9268319E-4,-2.8404909E-6,9.1365556E-33,False,False,0,None,2.2310254E33,4.9849217E-18,
99009470,9.101,10.465166801472567,63.40471668239533,19,30.746628,31.207651,0.121980414,0.040986504,-0.955464,0.9640905,5.5905824,-89.58534,-3.572985,89.830696,-173,-219,1456,1482.0,-5.102058,-3.7273684,0.035444878,6.318665,6.3185655516013135,-1.336599997755978,-1.3173775259378226,21.510826604691275,33.175280856160704,33.175280856160725,-8.756407003308562,-8.909167277891843,13.950664202156258,26.338206522524196,6.61526815065434,7.633185941794772,-147.9102757789031,-144.72413791839068,64.67,7.569312807617187,,10.4651809,63.4047249,20190429,120420,2019-04-29T12:04:20Z,169.759,0.59,1.11,7.48,11,8,19,-4.25,-3.12,-0.81,0,-3234,0,0,5,5,10.465243816584714,63.404765165316,50,0,48,0,23,0,0,0,0,0,0,19,212,0,0,false,false,false,false,false,false,false,false,false,false,6277,5989,4672,4623,59,77,77,59,1605,1594,1450,1446,1614,1579,1415,1457,0.0,0.0,0.0,0.0,1650.8,1647.2,1647.2,1649.6,5.41,5.13,3.87,2.3,0,0,0,0,-175.40078529901842,10.46517330163764,63.404720230494746,0,30.853834,31.386555,0.07444082,0.03769885,-1.0872884,1.0904856,-1.8350196,-9.809803,-3.4554853,10.561246,-181,-230,1450,1479.0,-4.820927,-3.536033,0.05433959,5.978948,5.978700980771698,-1.6034149549857686,-1.517979486629283,24.31756454727987,33.88450466136458,33.88450466136459,-6.412964265320949,13.300922677687032,19.245279495604255,23.7876898307313,6.106320468179921,7103245.067987066,-146.03647180634937,-142.85033394583695,64.64,NONE,0.0,0.0,0.0,NONE,-3.323608987637512E-7,-1.9952021456293692E-7,3.6621094E-4,2,62.3,58.73,35.54,38.39,16.931,16.931,5.925,3.5754905,0,3503,4.151,12.0,5.976,98,23.2,OK,23,0,0,0,0,0,65,100,0.0,0,0.0,9.8554434E-21,8.8E-44,0.0,-3.3654391E38,62,2.1222606E-4,-2.9931696E-6,2.3678254E-29,False,False,0,None,-1.2132689E-38,5.2328906E-18,
102932660,10.120,10.46511501416368,63.404679737410866,19,31.769249,31.09412,0.035616368,0.05105083,-1.1061306,1.1078807,-5.811164,13.021462,-0.50509846,14.26826,1042,-161,1122,1539.0,-2.2546208,-1.2801175,0.043123905,2.5930436,2.592685067202828,2.1639899554452007,-1.8234210323359896,-23.212511093924725,32.16464083883463,32.16464083883466,-8.74238197117009,-9.930597160220056,-33.27886624704401,13.700908995731213,11.460601760031011,12.485908526316873,-153.9095932233576,-150.72345536284521,64.79,8.591933962402344,,10.4651196,63.4046833,20190429,120421,2019-04-29T12:04:21Z,169.803,0.59,1.11,7.42,11,8,19,-3.5,-2.17,-0.18,0,0,0,0,5,5,10.465243816584714,63.404765165316,50,0,16,20,25,717,3716,3761,3762,0,15045,23,1,17548,0,false,false,false,false,false,false,true,false,false,false,6239,6172,4549,5024,60,76,75,60,1600,1603,1438,1483,1591,1579,1443,1489,0.0,0.0,0.0,0.0,1648.4,1644.7,1643.5,1648.4,5.36,4.56,3.6,3.74,0,0,0,0,-169.18787333908463,10.465128121447052,63.40469005582826,0,30.923674,31.414501,0.046606265,0.04355419,-1.0435176,1.0454655,-5.4448333,-4.1471677,-8.311297,10.766748,1062,-138,1100,1535.0,-3.7547343,-2.4657843,0.009177301,4.492016,4.492006407694947,-0.5303963034974548,-0.5624840019719834,-25.56775766662706,33.73437820879703,33.73437820879701,-9.744146488500249,9.811798239742291,-40.420981630875175,14.762055915009306,10.145072255075288,7103249.107909814,-149.71958626303046,-146.53344840251808,64.74,NONE,0.0,0.0,0.0,NONE,-1.3139795094041057E-7,-1.0221240202452485E-7,3.4713745E-4,2,60.15,58.79,38.74,45.1,16.701,16.701,5.928,4.437595,0,3502,4.229,12.0,7.794,98,23.3,OK,24,0,0,0,0,0,65,100,0.0,0,0.0,4.1947104E-23,8.8E-44,0.0,-3.3654391E38,62,1.9291416E-4,-2.8422953E-6,4.352955E-26,False,False,0,None,-1.01237614E-35,4.9878863E-18,
106840841,11.136,10.465105764214645,63.40467040750154,19,31.835928,31.218222,-0.033335306,0.047966987,-0.9687008,0.9704604,3.2986445,14.409107,3.303619,15.146528,591,-210,1374,1510.0,-0.24798997,-0.03461841,-0.067364275,0.2592979,0.25039461403464786,0.8670767607047623,-2.827982294017318,-3.529135500569537,32.267904168551595,32.26790416855158,-7.01214573686066,-11.560221629478665,-10.90051579773994,15.70746934832814,12.579671615573465,13.626610934725154,176.22369275155893,179.40983061207135,64.87,8.658612963256836,,10.4651066,63.4046717,20190429,120422,2019-04-29T12:04:22Z,169.996,0.59,1.11,7.36,11,8,19,-0.28,-0.06,-0.13,0,0,0,0,5,5,10.465243816584714,63.404765165316,50,1,114,20,26,717,3716,3760,3762,0,15045,23,3850,17536,0,false,false,false,false,false,false,true,false,false,false,5635,5305,4743,5039,59,76,75,59,1525,1496,1451,1491,1519,1490,1448,1481,0.0,0.0,0.0,0.0,1661.3,1657.0,1657.6,1660.7,4.08,3.3,3.34,3.46,0,0,0,0,-151.60491086870522,10.465105376429488,63.40467024868614,0,31.91835,31.40647,-0.032653786,0.041887917,-0.96767986,0.9691363,5.0727177,0.45075178,1.6922641,5.366507,591,-210,1374,1510.0,-0.15357973,-0.009685168,-0.061347302,0.1656624,0.15388481431390982,2.2842414092747543,-2.8247458306051865,-3.561925304176389,32.72156701213922,32.72156701213919,-6.543564346468498,15.098512936897478,-27.418460515264968,15.739699420024621,12.605010531202838,7103251.601115399,-156.8593722483211,-153.6732343878087,64.85,NONE,0.0,0.0,0.0,NONE,-7.874497973811144E-9,-1.3056047110998383E-8,-4.234314E-4,2,50.65,46.54,39.46,45.04,16.657,16.657,5.968,5.2370615,0,3497,4.161,12.0,8.463,98,23.3,OK,25,0,0,0,0,0,65,100,0.0,0,0.0,2.2498707E-26,8.8E-44,0.0,-3.3654391E38,62,2.1816418E-4,-3.039561E-6,7.8466116E-25,False,False,0,None,-1.3904335E-34,5.3082765E-18,
110728888,12.147,10.4651076354528,63.40467113288215,19,31.896309,31.279541,-0.036568053,0.049284104,-0.9791551,0.9810764,-2.9135733,-12.170109,-2.8606427,12.836811,536,-222,1386,1502.0,-0.009510582,0.035380255,0.015841696,0.03991457,0.03663623496802935,0.08530414754850749,-3.3881161912349986,-2.2091359675433297,32.357266475864556,32.35726647586455,-10.163219457767232,-15.54397858335065,-7.417439556588782,16.17095780728406,12.461270598115705,13.79263191418096,37.941317600857936,41.12745546137034,64.86,8.718993898925781,,10.4651079,63.4046716,20190429,120423,2019-04-29T12:04:23Z,170.054,0.59,1.11,7.29,11,8,19,0.02,0.05,-0.04,0,0,0,0,5,5,10.465243816584714,63.404765165316,50,2,18,20,27,718,3716,3837,3848,3551,15373,23,1,15468,0,false,false,false,false,false,false,true,false,false,false,5671,5243,4850,5082,60,75,75,60,1534,1505,1457,1473,1525,1495,1454,1472,0.0,0.0,0.0,0.0,1659.4,1656.4,1655.8,1658.8,4.25,3.21,3.42,3.28,0,0,0,0,-146.09504073147008,10.465107434815334,63.40467075423804,0,31.92261,31.457094,-0.03594199,0.05015295,-0.9851555,0.9870859,1.4819685,7.71384,4.173126,8.894635,536,-222,1386,1502.0,-0.09195211,0.016845942,0.021749789,0.09597932,0.09348249018900373,0.022179230347878567,-3.3558992676792454,-2.1622802230580502,32.75124453408985,32.751244534089835,3.886432629327558,27.075030132124063,-22.88288937283761,16.220046047347488,12.50204038779393,7103251.7457882,47.031705748606306,50.21784360911871,64.88,NONE,0.0,0.0,0.0,NONE,1.8370639059260607E-9,-4.163542507591555E-9,1.04904175E-4,2,51.26,47.95,40.8,44.03,16.736,16.736,5.961,5.9760747,0,3495,4.161,12.0,7.495,98,23.4,OK,26,0,0,0,0,0,65,100,0.0,0,0.0,4.749337E-27,8.8E-44,0.0,-3.3654391E38,62,2.2782385E-4,-3.1150564E-6,6.8401513E-25,False,False,0,None,-1.1812249E-34,5.4308845E-18,
114602002,13.153,10.46510873944265,63.40467188482593,19,31.930143,31.279793,-0.042168174,0.053719655,-0.99544376,0.99778366,18.099874,-4.2039576,19.493534,26.93096,562,-210,1386,1510.0,0.10927625,0.03436837,0.009218847,0.11492376,0.11455341150722675,-0.015153440901301135,-2.7101089902280298,-2.9299852871826073,32.48995691654579,32.48995691654579,-11.127427185870545,-16.48503374062491,-9.056065608552599,16.402064715202208,12.361216070379163,13.897899452020061,10.282689043518316,13.468826904030719,64.78,8.752828356323242,,10.4651086,63.404672,20190429,120424,2019-04-29T12:04:24Z,170.072,0.59,1.1,7.22,11,8,19,0.09,0.02,0.01,0,0,0,0,5,5,10.465243816584714,63.404765165316,50,7,19,20,28,721,3716,3769,3771,0,15082,23,1,15113,0,false,false,false,false,false,false,true,false,false,false,5677,5273,4835,5165,60,76,76,60,1536,1508,1455,1484,1527,1499,1452,1480,0.0,0.0,0.0,0.0,1658.8,1655.2,1653.9,1658.2,4.27,3.38,3.18,3.37,0,0,0,0,-142.3091926796614,10.465108270129436,63.40467090384845,0,31.770758,31.43661,-0.03930592,0.048584297,-0.99202543,0.9939919,10.887157,7.543137,11.405845,17.479198,556,-219,1383,1506.0,-0.05821533,-0.019608704,0.03169307,0.06912291,0.061429034572984896,-0.016936289023468214,-3.019050793804404,-2.7716644123119574,32.8385521297454,32.83855212974538,4.572827335290745,28.34382321756961,-21.114016161434282,16.640375467672694,12.465517081065315,7103251.790641048,64.25837736855837,67.44451522907077,64.81,NONE,0.0,0.0,0.0,NONE,-1.0237804290036225E-9,-1.5677536683663362E-9,1.449585E-4,2,51.34,47.77,40.84,45.19,16.736,16.736,5.953,6.5850153,0,3493,4.149,12.0,7.172,98,23.4,OK,27,0,0,0,0,0,65,100,0.0,0,0.0,3.5997695E-27,8.8E-44,0.0,-3.3654391E38,62,2.2050366E-4,-3.0578383E-6,5.9098003E-25,False,False,0,None,-9.877973E-35,5.3380285E-18,
118505153,14.168,10.465108059864827,63.404672338021896,19,31.682268,31.2901,-0.0394583,0.054477796,-0.9891923,0.9914768,18.495628,2.6493783,17.90039,25.875305,533,-207,1402,1514.0,0.062769495,0.03121934,-0.004212426,0.07023106,0.07010461288055544,-0.010271664813902397,-2.8496379524860624,-1.7138935249558602,32.628731670925276,32.628731670925276,-13.454924274858701,-18.685506805422822,-9.099277895480219,15.607894869336906,12.337459750560502,14.003805925905663,22.707608134697406,25.89374599520981,64.83,8.504953142700195,,10.4651087,63.4046728,20190429,120425,2019-04-29T12:04:25Z,170.125,0.59,1.1,7.16,11,8,19,0.12,0.03,0.01,0,0,0,0,5,5,10.465243816584714,63.404765165316,50,7,19,20,28,721,3716,3769,3771,0,15082,23,1,15113,0,false,false,false,false,false,false,true,false,false,false,5685,5306,4845,5145,60,76,76,61,1541,1515,1462,1482,1538,1496,1451,1486,0.0,0.0,0.0,0.0,1655.8,1652.1,1652.1,1656.4,4.34,3.6,3.36,3.3,0,0,0,0,-145.85010462979739,10.465108236775857,63.40467204210042,0,31.692812,31.408556,-0.038375974,0.053516492,-0.98530096,0.98749924,-24.69637,-1.4984472,-21.598335,32.842716,533,-207,1402,1514.0,-0.007841072,0.007539383,0.009918068,0.014720488,0.010877716108075228,0.11390274910387027,-2.878563239114927,-1.5099496643462744,32.92370791012956,32.923707910129565,7.329689807049494,28.661992296495413,-16.741978427208856,15.379394421775984,12.360191238329891,7103251.945780559,-36.11142982787651,-32.92529196736411,64.81,NONE,0.0,0.0,0.0,NONE,1.033348500943473E-9,-2.998435985148183E-10,5.340576E-5,2,50.73,48.04,41.24,45.55,16.719,16.719,5.955,7.0302258,0,3491,4.177,12.0,7.223,98,23.4,OK,28,0,0,0,0,0,65,100,0.0,0,0.0,1.6357031E-26,8.8E-44,0.0,-7.246437E30,63,2.1888316E-4,-3.0452072E-6,5.425755E-25,False,False,0,None,-9.2507E-35,5.317488E-18,
122358815,15.169,10.465108786564459,63.40467330837911,19,31.937517,31.312523,-0.030262537,0.055267088,-0.98320633,0.9852233,2.4871686,-7.4936857,5.5379815,9.644199,522,-207,1408,1515.0,0.029937213,-0.0023979186,0.002622183,0.030147348,0.030033093886949837,0.08359247706514528,-2.782251558418926,-1.5074817643484646,32.51543942810288,32.515439428102866,-6.659474454136582,-14.117166870558345,-7.479537365153097,15.941688757830933,12.227406450740155,14.118184545101311,12.118655573919037,15.30479343443144,64.88,8.760202166137695,,10.4651091,63.4046735,20190429,120426,2019-04-29T12:04:26Z,170.195,0.59,1.1,7.09,11,8,19,0.06,0.01,0.0,0,0,0,0,5,5,10.465243816584714,63.404765165316,50,23,18,20,30,722,3716,3840,3852,3537,15387,23,1,15479,0,false,false,false,false,false,false,true,false,false,false,5694,5322,4812,5150,60,77,77,61,1533,1508,1447,1484,1532,1501,1447,1482,0.0,0.0,0.0,0.0,1657.6,1652.7,1652.1,1657.0,4.37,3.51,3.06,3.22,0,0,0,0,-146.0348348173,10.465108656174253,63.404672736627,0,32.082855,31.42654,-0.030370971,0.043209407,-0.9859039,0.98731756,3.603068,-3.2478876,1.8114208,5.178042,522,-207,1408,1515.0,-0.03222332,-0.013938377,0.007158488,0.035831057,0.035108699695745885,0.044767669454146494,-2.629026640003241,-1.3095470012564274,32.936497359597325,32.9364973595973,0.12843886108348945,24.259899192264612,-14.377590171002389,16.198373434733377,12.284117674450943,7103252.030970841,-48.11710464641174,-44.93096678589934,64.86,NONE,0.0,0.0,0.0,NONE,-1.2247093598822379E-9,-4.540488767621228E-10,6.866455E-5,2,51.73,48.5,40.01,44.19,16.71,16.71,5.951,7.330927,0,3489,4.174,12.0,7.258,98,23.4,OK,29,0,0,0,0,0,65,100,0.0,0,0.0,3.398255E-26,8.8E-44,0.0,-7.246437E30,63,2.2217259E-4,-3.0708768E-6,4.634496E-25,False,False,0,None,-8.4282945E-35,5.3592043E-18,
126214568,16.171,10.46510810164776,63.40467303566033,19,31.829218,31.34951,-0.030361714,0.051352482,-0.9751642,0.97698724,-0.5166863,-8.961785,-5.1621,10.355088,533,-210,1395,1508.0,-0.023380214,-0.0192547,0.004463096,0.03061531,0.03028824659345207,0.015246505201451634,-2.812416701282266,-1.8720578339944587,32.56150544067417,32.56150544067418,-9.604800506133467,-16.261625148806477,-6.978538588385049,16.184058004021946,12.271487203829814,14.16933978100269,-162.0206182357665,-158.83448037525412,64.9,8.651902910766601,,10.4651084,63.4046733,20190429,120427,2019-04-29T12:04:27Z,170.271,0.59,1.1,7.01,11,8,19,-0.03,-0.03,0.02,0,0,0,0,5,5,10.465243816584714,63.404765165316,50,34,82,20,31,733,3716,3807,3867,2864,15163,23,1,15482,0,false,false,false,false,false,false,true,false,false,false,5613,5299,4764,5177,61,76,76,61,1536,1504,1432,1498,1529,1496,1442,1495,0.0,0.0,0.0,0.0,1654.6,1652.1,1652.7,1654.6,4.62,3.52,2.82,3.36,0,0,0,0,-143.1773371163431,10.465108215736032,63.40467252387937,0,31.87425,31.436258,-0.036955368,0.04796621,-0.98633474,0.9881916,4.0390534,-0.36506614,9.597077,10.418787,536,-213,1399,1513.0,-0.061594237,-0.025615202,0.008024275,0.06718912,0.06670823573855501,-0.034521259356974976,-2.740555302145395,-1.7312672114526533,32.92450124254164,32.92450124254162,4.79092669056352,28.100033838008066,-15.917211727807878,16.474794693247595,12.315920211189841,7103252.083205613,-169.451247478472,-166.26510961795958,64.92,NONE,0.0,0.0,0.0,NONE,-2.6694836515303446E-9,-2.9127663727516343E-9,7.247925E-5,2,52.55,48.32,39.73,45.16,16.701,16.701,5.947,7.5166183,0,3487,4.168,12.0,7.228,98,23.5,OK,30,0,0,0,0,0,65,100,0.0,0,0.0,4.349148E-26,8.8E-44,0.0,-7.246437E30,63,2.2406876E-4,-3.0857198E-6,5.1078127E-25,False,False,0,None,-8.920239E-35,5.383239E-18,
130072932,17.174,10.465106597337808,63.40467232429086,19,31.640358,31.34854,-0.036006268,0.04570551,-0.99071795,0.992425,-2.598813,-7.0244517,-23.495464,24.660364,539,-199,1395,1508.0,-0.0619125,-0.057947546,0.011685125,0.0856015,0.08480020918458343,0.023823984380572177,-2.7554983541305544,-2.224824482900548,30.04251031891433,30.04251031891431,-7.44688621729406,-10.32430391481394,-9.556435248605867,15.218900236294258,12.3787629362382,14.281362403806497,-116.20223320554487,-113.01609534503247,64.93,8.463042971191406,,10.465107,63.4046727,20190429,120429,2019-04-29T12:04:29Z,170.298,0.59,1.1,6.87,11,8,19,-0.07,-0.05,0.04,0,0,0,0,5,5,10.465243816584714,63.404765165316,50,34,82,20,31,733,3716,3807,3867,2864,15163,23,1,15482,0,false,false,false,false,false,false,true,false,false,false,5548,5378,4791,5318,61,77,77,61,1537,1514,1448,1504,1525,1499,1448,1502,0.0,0.0,0.0,0.0,1654.6,1649.6,1650.8,1653.3,4.38,3.63,3.18,3.38,0,0,0,0,-139.53180307829427,10.465106684970934,63.40467203163173,0,31.978634,31.42865,-0.03728592,0.04126284,-0.99427575,0.9958299,-2.074096,-5.667975,-15.741563,16.858963,531,-210,1399,1511.0,-0.082859345,-0.042024992,0.022397272,0.095568866,0.09290732209600391,6.562576934245196E-4,-2.658079163207538,-1.8379826357823867,32.09242143173672,32.09242143173674,-1.9352236306605506,23.502690247880064,-11.833979004743234,16.61444375565608,12.403513553754522,7103252.1783247925,-118.6166420997314,-115.43050423921899,64.95,NONE,0.0,0.0,0.0,NONE,-3.4731991245904663E-9,-3.469618771154156E-9,1.0871887E-4,2,51.29,48.42,41.17,45.96,16.698,16.698,5.946,7.612425,0,3485,4.167,12.0,7.193,98,23.5,OK,31,0,0,0,0,0,65,100,0.0,0,0.0,9.322916E-26,8.8E-44,0.0,-7.246437E30,63,2.2235885E-4,-3.072332E-6,5.936432E-25,False,False,0,None,-9.933515E-35,5.3615337E-18,
133953553,18.183,10.465105316667485,63.40467168549136,19,31.169817,31.305925,-0.041735068,0.037960235,-0.9938788,0.9954787,5.410144,-13.03483,8.149109,16.29676,588,-48,1383,1503.0,-0.028021675,-0.034066636,0.020074142,0.048463605,0.044110656002228556,0.05052490625507116,-1.5770687138434927,-2.5253773800900152,12.246029045523494,12.246029045523471,-27.37650116136337,-11.395590766169835,-9.301448515683928,1.0794397681813321,12.473187977591998,14.389644050195603,-138.7922240317625,-135.6060861712501,64.92,7.992501970825195,,10.4651055,63.4046722,20190429,120430,2019-04-29T12:04:30Z,170.204,0.59,1.1,6.8,11,8,19,-0.02,-0.06,0.07,0,0,0,0,5,5,10.465243816584714,63.404765165316,50,35,19,20,33,733,3716,3780,3780,0,15123,23,1,15157,0,false,false,false,false,false,false,true,false,false,false,5487,5102,5020,5044,60,78,78,59,1519,1490,1472,1483,1513,1479,1468,1477,0.0,0.0,0.0,0.0,1656.4,1652.1,1652.7,1655.8,4.2,3.22,3.54,3.34,0,0,0,0,-142.07971131392142,10.46510543469783,63.40467140643619,0,31.127396,31.410763,-0.04191652,0.032096356,-0.9946428,0.9960429,0.5287428,-7.2686086,-1.4852283,7.437617,588,-51,1383,1503.0,-0.04162144,-0.038365692,0.015943449,0.058808707,0.05660627614343749,0.03591099704088154,-1.5563115188609777,-2.3407563934455102,12.7684515788278,12.768451578827808,-17.52373001148723,26.815992764905122,-10.596582369117852,1.4477322646813848,12.495818032941276,7103252.276851462,-136.52510534104312,-133.3389674805307,64.93,NONE,0.0,0.0,0.0,NONE,-3.970737207798315E-9,-1.8932981499472543E-9,7.43866E-5,2,49.75,45.85,42.75,44.74,16.69,16.69,5.947,7.6424046,0,3483,4.166,12.0,7.269,98,23.6,OK,32,0,0,0,0,0,65,100,0.0,0,0.0,1.5074185E-25,8.8E-44,0.0,-7.246437E30,63,2.1935254E-4,-3.048816E-6,6.7805765E-25,False,False,0,None,-1.1688234E-34,5.3233113E-18,
137812816,19.186,10.465104768600174,63.40467170890839,19,31.18759,31.256693,-0.041132927,0.034230962,-0.9939763,0.9954158,-8.885698,2.560982,-9.046879,12.936781,582,-54,1389,1506.0,-0.0057978686,0.009481232,5.46854E-4,0.0111269085,0.011113461713381578,0.016211422202843915,-1.9930164096006957,-2.296997446975864,12.122910572871081,12.122910572871092,-27.296894094369726,-11.738973047553134,-7.960321899292305,0.6168386525393229,12.486122180532313,14.437126714017245,-26.76845787699719,-23.582320016484786,64.96,8.010274645385742,,10.4651049,63.4046722,20190429,120431,2019-04-29T12:04:31Z,170.193,0.59,1.1,6.68,11,8,19,-0.01,-0.02,0.06,0,0,0,0,5,5,10.465243816584714,63.404765165316,50,40,48,20,34,733,3716,3775,3776,0,15100,23,212,5,0,false,false,false,false,false,false,true,false,false,false,5449,5184,4988,5133,61,77,78,61,1521,1497,1467,1495,1510,1491,1466,1478,0.0,0.0,0.0,0.0,1653.9,1651.5,1652.1,1653.9,4.13,3.27,3.68,3.32,0,0,0,0,-141.31290804344212,10.465104765529961,63.40467133090284,0,31.200832,31.376057,-0.040791526,0.0325468,-0.99653906,0.9979045,12.523775,-1.8016069,13.312853,18.36635,582,-54,1389,1506.0,-0.018146493,0.0028601603,0.008314695,0.02016457,0.018370511888785267,0.015880534177301286,-1.825725663625095,-2.220423351772207,12.657577533982654,12.657577533982646,-18.393901329497442,26.247520879829626,-10.422604223429099,1.0551941595327092,12.521210778647532,7103252.345150197,-67.12491023669199,-63.93877237617958,64.99,NONE,0.0,0.0,0.0,NONE,-2.966092854065307E-10,-1.1908074385572677E-9,6.866455E-5,2,49.55,45.61,42.48,45.55,16.697,16.697,5.945,7.626012,0,3481,4.164,12.0,7.065,98,23.6,OK,33,0,0,0,0,0,65,100,0.0,0,0.0,2.8563076E-25,8.8E-44,0.0,-7.246437E30,63,2.1343678E-4,-3.0026574E-6,7.067343E-25,False,False,0,None,-1.2284504E-34,5.248349E-18,
141832775,20.230,10.465104401069196,63.404672133306946,19,31.32764,31.225208,-0.030260442,0.033516888,-1.0016139,1.0026312,11.510616,-3.0155263,2.8172607,12.228027,551,-66,1402,1507.0,0.02034832,-0.023911487,-0.037206423,0.048683994,0.03139766435793681,0.01704699154501675,-1.8762539487047523,-1.1208290619223504,12.3043919425856,12.304391942585596,-24.82816542836994,-6.877910357631057,-7.148488749769117,2.1948801728719833,12.457057624997509,14.490585400067062,-24.502891527639118,-21.316753667126715,64.99,8.150325533447266,,10.4651049,63.4046726,20190429,120432,2019-04-29T12:04:32Z,170.173,0.59,1.1,6.6,11,8,19,0.04,0.0,0.04,0,0,0,0,5,5,10.465243816584714,63.404765165316,50,40,48,20,35,733,3716,3775,3776,0,15100,23,212,5,0,false,false,false,false,false,false,true,false,false,false,5573,5380,4781,5105,61,78,78,61,1528,1513,1446,1493,1515,1507,1449,1491,0.0,0.0,0.0,0.0,1653.3,1649.6,1649.6,1653.3,4.23,3.5,2.92,3.49,0,0,0,0,-154.1481374579396,10.465104623121633,63.40467175553284,0,31.364717,31.34753,-0.030774275,0.031559158,-1.0020974,1.0030664,-0.25815704,5.090346,1.4339752,5.2947664,551,-66,1402,1507.0,0.021452919,-0.0027153618,-0.018812845,0.028662242,0.021624081762898702,0.024075880591111955,-1.754862201735702,-1.041948421781003,12.819695219030931,12.819695219030905,-21.900634378051386,21.100589857925815,-8.311622257300268,2.510463100298768,12.485825195121588,7103252.408337823,-14.66233878333032,-11.476200922817917,65.0,NONE,0.0,0.0,0.0,NONE,1.1003247903934586E-9,1.0880039250764517E-9,-5.722046E-5,2,51.06,48.39,39.89,45.97,16.692,16.692,5.934,7.576214,0,3479,4.162,12.0,7.149,98,23.6,OK,34,0,0,0,0,0,65,100,0.0,0,0.0,6.472446E-25,8.8E-44,0.0,-7.246437E30,63,2.0759925E-4,-2.9570226E-6,6.7747705E-25,False,False,0,None,-1.1676185E-34,5.1742335E-18,
145783934,21.257,10.465105097094204,63.40467224976023,19,31.232628,31.224033,-0.025075126,0.024825238,-0.99775773,0.9983815,-7.288325,-7.80532,-13.620986,17.308205,548,-57,1399,1503.0,-0.031612147,-0.014235059,-0.03317048,0.047981724,0.034669363974313326,0.0013511541301340427,-1.9393660113783544,-1.1623319051647487,12.105340666191887,12.105340666191864,-30.7610095009601,-10.466476147444336,-8.133351938702416,1.0611859962205095,12.427019581098074,14.545725288362119,147.05032113899478,150.23645899950716,64.98,8.055312868652344,,10.4651053,63.4046726,20190429,120433,2019-04-29T12:04:33Z,170.149,0.59,1.1,6.59,11,8,19,-0.01,-0.01,0.02,0,0,0,0,5,5,10.465243816584714,63.404765165316,50,40,48,20,36,733,3716,3775,3776,0,15100,23,212,5,0,false,false,false,false,false,false,true,false,false,false,5654,5368,4857,5049,61,77,78,61,1542,1514,1458,1483,1536,1501,1444,1483,0.0,0.0,0.0,0.0,1652.7,1650.2,1650.2,1653.3,4.42,3.53,3.26,3.18,0,0,0,0,-156.81380312222018,10.46510520796784,63.404671833396314,0,31.198368,31.340303,-0.025740568,0.039759345,-0.9972803,0.99840444,3.1546807,6.2409554,6.610271,9.622745,548,-57,1399,1503.0,-0.02987082,-0.008982729,-0.020875689,0.037533313,0.031192231613745295,-0.0016135509752634655,-1.8803849817284122,-1.1256203524816537,12.60962448010574,12.609624480105765,-18.008067458419134,21.91923605938266,-7.40740314015206,1.2179699472835774,12.462480942962225,7103252.472261035,117.43797395240448,120.62411181291688,65.01,NONE,0.0,0.0,0.0,NONE,5.453783787870011E-10,-7.281916040167191E-10,-1.1253357E-4,2,51.96,49.1,41.37,43.8,16.673,16.673,5.936,7.5110207,0,3477,4.162,12.0,7.286,98,23.7,OK,35,0,0,0,0,0,65,100,0.0,0,0.0,2.969525E-25,8.8E-44,0.0,-7.246437E30,63,2.0593405E-4,-2.943984E-6,6.6484265E-25,False,False,0,None,-1.1413462E-34,5.1530577E-18,
149638189,22.259,10.465104924757547,63.40467158495774,19,31.458609,31.215357,-0.030431394,0.030179959,-0.99942833,1.0003469,10.104628,8.061457,15.509172,20.189726,554,-40,1399,1505.0,-0.07893267,-0.041755725,-0.03092964,0.094501585,0.08929673854854167,-0.015004493080210499,-1.2814533275846036,-1.3269041198513536,12.183700039833049,12.18370003983307,-33.72613757767875,-10.761281943402546,-6.502626013087691,0.9562088836823138,12.493291742330468,14.624324875486824,-158.18597666093086,-154.99983880041847,65.01,8.281293627319336,,10.4651049,63.404672,20190429,120434,2019-04-29T12:04:34Z,170.145,0.59,1.1,6.58,11,8,19,-0.07,-0.05,-0.01,0,0,0,0,5,5,10.465243816584714,63.404765165316,50,40,48,20,37,733,3716,3775,3776,0,15100,23,212,5,0,false,false,false,false,false,false,true,false,false,false,5539,5310,4883,5090,61,76,77,61,1524,1517,1475,1479,1521,1510,1458,1469,0.0,0.0,0.0,0.0,1652.1,1647.8,1649.6,1652.1,4.09,3.42,3.5,3.33,0,0,0,0,-153.53969418980125,10.465104866241415,63.40467115121443,0,31.50097,31.336454,-0.029337578,0.023435827,-0.99326926,0.99397874,-13.021348,-2.4064245,-14.742796,19.816568,554,-40,1399,1505.0,-0.062045824,-0.027034173,-0.027814703,0.07317232,0.06767961882022251,0.009927411694522326,-1.1956704805490348,-1.3062577844786978,12.708317222188512,12.708317222188498,-17.352526039285703,21.269443205216238,-7.910054401308076,1.185210099521692,12.535098162402113,7103252.565281578,-174.0835910240898,-170.8974531635774,65.01,NONE,0.0,0.0,0.0,NONE,-3.0330691605708747E-9,-2.3644809753730663E-9,-1.4686584E-4,2,50.36,46.92,42.25,44.82,16.673,16.673,5.942,7.4472346,0,3475,4.157,12.0,7.229,97,23.7,OK,36,0,0,0,0,0,65,100,0.0,0,0.0,1.8797924E-25,8.8E-44,0.0,-7.246437E30,63,2.054125E-4,-2.9399678E-6,7.3075356E-25,False,False,0,None,-1.2783795E-34,5.146493E-18,
153500262,23.263,10.465104320785114,63.40467051352627,19,31.048826,31.201002,-0.03339294,0.01383444,-0.9930081,0.9936657,4.492434,2.1839397,2.5552793,5.6107936,579,-25,1389,1505.0,-0.08037556,-0.051187374,-0.021863876,0.09776711,0.09529101919223329,0.02712467029453619,-0.6476812843428691,-2.398610479571777,12.09163626058385,12.091636260583869,-34.47807247324965,-10.28284861599344,-6.763638520782831,1.023605486847344,12.60922714625535,14.752051686846976,-165.38409446596876,-162.19795660545634,65.03,7.871511217651367,,10.4651045,63.404671,20190429,120435,2019-04-29T12:04:35Z,170.215,0.59,1.1,6.53,11,8,19,-0.09,-0.06,-0.01,0,0,0,0,5,5,10.465243816584714,63.404765165316,50,41,16,20,38,733,3716,3774,3774,0,15097,23,1,17510,0,false,false,false,false,false,false,true,false,false,false,5382,5247,4987,4990,60,78,78,61,1514,1509,1466,1478,1507,1491,1461,1475,0.0,0.0,0.0,0.0,1654.6,1648.4,1649.6,1652.7,4.0,3.48,3.68,3.08,0,0,0,0,-168.04935273315385,10.46510433977837,63.40467007628819,0,31.11227,31.345142,-0.035045367,0.012600773,-0.99334544,0.9940433,-0.6737016,-6.2224894,-2.2341695,6.645657,579,-25,1389,1505.0,-0.05620954,-0.047107242,-0.028860554,0.0788133,0.07333897235825079,0.048571409969725005,-0.5255649952614863,-2.4325908033577344,12.674826706451883,12.674826706451881,-16.752453984103305,22.603410417896146,-9.139806661260742,1.3516503214960307,12.649318025653665,7103252.690901759,-167.06385074419296,-163.87771288368054,64.99,NONE,0.0,0.0,0.0,NONE,-4.181233956930905E-9,-2.3045122514905627E-9,-1.3542175E-4,2,49.51,47.47,41.88,44.03,16.674,16.674,5.938,7.388432,0,3473,4.156,12.0,7.154,97,23.7,OK,37,0,0,0,0,0,65,100,0.0,0,0.0,4.8923576E-26,8.8E-44,0.0,-7.246437E30,63,2.0720065E-4,-2.9539376E-6,8.664662E-25,False,False,0,None,-1.5196791E-34,5.169257E-18,
157377627,24.270,10.46510405117182,63.404669662221345,19,31.404495,31.191986,-0.030838752,0.020026088,-0.9895647,0.99024767,4.344147,-5.114051,2.4420547,7.1406417,568,-25,1386,1498.0,-0.04028724,0.0011842977,-0.018132547,0.04419563,0.04030464497588196,0.05457141423387879,-0.6579867363399445,-2.144457574063316,12.12350421884768,12.1235042188477,-33.8003859393362,-10.10609955780287,-7.640024690433007,1.0088508877952913,12.695697067343156,14.852372224092543,166.524480382256,169.7106182427684,65.06,8.227180239257812,,10.465104,63.4046701,20190429,120436,2019-04-29T12:04:36Z,170.264,0.59,1.1,6.46,11,8,19,-0.04,-0.01,-0.03,0,0,0,0,5,5,10.465243816584714,63.404765165316,50,43,18,20,39,733,3716,3776,3777,533,15112,23,1,15201,0,false,false,false,false,false,false,true,false,false,false,5417,5239,4916,5044,59,79,78,60,1510,1501,1465,1491,1507,1494,1462,1477,0.0,0.0,0.0,0.0,1652.1,1648.4,1649.6,1652.1,4.04,3.34,3.5,3.28,0,0,0,0,-156.26706019592802,10.4651041150768,63.404669197215895,0,30.875942,31.353668,-0.03294199,0.01756053,-0.9921922,0.99289423,18.969088,3.293293,19.258905,27.23192,568,-25,1386,1498.0,-0.023938224,0.0055558123,-0.02883499,0.037886176,0.02457449059335273,0.07305908703770055,-0.5402844662565729,-2.179444481574825,12.751836837823376,12.751836837823362,-17.583164618296422,22.601173797314328,-8.384073390775653,1.327286914917288,12.737241704867598,7103252.7942437995,158.0737670732094,161.2599049337218,65.0,NONE,0.0,0.0,0.0,NONE,-1.9136081673006943E-11,-1.225075284947401E-9,-1.4305115E-4,2,49.08,47.13,41.83,44.39,16.67,16.67,5.939,7.331946,0,3471,4.158,12.0,7.082,97,23.8,OK,38,0,0,0,0,0,65,100,0.0,0,0.0,1.5298774E-26,8.8E-44,0.0,-3.3654391E38,63,2.0876154E-4,-2.966103E-6,1.0641737E-24,False,False,0,None,-1.7251555E-34,5.1889507E-18,
161236764,25.273,10.465104466714422,63.404669278117005,19,31.133024,31.184483,-0.03210164,0.027395986,-0.9990577,0.9999487,10.51234,7.015805,15.961744,20.359472,571,-19,1389,1501.0,-0.011250869,0.021747313,-0.018623471,0.03076299,0.024485255390496112,0.02283028268579313,-0.47047824887243017,-2.007940895369885,12.159984259552624,12.15998425955263,-32.46308623475854,-8.617190433904033,-6.980572711135991,0.8334942444289969,12.720151492024945,14.917080598434255,138.33931853828324,141.52545639879565,65.02,7.955709215698242,,10.4651045,63.4046697,20190429,120437,2019-04-29T12:04:37Z,170.329,0.59,1.1,6.41,11,8,19,-0.01,0.0,-0.02,0,0,0,0,5,5,10.465243816584714,63.404765165316,50,44,19,20,40,733,3716,3772,3774,0,15107,23,1,15101,0,false,false,false,false,false,false,true,false,false,false,5445,5290,4857,5122,61,77,78,62,1520,1509,1457,1485,1511,1504,1457,1472,0.0,0.0,0.0,0.0,1649.0,1646.6,1647.8,1650.2,4.13,3.36,3.39,3.32,0,0,0,0,-150.94539590092285,10.465104460295501,63.404668696367224,0,31.162111,31.361279,-0.03210154,0.014324696,-0.9981269,0.99874574,-6.3631454,-6.6624026,-11.312028,14.589009,571,-19,1389,1501.0,0.0020910418,0.02602791,-0.023546979,0.035160843,0.026111770807677213,0.031998507940857235,-0.350518400670395,-2.044290144195852,12.84055658044661,12.840556580446616,-19.10327343142314,21.16329804987684,-8.193933811621351,1.1546121010133656,12.774595633553776,7103252.862346997,152.23725628770404,155.42339414821643,65.05,NONE,0.0,0.0,0.0,NONE,2.0858328584128885E-9,8.566960021754444E-11,-1.1253357E-4,2,49.47,46.77,41.26,45.71,16.666,16.666,5.929,7.276683,1716,3469,4.158,12.0,7.062,97,23.8,OK,39,0,0,0,0,0,65,100,0.0,0,0.0,4.725277E-27,8.8E-44,0.0,-3.3654391E38,63,2.1008775E-4,-2.976464E-6,1.1056741E-24,False,False,0,None,-1.7682962E-34,5.2057855E-18,
165237714,26.313,10.465105330301714,63.404669172131356,19,31.133335,31.183346,-0.038110986,0.0075768875,-0.9882079,0.98897153,-4.684627,0.33004156,0.9345274,4.7883186,556,-34,1386,1493.0,0.012967935,0.013195269,-0.015418519,0.024083463,0.01850087745460751,0.02436756772650743,-1.2890237403235536,-2.0808629711613964,11.894700539303324,11.894700539303301,-30.284625368231197,-7.390105532712271,-5.64794162606638,0.31887585733826823,12.706656559599542,14.966562627024937,53.29540031648916,56.48153817700156,65.03,7.9560201135253905,,10.4651052,63.4046695,20190429,120438,2019-04-29T12:04:38Z,170.342,0.59,1.1,6.36,11,8,19,-0.01,0.03,-0.03,0,0,0,0,5,5,10.465243816584714,63.404765165316,50,3217,16,20,41,733,3716,3764,3765,0,15058,24,1,17520,0,false,false,false,false,false,false,true,false,false,false,5431,5204,4983,4867,62,78,78,61,1514,1511,1484,1465,1511,1495,1472,1459,0.0,0.0,0.0,0.0,1649.0,1644.7,1645.9,1650.8,4.0,3.48,3.89,2.82,0,0,0,0,-171.95166110017124,10.465105114480128,63.404668728638335,0,31.13333,31.373377,-0.037724912,0.008896482,-0.9857083,0.98647004,-0.09145933,3.5485218,-4.19418,5.494681,556,-34,1386,1493.0,0.009659944,0.016210996,-0.0209025,0.028160706,0.018870901377551572,0.012636876697843798,-1.1919651287106952,-2.0321294540187003,12.59153501286934,12.591535012869315,-21.701791040851177,19.267906480673826,-9.043834133293608,0.5837847463237716,12.753923125393145,7103252.928876228,-25.43815165969618,-22.25201379918378,65.03,NONE,0.0,0.0,0.0,NONE,2.9947967123783457E-9,3.940801604500053E-10,-9.346008E-5,2,48.42,47.6,44.6,41.76,16.668,16.668,5.935,7.2251973,1727,3467,4.158,12.0,7.102,97,23.9,OK,40,0,0,0,0,0,65,100,0.0,0,0.0,2.2662002E-27,8.8E-44,0.0,-3.3654391E38,63,2.1231174E-4,-2.993868E-6,1.0636435E-24,False,False,0,None,-1.7245971E-34,5.2340552E-18,
169206781,27.345,10.465105394750955,63.40466932533536,19,31.197296,31.18111,-0.033548176,0.010268395,-1.0040723,1.004685,-8.736062,-7.4431543,-11.522254,16.262894,556,-25,1383,1490.0,0.0072507896,0.02744836,-0.012202193,0.030901132,0.028389900723536664,-0.011584985448185193,-1.1908060343800446,-1.890238180372067,11.966341286017785,11.96634128601778,-30.52630524307416,-8.131590141680045,-4.460793973688083,-0.4208761993836587,12.690607282716005,15.003232493432092,93.34226808691645,96.52840594742885,64.98,8.019981142578125,,10.4651055,63.4046697,20190429,120439,2019-04-29T12:04:39Z,170.345,0.59,1.1,6.34,11,8,19,0.01,0.01,-0.03,0,0,0,0,5,5,10.465243816584714,63.404765165316,50,3217,18,20,42,736,3722,3836,3846,3564,15366,24,1,15459,0,false,false,false,false,false,false,true,false,false,false,5386,5255,4991,4996,62,78,78,61,1512,1503,1476,1478,1505,1495,1471,1471,0.0,0.0,0.0,0.0,1650.2,1645.3,1646.6,1650.2,3.9,3.39,3.81,2.96,0,0,0,0,-168.25270365845904,10.465105400664994,63.40466890165317,0,31.210527,31.385643,-0.03430616,0.0155195305,-1.007055,1.0077587,-1.6968666,5.342251,8.938697,10.5507965,556,-25,1383,1490.0,0.008976999,0.026801059,-0.022706164,0.036255386,0.028264523095493318,-0.00505754809370576,-1.1386302045982233,-1.865800271624673,12.725151348292808,12.725151348292798,-20.849960878823605,19.923659148691172,-9.389553976852023,-0.2790634206051946,12.730035314094325,7103252.995578781,23.13251737622396,26.31865523673636,65.01,NONE,0.0,0.0,0.0,NONE,2.8895482806569084E-9,3.598123195384579E-10,-1.0681152E-4,2,48.19,47.66,43.71,43.08,16.657,16.657,5.931,7.181657,1736,3465,4.156,12.0,7.111,97,23.9,OK,41,0,0,0,0,0,65,100,0.0,0,0.0,2.1520125E-27,8.8E-44,0.0,-3.3654391E38,63,2.1458045E-4,-3.0115632E-6,1.0147468E-24,False,False,0,None,-1.6737864E-34,5.2628543E-18,
173062115,28.347,10.465106389877462,63.40466938865578,19,31.887392,31.673891,-0.030053213,0.019147806,-0.99339825,0.99403715,-9.395262,-3.1519442,-9.647084,13.83011,559,-40,1383,1492.0,0.011162272,0.01914736,-1.0013815,1.0016267,0.022163431820856682,0.027773190544002926,-1.467855915869084,-2.089225666554413,12.054889020778482,12.05488902077849,-31.008569364597907,-9.122676223378987,-2.6688770218176012,0.5140790295926715,12.657853275499168,15.070893450568109,114.32106331444446,117.50720117495686,64.98,8.710077044067383,,10.4651064,63.4046696,20190429,120440,2019-04-29T12:04:40Z,170.611,0.59,1.1,6.31,11,8,19,-0.1,0.05,-0.45,0,0,0,10000,5,5,10.465243816584714,63.404765165316,50,7097,19,99,43,3681,3736,4380,4384,0,17549,29,1,17538,0,false,false,false,false,false,false,true,false,false,false,5558,5379,4905,5136,61,79,79,61,1533,1517,1458,1494,1531,1514,1452,1482,0.0,0.0,0.0,0.0,1647.2,1642.3,1643.5,1647.2,4.24,3.58,3.32,3.2,0,0,0,0,-155.41167517526532,10.465106306800607,63.404668846328875,0,32.01421,31.882442,-0.031381685,0.022355828,-0.9939247,0.9946712,11.130567,-3.4946,8.326757,14.333061,559,-40,1383,1492.0,0.016641716,0.02725613,-1.0062131,1.0067197,0.03193498507802213,0.013500251911604588,-1.3535263862316302,-2.082561202221887,12.854049609778787,12.85404960977877,-20.41712578910231,20.78414038317598,-11.23230670969452,0.8250368082317312,12.710859497238209,7103253.072182532,-68.6691487671813,-65.4830109066689,65.0,NONE,0.0,0.0,0.0,NONE,3.071340907745003E-9,2.91276626546262E-10,-0.004682541,2,50.94,49.11,42.64,45.97,16.607,16.607,5.918,7.161893,1740,3463,4.152,12.0,7.809,97,23.9,OK,42,0,0,0,0,0,65,100,0.0,0,0.0,6.8115674E-28,8.8E-44,0.0,-3.3654391E38,63,3.5669655E-4,-3.6821737E-6,9.377792E-25,False,False,0,None,-1.593794E-34,6.351927E-18,
176911247,29.347,10.465107156111575,63.40466993430177,19,32.71768,32.586483,-0.03371008,0.020401299,-0.8102835,0.811241,1.4441241,11.859562,-6.755668,13.724933,646,-40,1356,1502.0,0.20950617,0.06226148,-0.43976778,0.49108556,0.2185619516673967,-0.14692171086154643,-1.5051188146652241,-4.970073174041815,11.898939995388274,11.898939995388275,-35.115821231793,-12.8461052579176,-4.631132187904686,0.4758704373231648,12.58618980174842,15.192011068282072,10.690273757638527,13.87641161815093,64.96,9.540366884765625,,10.4651075,63.4046702,20190429,120441,2019-04-29T12:04:41Z,171.646,0.59,1.1,6.27,11,8,19,0.16,0.11,-0.76,0,5810,0,3124,5,5,10.465243816584714,63.404765165316,50,7106,48,99,44,3681,3736,4378,4382,0,17495,29,212,3,0,false,false,false,false,false,false,true,false,false,false,4893,4741,4353,4526,62,80,80,62,1437,1427,1391,1418,1437,1418,1394,1415,0.0,0.0,0.0,0.0,1668.7,1663.7,1663.1,1667.4,2.64,1.88,1.93,1.92,0,0,0,0,-156.70988275987125,10.46510715654317,63.40466945968535,0,32.788734,32.796932,-0.034727234,0.022221513,-0.80378467,0.80484134,5.4694643,-1.0324582,5.5106544,7.8325167,646,-40,1356,1502.0,0.24518582,0.047845222,-0.44105265,0.5068853,0.2498104300595732,-0.1695852724146696,-1.4271474635683916,-4.917484755785812,12.73334174886631,12.733341748866337,-16.0178256003486,24.219964012041373,-16.375910559492063,0.6752667045581753,12.630611889101116,7103253.197468799,1.756066577690178,4.942204438202581,64.98,NONE,0.0,0.0,0.0,NONE,4.602226629196834E-9,1.0648728921127964E-8,-0.0023956299,2,44.65,42.17,39.26,40.57,16.606,16.606,5.96,7.182725,1734,3461,4.126,12.0,7.587,97,23.9,OK,43,0,0,0,0,0,65,100,0.0,0,0.0,6.585263E-28,8.8E-44,0.0,-3.3654391E38,63,9.083003E-4,-6.218355E-6,7.69616E-25,False,False,0,None,-1.3591653E-34,1.0099228E-17,
180760968,30.348,10.465109001229418,63.404671730286594,19,32.771023,32.67142,-0.036012623,0.03678023,-1.3008697,1.3018878,-2.323383,0.1375425,-0.06912493,2.3284771,513,-54,1414,1505.0,0.17071003,0.058847573,-0.39366907,0.4331054,0.18056841199801718,0.039130683817006906,-1.6021706487842233,0.07151840056805316,11.819830281462586,11.8198302814626,-34.83060644450503,-11.416605539712975,-2.468665960497032,1.6072772760352876,12.368562837294188,15.438287540811046,27.12958674629881,30.315724606811212,64.97,9.59370779663086,,10.4651092,63.4046723,20190429,120442,2019-04-29T12:04:42Z,171.719,0.59,1.1,6.25,11,8,19,0.17,0.1,-0.24,0,0,0,9940,5,5,10.465243816584714,63.404765165316,50,7106,48,99,45,3681,3736,4378,4382,0,17495,29,212,3,0,false,false,false,false,false,false,true,false,false,false,6351,6025,5671,5795,63,79,79,61,1615,1596,1545,1559,1607,1573,1531,1547,0.0,0.0,0.0,0.0,1627.6,1620.8,1623.9,1627.6,5.66,4.76,4.6,4.28,0,0,0,0,-153.68735150521115,10.46510897826748,63.4046713154485,0,32.612602,32.87232,-0.0363186,0.031270005,-1.3045292,1.3054092,6.5194693,-5.5801253,1.6621641,8.740942,513,-54,1414,1505.0,0.13674513,0.059472963,-0.41258517,0.4387058,0.14911828029054475,0.07616284017926511,-1.5266755807632015,0.13394855802782524,12.728145693223915,12.728145693223894,-17.15844796165951,23.170812293264085,-11.770702010716537,1.809195538357402,12.407953513258333,7103253.478109685,25.26907736855567,28.455215229068074,64.99,NONE,0.0,0.0,0.0,NONE,7.683135446675905E-9,9.483622534109788E-9,9.536743E-5,2,55.38,52.18,46.98,48.05,16.618,16.618,5.872,7.2116523,1725,3457,4.152,12.0,6.523,97,24.0,OK,44,0,0,0,0,0,65,100,0.0,0,0.0,1.9227498E-27,8.8E-44,0.0,-3.3654391E38,63,9.661317E-4,-6.4442006E-6,5.412755E-25,False,False,0,None,-9.2371815E-35,1.0465993E-17,
