Tick#,offsetTime,IMU_ATTI(0):Longitude,IMU_ATTI(0):Latitude,IMU_ATTI(0):numSats,IMU_ATTI(0):barometer:Raw,IMU_ATTI(0):barometer:Smooth,IMU_ATTI(0):accel:X,IMU_ATTI(0):accel:Y,IMU_ATTI(0):accel:Z,IMU_ATTI(0):accel:Composite,IMU_ATTI(0):gyro:X,IMU_ATTI(0):gyro:Y,IMU_ATTI(0):gyro:Z,IMU_ATTI(0):gyro:Composite,IMU_ATTI(0):mag:X,IMU_ATTI(0):mag:Y,IMU_ATTI(0):mag:Z,IMU_ATTI(0):mag:Mod,IMU_ATTI(0):velN,IMU_ATTI(0):velE,IMU_ATTI(0):velD,IMU_ATTI(0):velComposite,IMU_ATTI(0):velH,IMU_ATTI(0):GPS-H,IMU_ATTI(0):roll,IMU_ATTI(0):pitch,IMU_ATTI(0):yaw,IMU_ATTI(0):yaw360,IMU_ATTI(0):totalGyro:Z,IMU_ATTI(0):totalGyro:X,IMU_ATTI(0):totalGyro:Y,IMU_ATTI(0):magYaw,IMU_ATTI(0):distanceHP,IMU_ATTI(0):distanceTravelled,IMU_ATTI(0):directionOfTravel[mag],IMU_ATTI(0):directionOfTravel[true],IMU_ATTI(0):temperature,General:relativeHeight,General:absoluteHeight,GPS(0):Long,GPS(0):Lat,GPS(0):Date,GPS(0):Time,GPS:dateTimeStamp,GPS(0):heightMSL,GPS(0):hDOP,GPS(0):pDOP,GPS(0):sAcc,GPS(0):numGPS,GPS(0):numGLNAS,GPS(0):numSV,GPS(0):velN,GPS(0):velE,GPS(0):velD,RC:Aileron,RC:Elevator,RC:Rudder,RC:Throttle,Controller:navHealth,Controller:ctrl_level,HP:Longitude,HP:Latitude,HP:rthHeight,BatBlackBox:tick,BatBlackBox:id,BatBlackBox:rsoc,BatBlackBox:index,BatBlackBox:rm,BatBlackBox:fcc,BatBlackBox:cell_min,BatBlackBox:cell_max,BatBlackBox:current,BatBlackBox:voltage,BatBlackBox:temp,BatBlackBox:flag,BatBlackBox:reserve,BatBlackBox:user_data,OA:avoidObst,OA:emergBrake,OA:radiusLimit,OA:airportLimit,OA:groundForceLanding,OA:horizNearBoundary,OA:vertLowLimit,OA:vertAirportLimit,OA:roofLimit,OA:hitGroundLimit,Motor:Speed:RFront,Motor:Speed:LFront,Motor:Speed:LBack,Motor:Speed:RBack,Motor:EscTemp:RFront,Motor:EscTemp:LFront,Motor:EscTemp:LBack,Motor:EscTemp:RBack,Motor:PPMrecv:RFront,Motor:PPMrecv:LFront,Motor:PPMrecv:LBack,Motor:PPMrecv:RBack,Motor:PPMsend:RFront,Motor:PPMsend:LFront,Motor:PPMsend:LBack,Motor:PPMsend:RBack,Motor:V_out:RFront,Motor:V_out:LFront,Motor:V_out:LBack,Motor:V_out:RBack,Motor:Volts:RFront,Motor:Volts:LFront,Motor:Volts:LBack,Motor:Volts:RBack,Motor:Current:RFront,Motor:Current:LFront,Motor:Current:LBack,Motor:Current:RBack,Motor:Status:RFront,Motor:Status:LFront,Motor:Status:LBack,Motor:Status:RBack,Motor:thrustAngle,IMU_ATTI(1):Longitude,IMU_ATTI(1):Latitude,IMU_ATTI(1):numSats,IMU_ATTI(1):barometer:Raw,IMU_ATTI(1):barometer:Smooth,IMU_ATTI(1):accel:X,IMU_ATTI(1):accel:Y,IMU_ATTI(1):accel:Z,IMU_ATTI(1):accel:Composite,IMU_ATTI(1):gyro:X,IMU_ATTI(1):gyro:Y,IMU_ATTI(1):gyro:Z,IMU_ATTI(1):gyro:Composite,IMU_ATTI(1):mag:X,IMU_ATTI(1):mag:Y,IMU_ATTI(1):mag:Z,IMU_ATTI(1):mag:Mod,IMU_ATTI(1):velN,IMU_ATTI(1):velE,IMU_ATTI(1):velD,IMU_ATTI(1):velComposite,IMU_ATTI(1):velH,IMU_ATTI(1):GPS-H,IMU_ATTI(1):roll,IMU_ATTI(1):pitch,IMU_ATTI(1):yaw,IMU_ATTI(1):yaw360,IMU_ATTI(1):totalGyro:Z,IMU_ATTI(1):totalGyro:X,IMU_ATTI(1):totalGyro:Y,IMU_ATTI(1):magYaw,IMU_ATTI(1):distanceHP,IMU_ATTI(1):distanceTravelled,IMU_ATTI(1):directionOfTravel[mag],IMU_ATTI(1):directionOfTravel[true],IMU_ATTI(1):temperature,IMUEX(0):err,IMUEX(0):rtk_Longitude,IMUEX(0):rtk_Latitude,IMUEX(0):rtk_Alti,IMUEX(1):err,IMUEX(1):rtk_Longitude,IMUEX(1):rtk_Latitude,IMUEX(1):rtk_Alti,MotorCtrl:Status,MotorCtrl:PWM:RFront,MotorCtrl:PWM:LFront,MotorCtrl:PWM:LBack,MotorCtrl:PWM:RBack,BattInfo:Voltage,BattInfo:BatVoltage,BattInfo:AdVoltage,BattInfo:AvgCurrent,BattInfo:R_time,BattInfo:R_CAP_MAH,BattInfo:LowCellVoltage,BattInfo:LowCellVolThreshold,BattInfo:BatCurrent,BattInfo:Remaining%,BattInfo:Temp,BattInfo:status,battery_info:BatDynCnt,battery_info:Vol1Protect,battery_info:Vol2Protect,battery_info:Cap1Protect,battery_info:Cap2Protect,battery_info:Batpresent,battery_info:sopPercentage,battery_info:sopValue,battery_info:sopScale,battery_info:sopFlg,BattInfo:WindHeading:WindDir,battery_info:home_dir,BattInfo:Wind:rangeMin,BattInfo:Wind:rangeMax,battery_info:cap_speed,battery_info:against_wind,battery_info:emergency_land_cap,battery_info:intel_bat_land_cap,battery_info:intel_bat_gh_cap,BattInfo:Smart:SmartGh,BattInfo:Smart:SmartLand,BattInfo:GoHome:CntDown,BattInfo:GoHome:GhCmd,BattInfo:GoHome:CapLevel,BattInfo:GoHome:LandCapLv,Attribute|Value,ConvertDatV3,3.6.6-Tablet
823630376,.000,14.090026600501835,66.3386670576439,18,-75.903275,-76.36756,0.049356837,0.0035183327,-0.9881031,0.9893413,0.27731827,-0.16676925,-0.0380525,0.3258303,-225,-99,1481,1501.0,-0.008791321,0.0044782776,-0.008424242,0.012973441,0.009866219837614583,-0.009866219837614583,-0.23434384247515858,2.820127670740656,150.23675658995415,150.23675658995415,-639.4525845222136,-415.1177324762987,-144.03886349791688,148.5293977315998,0.2174917594764264,15.447474815314484,-51.22718799108578,-45.90728995389564,65.01,-1.108680536132809,,14.0900272,66.3386665,20190515,115445,2019-05-15T11:54:45Z,98.297,0.62,1.12,7.24,9,9,18,-0.02,0.0,0.01,-9909,-9880,9800,-9927,5,5,14.09002646328373,66.33866901281888,30,,,,,,,,,,,,,,,false,false,false,false,false,false,false,false,false,false,0,0,0,0,51,65,65,51,944,945,944,944,940,940,940,940,0.0,0.0,0.0,0.0,1710.3,1706.1,1706.1,1709.7,0.0,0.0,0.0,0.0,0,0,0,0,-45.0,14.090026381967155,66.3386663284571,0,-76.15694,-75.06395,0.04942958,0.0036543477,-0.98964924,0.9908896,0.33531186,-0.089614406,-0.1870093,0.3942553,-225,-99,1484,1504.0,-0.0013847044,0.001099589,0.001608624,0.0023904338,0.0017681918465775111,-0.0017681918465775111,-0.16236272026939605,2.5066464749506805,165.9456050171379,165.94560501713795,-640.1724397071386,-430.51135554745906,-127.15278174556869,149.33427015645918,0.2985094700285804,14.482682720103131,164.9673416337001,170.28723967089024,65.02,NONE,0.0,0.0,0.0,NONE,-3.468853867900581E-11,-1.0708878714335423E-11,0.0,,,,,,17.203,17.203,6.149,1.2580996,0,3475,4.294,12.0,1.276,97,25.6,OK,205,0,0,0,0,0,65,100,0.0,0,0.0,-1.490405E-13,8.4E-44,0.0,-5.9807744E7,62,1.9073559E-7,-1.9073654E-7,1.8977845E-34,False,False,0,None,3.0491527E29,1.0842106E-19,Firmware Date| Oct 17 2018
827484068,1.002,14.090026800564747,66.33866665383518,18,-76.136856,-76.38614,0.051705774,-0.0060771564,-0.9875125,0.9888839,-0.22887534,-0.015678177,-0.17591955,0.28909758,-223,-107,1468,1488.0,-0.011639929,0.013691789,0.00848756,0.019874398,0.017970894278728673,0.027738395752033844,-0.22993096537735738,2.827732265782554,150.21209044441906,150.21209044441906,-638.4847130335901,-415.5266209521887,-143.71482510690083,146.0686237770233,0.26273849892864076,15.519725021605783,-68.06463053769883,-62.7447325005087,64.95,-0.8376310791015555,,14.0900268,66.3386664,20190515,115446,2019-05-15T11:54:46Z,98.256,0.62,1.12,7.25,9,9,18,0.0,-0.01,0.0,0,0,0,0,5,5,14.09002646328373,66.33866901281888,30,,,,,,,,,,,,,,,false,false,false,false,false,false,false,false,false,false,545,547,525,546,56,71,71,55,1331,1340,1336,1334,1322,1322,1322,1322,0.1,0.1,0.1,0.1,1682.1,1677.3,1676.6,1682.8,7.98,7.48,8.04,7.69,0,0,0,0,-137.86240522611178,14.090026193262421,66.33866608287113,0,-76.136856,-75.069145,0.042078886,0.008906224,-0.9969166,0.99784404,-0.68734175,0.78600496,1.2044021,1.5939971,-223,-107,1468,1488.0,0.0064766374,0.005264234,0.006716981,0.010713395,0.00834619627663815,0.020186233465830553,-0.19103915185884798,2.5259458701910993,165.94876222207682,165.94876222207677,-640.8339942093896,-429.95853968866066,-127.02316519060291,147.1398087195829,0.32601808909806546,14.5395516934138,-166.22859258058045,-160.9086945433903,64.94,NONE,0.0,0.0,0.0,NONE,7.2045425399829E-10,3.4589678270515315E-10,4.5776367E-5,1,22.5,22.5,22.5,22.5,17.125,17.125,6.046,1.2968806,0,3474,4.293,12.0,2.969,97,25.6,OK,206,0,0,0,0,0,65,100,0.0,0,0.0,-4.2172614E-6,8.4E-44,0.0,-5.9807744E7,62,1.9073559E-7,-1.9073654E-7,1.9956521E-34,False,False,0,None,3.2970792E29,1.0842106E-19,ACType|MavicEnterprise
831463842,2.036,14.090025905679212,66.33866637322099,18,-76.136856,-76.39141,0.04639824,-3.233105E-4,-0.9940403,0.9951226,-1.9078643,-1.631469,1.9720432,3.1922705,-220,-102,1478,1497.0,-0.029849418,0.025812626,0.0084168855,0.04035001,0.03946237927666977,0.009535376335191532,-0.21905904443290683,2.8217650822360905,150.24522431803476,150.24522431803473,-637.1416306555845,-415.63905195644907,-143.3922905807672,146.7496556986142,0.29456281055231215,15.574011765727173,-102.26575970324687,-96.94586166605674,65.0,-0.8376310791015555,,14.0900264,66.3386661,20190515,115446,2019-05-15T11:54:46Z,98.208,0.61,1.12,7.31,9,9,18,-0.02,-0.01,0.0,0,0,0,0,5,5,14.09002646328373,66.33866901281888,30,,,,,,,,,,,,,,,false,false,false,false,false,false,false,false,false,false,2084,2059,2139,2116,55,72,70,56,1207,1209,1206,1213,1200,1200,1205,1203,0.0,0.0,0.0,0.0,1704.8,1699.9,1699.9,1703.6,0.63,0.28,0.82,0.4,0,0,0,0,-1.0230301886678035,14.090025496529261,66.33866588168131,0,-76.136856,-75.0946,0.047692012,0.003095,-0.99490124,0.9960485,-0.5169615,-0.07671157,0.50834376,0.72907287,-220,-102,1478,1497.0,0.014205374,0.0037408413,0.022828668,0.027146539,0.014689674547778865,0.022343271506152923,-0.16983054554123378,2.5772931223737716,165.95348206796132,165.95348206796132,-642.2350177203258,-429.6513692205356,-127.27906712664198,147.51224306020242,0.3508293625946357,14.61102394229351,-176.24807569461746,-170.9281776574273,64.98,NONE,0.0,0.0,0.0,NONE,2.0546287983087715E-10,2.9235238993474995E-10,5.340576E-5,2,10.04,10.0,10.2,10.45,17.017,17.017,6.127,1.4536699,0,3473,4.293,12.0,4.542,97,25.6,OK,207,0,0,0,0,0,65,100,0.0,0,0.0,7.874894E-38,8.7E-44,0.0,-5.9807744E7,62,1.9073559E-7,-1.9073654E-7,2.1452338E-34,False,False,0,None,3.7339366E29,1.0842106E-19,geoDeclination|532 degrees
835377088,3.053,14.090025239834075,66.33866612380709,18,-76.136856,-76.39236,0.049163934,0.004775132,-0.99074143,0.991972,0.96104264,-0.87109965,-0.39761183,1.356655,-220,-102,1478,1497.0,-0.052441735,0.029872686,0.006758605,0.060730483,0.06035323480184163,-0.02038842681736476,-0.2185922608234644,2.8164511737406808,150.26472615708727,150.26472615708724,-637.7934083401968,-415.08084216100656,-142.9488233137811,146.7710258983202,0.3258500258266828,15.644857241317215,-156.9011291524536,-151.58123111526345,64.99,-0.8376310791015555,,14.0900257,66.338666,20190515,115448,2019-05-15T11:54:48Z,98.177,0.61,1.12,7.36,9,9,18,-0.01,0.0,0.01,0,0,0,0,5,5,14.09002646328373,66.33866901281888,30,,,,,,,,,,,,,,,false,false,false,false,false,false,false,false,false,false,2076,2060,2121,2111,55,71,71,55,1205,1207,1208,1209,1200,1200,1204,1205,0.0,0.0,0.0,0.0,1704.2,1699.9,1699.9,1704.2,0.68,0.32,0.82,0.39,0,0,0,0,-3.576334374997373,14.09002497811651,66.33866571327144,0,-76.136856,-75.142,0.050088156,0.0044883583,-0.99070555,0.9919811,-0.5322412,0.117156796,-3.1221147,3.1693227,-223,-102,1478,1498.0,0.015112953,-0.0048099095,0.038800377,0.041916654,0.015859904719359337,0.013405377358227808,-0.17661758180284742,2.628098192431044,165.9607580167149,165.96075801671486,-642.7267355625884,-429.0989964480613,-127.13647366117323,147.8405495910449,0.3728311197403917,14.678376883566125,-20.02274749510371,-14.702849457913578,64.98,NONE,0.0,0.0,0.0,NONE,-7.124492041197382E-10,1.0987309691391306E-9,2.746582E-4,2,10.0,10.14,10.25,10.17,17.088,17.088,6.127,1.7177119,0,3472,4.232,12.0,1.902,97,25.6,OK,208,0,0,0,0,0,65,100,0.0,0,0.0,0.00164029,8.7E-44,0.0,-5.9807744E7,62,1.9073559E-7,-1.9073654E-7,2.2242858E-34,False,False,0,None,3.96489E29,1.0842106E-19,geoInclination|7644 degrees
839282234,4.068,14.090024518878014,66.33866603234614,18,-76.136856,-76.38408,-0.017496232,-0.021764353,-1.1518617,1.1522001,-13.753265,-45.392612,-1.2245715,47.44619,-169,-102,1481,1494.0,-0.056290984,0.056972243,-0.11739175,0.14211029,0.08009064390438356,-0.04684463313774918,-0.5546379921171605,-1.71219243447374,150.8851659239042,150.8851659239042,-634.9882244709127,-415.7303528636195,-148.4023828025212,157.6498264043901,0.3425843413779122,15.691921010848823,-165.23806560575417,-159.91816756856403,64.97,-0.8376310791015555,,14.090025,66.3386659,20190515,115448,2019-05-15T11:54:48Z,98.197,0.61,1.12,7.4,9,9,18,0.0,0.01,0.0,0,0,0,10000,5,5,14.09002646328373,66.33866901281888,30,,,,,,,,,,,,,,,false,false,false,false,false,false,false,false,false,false,5300,5373,4244,4260,53,69,70,53,1527,1550,1420,1415,1522,1540,1421,1419,0.0,0.0,0.0,0.0,1663.1,1659.4,1658.2,1663.7,5.58,5.47,3.36,2.52,0,0,0,0,178.49464825459162,14.09002412355594,66.3386656623658,0,-76.136856,-75.181145,0.04648288,-0.012196834,-1.0341072,1.0352232,3.0816963,-27.826088,7.095314,28.881336,-211,-102,1478,1496.0,0.021765562,-0.0052722543,-1.6270671E-5,0.022395015,0.022395007406805556,0.015591139499865903,-0.1498094127994205,1.290762856712347,166.38364911677988,166.3836491167799,-641.3616170408213,-429.17562103369534,-129.19848600238217,151.0829917328764,0.38690819521882663,14.733798544484516,-78.6242583941046,-73.30436035691447,64.96,NONE,0.0,0.0,0.0,NONE,-6.297303845466179E-10,4.594109049161455E-10,1.0681152E-4,2,48.29,49.15,33.93,35.09,17.122,17.122,6.038,1.9574907,0,3472,4.277,12.0,2.032,97,25.6,OK,209,0,0,0,0,0,65,100,0.0,0,0.0,-9.487612E-31,8.7E-44,0.0,-5.9807744E7,62,1.9073559E-7,-1.9073654E-7,2.2730688E-34,False,False,0,None,4.1073497E29,1.0842106E-19,geoIntensity|5257432 nanoTesla
843152977,5.074,14.09002526827159,66.33866619835237,18,-75.35297,-75.827484,-0.013256764,-0.009664285,-0.8473618,0.8475206,-5.1945367,-1.1377892,-7.289283,9.022828,-110,-102,1465,1472.0,-0.049079273,0.054623283,-0.09128672,0.117156915,0.07343349268307851,-0.035462401267687724,0.8904252241764864,-1.1478514159619686,151.07494612767425,151.07494612767425,-638.3182554402318,-418.6877837596691,-150.57193254621748,138.15104117890286,0.07965554104817102,15.751943729987532,60.99277049069109,66.31266852788123,65.02,-0.05374130859374304,,14.0900257,66.3386659,20190515,115450,2019-05-15T11:54:50Z,98.756,0.61,1.12,7.44,9,9,18,0.03,0.12,-0.6,0,0,0,0,5,5,14.090024082713995,66.33866566282857,30,,,,,,,,,,,,,,,false,false,false,false,false,false,true,false,false,false,4964,5054,4372,4331,53,70,71,54,1473,1489,1419,1417,1470,1484,1414,1411,0.0,0.0,0.0,0.0,1671.7,1667.4,1668.0,1672.3,4.04,3.6,3.26,2.61,0,0,0,0,174.31097744333243,14.090024622063977,66.3386657678995,0,-75.3794,-74.52367,-0.012993851,-0.0093837725,-0.8583037,0.85845333,-5.3980556,-5.93646,-6.617203,10.400382,-110,-102,1462,1469.0,0.06011645,0.011314282,-0.10947762,0.12540872,0.06117189539803059,-0.03616998067306085,0.8800060174490346,-1.2323603344005587,166.81600988867902,166.816009888679,-638.4750540321315,-425.0102259660697,-132.16935647662203,138.64603550756843,0.026754713299899088,14.81992562223611,-14.185928465025487,-8.866030427835353,64.99,NONE,0.0,0.0,0.0,NONE,1.0113042064813664E-9,1.393225007125212E-9,-7.4768066E-4,2,43.39,44.54,35.5,35.32,17.028,17.028,6.028,2.217595,0,3471,4.277,12.0,7.158,97,25.6,OK,210,0,0,0,0,0,65,100,0.0,0,0.0,-2.5941281E33,2.68E-43,0.0,-5.9807744E7,62,3.3436663E-7,-2.3871152E-7,1.6364134E-34,False,False,0,None,2.2857886E29,1.4702392E-19,dateTime|2019-5-15 11:54:2 GMT
847059080,6.089,14.090026780809643,66.33866512287666,18,-75.14974,-75.86783,4.7523412E-4,-0.003300007,-0.9326839,0.93268985,5.040288,-72.96921,7.780604,73.55574,168,-97,1478,1490.0,-0.56407505,0.28601468,0.033450607,0.6333277,0.6324437091114322,-0.4971754798988216,0.5993143637443911,-13.840286100806482,151.31891489418754,151.31891489418751,-637.6059954557286,-418.24022757195917,-167.13456775381707,149.40360997173823,0.13454404198951614,15.913015890384022,145.59922911652663,150.91912715371677,64.94,0.1494828735351632,,14.0900264,66.3386657,20190515,115451,2019-05-15T11:54:51Z,98.728,0.61,1.12,7.4,9,9,18,-0.02,0.06,-0.13,0,9802,0,0,5,5,14.090024082713995,66.33866566282857,30,,,,,,,,,,,,,,,false,false,false,false,false,false,true,false,false,false,5177,5313,4886,4991,54,69,70,53,1514,1529,1454,1456,1514,1533,1439,1438,0.0,0.0,0.0,0.0,1663.7,1659.4,1658.8,1663.7,4.56,3.82,3.56,2.83,0,0,0,0,177.1049635467116,14.090025940890348,66.33866469276624,0,-75.18228,-74.53685,-0.014015922,-0.0031893267,-0.9634515,0.96355873,10.747543,-73.20355,10.151214,74.68144,179,-97,1478,1491.0,-0.52365535,0.11004224,6.5935263E-4,0.5350931,0.5350927050655557,-0.40383410325156865,0.6436339023189951,-15.841433032994244,167.1150301340385,167.11503013403853,-641.3848707389336,-426.6366233145905,-151.55338965857825,153.8073657390918,0.13605603783447895,14.997479817856416,161.87702755228796,167.1969255894781,64.96,NONE,0.0,0.0,0.0,NONE,3.2553855487410623E-10,-7.003606113465075E-10,8.392334E-5,2,45.22,46.0,42.48,44.75,16.801,16.801,5.977,2.6644282,0,3469,4.277,12.0,6.465,97,25.6,OK,211,0,0,0,0,0,65,100,0.0,0,0.0,7.759033,2.68E-43,0.0,2.4570909E-8,63,3.3097604E-7,-2.377174E-7,1.7881109E-34,False,False,0,None,2.7288357E29,1.4633902E-19,
850908019,7.089,14.09005378414987,66.33864789796937,18,-75.62322,-75.84925,-0.09962785,-0.012571694,-1.0325726,1.037444,0.83585185,9.155997,-2.1015863,9.431203,498,-94,1383,1472.0,-3.408497,2.0756748,0.06233395,3.9912608,3.9907741246929582,-1.7286287751466722,0.4639067896452853,-24.147964446780694,149.03463712067614,149.03463712067617,-637.2086637604433,-417.5908244316565,-175.64207813792447,136.54508367390466,2.378839699741475,18.17808552185249,142.9189544369308,148.23885247412093,64.95,-0.3239973510742118,,14.0900446,66.3386536,20190515,115452,2019-05-15T11:54:52Z,98.68,0.61,1.12,7.38,9,9,18,-2.51,1.54,-0.02,0,8723,0,0,5,5,14.090024082713995,66.33866566282857,30,,,,,,,,,,,,,,,false,false,false,false,false,false,true,false,false,false,5138,5290,5207,5274,55,69,69,55,1487,1510,1498,1501,1476,1500,1502,1492,0.0,0.0,0.0,0.0,1659.4,1656.4,1655.8,1660.0,4.04,3.63,4.06,3.75,0,0,0,0,58.05524722379664,14.090049454715912,66.33864585866385,0,-75.344185,-74.49108,-0.102385536,-0.011240602,-1.0304952,1.03563,6.6011443,9.154538,0.19112858,11.287923,501,-94,1380,1471.0,-3.8991613,1.4139737,0.025526421,4.147702,4.1476233881462115,-1.8059443576628538,0.36815327004674675,-23.842174737658596,160.9813515477813,160.9813515477813,-641.1358209732797,-425.5912403303936,-159.45454251430752,133.9955395635038,2.4761518083030536,17.364444992537564,151.20627878128838,156.52617681847852,64.97,NONE,0.0,0.0,0.0,NONE,6.65592499217868E-8,-7.967619215573478E-8,1.5258789E-5,2,46.65,46.0,45.89,48.3,16.788,16.788,5.965,3.2960632,0,3467,4.194,12.0,7.751,97,25.6,OK,212,0,0,0,0,0,65,100,0.0,0,0.0,-1.477011E33,2.66E-43,0.0,2.4570909E-8,63,3.4965342E-7,-2.4635855E-7,2.931178E-33,False,False,0,None,3.8582258E31,1.5010765E-19,
854766979,8.092,14.090095780686733,66.33861954577742,18,-74.87174,-75.983765,-0.011750827,-0.018107465,-1.1396464,1.1398509,-18.253994,-57.14247,-4.289713,60.140434,-719,-249,1416,1607.0,-1.2965223,0.8411069,0.029472403,1.5457358,1.5454548954325804,2.111456562767884,0.7640502728944281,22.41857369294143,150.08216759157642,150.08216759157642,-637.3574008795631,-420.43065944379504,-136.0666366641858,115.18401105371976,6.044298370197062,21.84686841976408,147.81787328176827,153.13777131895841,64.89,0.4274827514648507,,14.0900922,66.3386222,20190515,115452,2019-05-15T11:54:52Z,98.652,0.61,1.12,7.4,9,9,18,-2.91,1.81,0.01,0,0,0,0,5,5,14.090024082713995,66.33866566282857,30,,,,,,,,,,,,,,,false,false,false,false,false,false,true,false,false,false,5292,5590,5406,5606,56,70,70,56,1519,1563,1480,1459,1511,1565,1464,1450,0.0,0.0,0.0,0.0,1657.0,1651.5,1652.1,1657.6,4.6,4.09,3.54,2.23,0,0,0,0,37.01067323360314,14.090099666530474,66.33861900330028,0,-75.08614,-74.649765,-0.029659074,-0.008632329,-1.1337678,1.1341885,1.9248581,-62.77833,7.230925,63.222706,-702,-252,1429,1611.0,-1.3875676,0.67100793,6.01484E-4,1.5412968,1.5412967169272098,2.1812021330550415,0.6492728600256773,20.311933096547182,157.37706326626392,157.37706326626392,-641.8562141205782,-426.0319667951497,-112.60975440351541,121.34150009021927,6.188341784415099,21.12823313834826,129.87099422271407,135.19089225990422,64.87,NONE,0.0,0.0,0.0,NONE,2.141933459573282E-7,-1.993307695809293E-7,7.171631E-4,2,48.36,48.34,42.18,46.73,16.724,16.724,5.923,4.0402255,0,3462,4.187,12.0,8.1,97,25.7,OK,213,0,0,0,0,0,65,100,0.0,0,0.0,1.3265682E-27,2.68E-43,0.0,2.4570909E-8,63,2.9229705E-7,-2.2804765E-7,7.4625286E-31,False,False,0,None,7.192751E35,1.3853705E-19,
858635728,9.098,14.090104720494043,66.33861541835584,18,-75.01646,-75.498566,-0.014525313,-0.0109914495,-0.7501311,0.7503522,0.9230271,-5.6714206,-3.0247443,6.493541,-85,-192,1609,1622.0,2.4907803E-4,0.038440607,-1.7093511,1.7097832,0.0384414143187758,0.5663555835355386,0.9663897709479711,-0.1901873601499632,150.48371985351443,150.48371985351446,-637.2703273626901,-422.3230668372468,-160.07594089572544,112.40409885903027,6.645541537835617,22.47472435920933,64.97245414848138,70.2923521856715,64.9,0.2827683959961007,,14.0901044,66.3386155,20190515,115454,2019-05-15T11:54:54Z,98.733,0.61,1.12,7.49,9,9,18,-0.18,0.06,-0.19,0,0,0,1322,5,5,14.090024082713995,66.33866566282857,30,,,,,,,,,,,,,,,false,false,false,false,false,false,true,false,false,false,4689,4960,4219,4197,55,71,70,55,1420,1442,1379,1381,1415,1429,1367,1369,0.0,0.0,0.0,0.0,1680.3,1677.9,1676.6,1680.9,1.83,1.4,1.44,1.01,0,0,0,0,166.63263380959648,14.09010650838284,66.33861556388288,0,-75.04697,-74.05973,-0.010903886,-0.012242331,-0.70462626,0.70481694,1.4927492,-5.285066,-3.4270275,6.4733872,-85,-189,1606,1619.0,0.084814854,0.013465125,-1.6026721,1.6049713,0.08587705588933789,0.400834943074194,0.9760415483004837,-0.2930572728416229,149.5905694635251,149.59056946352507,-642.5559588235693,-425.34791561376693,-136.54258578480776,113.30654647888998,6.675572008633797,21.818978091684556,55.41881793068499,60.73871596787512,64.92,NONE,0.0,0.0,0.0,NONE,2.2787652319855317E-9,1.1351409997455754E-9,-0.0043411255,2,37.26,38.64,30.09,30.34,16.692,16.692,5.897,4.8619866,0,3460,4.173,12.0,9.363,96,25.7,OK,214,0,0,0,0,0,65,100,0.0,0,0.0,2.2489636E-26,2.68E-43,0.0,2.4570909E-8,63,4.734393E-7,-3.0824785E-7,1.7218903E-30,False,False,0,None,3.219224E36,1.750852E-19,
862504487,10.103,14.090103431261678,66.33861746144076,18,-74.62483,-75.11245,-0.022178737,-9.6563436E-4,-0.99939924,0.99964577,-9.066575,0.46987006,49.67151,50.49438,-158,-23,1585,1593.0,0.079878606,-0.032471694,0.04370199,0.09666885,0.086226459768555,0.14685044829665364,-0.9968437900340696,-2.0684655669791514,-167.47972818757947,192.52027181242053,-596.650038505626,-423.71450999755507,-162.26705705073428,-178.78074944841904,6.42382966616627,22.716147665060568,-32.142377112137574,-26.82247907494744,65.0,0.6743928466796945,,14.0901028,66.3386172,20190515,115455,2019-05-15T11:54:55Z,99.414,0.61,1.12,7.47,9,9,18,0.2,-0.1,-0.26,0,0,9998,0,5,5,14.090024082713995,66.33866566282857,30,,,,,,,,,,,,,,,false,false,false,false,false,false,true,false,false,false,5308,5368,4669,4747,54,71,70,55,1505,1523,1449,1442,1505,1511,1433,1439,0.0,0.0,0.0,0.0,1659.4,1655.2,1653.9,1659.4,4.34,3.67,3.38,3.0,0,0,0,0,-179.1815445383114,14.090103662369051,66.33861712739424,0,-74.6881,-73.69555,-0.023971798,2.2851909E-4,-1.0041637,1.0044498,3.2610989,-0.2552036,62.653324,62.738655,-158,-15,1588,1595.0,0.07522144,0.004299827,0.054370683,0.09291353,0.07534423547285353,0.1387880352435552,-0.9916158191514873,-2.088166156062556,-167.01910091033758,192.98089908966242,-599.0143512351829,-423.5175089053505,-136.70947786702766,-176.68841205655517,6.460517093746117,22.162194142740997,28.77769737912295,34.097595416313084,64.98,NONE,0.0,0.0,0.0,NONE,-1.6170160174545487E-9,2.458758007486966E-9,-5.340576E-5,2,47.77,49.25,41.12,40.67,16.496,16.496,5.966,5.657459,0,3458,4.168,12.0,5.988,96,25.7,OK,215,0,0,0,0,0,65,100,0.0,0,0.0,1.8921618E-26,2.68E-43,0.0,2.4570909E-8,63,7.968629E-7,-3.8995685E-7,1.3666221E-30,False,False,0,None,2.0920089E36,2.0805662E-19,
866406603,11.117,14.090103267888288,66.33861758011524,18,-74.51251,-75.215256,-0.017639982,0.00631316,-1.015746,1.0159189,-9.972189,9.728858,-10.5431795,17.471516,-166,184,1588,1607.0,-0.008418975,0.008983381,-0.041153513,0.042955697,0.012311794625916948,0.002554057612969639,-1.2452688588715115,-0.9387562889246177,-133.94868945224755,226.05131054775245,-566.6958586878986,-426.31630564959255,-161.64824387152126,-131.29924949072313,6.408800801285618,22.784066294190698,-14.485230897478804,-9.165332860288672,65.06,0.786712792968757,,14.0901019,66.3386177,20190515,115456,2019-05-15T11:54:56Z,99.245,0.61,1.12,7.45,9,9,18,0.02,-0.01,0.0,0,0,0,0,5,5,14.090024082713995,66.33866566282857,30,,,,,,,,,,,,,,,false,false,false,false,false,false,true,false,false,false,5391,5447,4640,4835,54,70,70,54,1508,1528,1453,1453,1508,1516,1434,1448,0.0,0.0,0.0,0.0,1658.2,1653.3,1653.9,1657.6,4.28,3.78,3.29,2.99,0,0,0,0,-174.17705418154918,14.090102915026787,66.33861736107285,0,-74.54949,-73.814064,-0.017088393,0.009913118,-1.0129995,1.0131922,-1.8248361,4.6057334,-2.6224892,5.605377,-166,184,1588,1607.0,-0.042680994,0.04608111,-0.023833852,0.06718027,0.06281031744163698,-0.021121770584742648,-1.2195497282032837,-1.0202759323548518,-134.9710846024006,225.0289153975994,-567.5372637418899,-420.916876122019,-136.17556344512755,-131.72342948770876,6.420492644893116,22.282261169617353,115.10157321612607,120.4214712533162,65.01,NONE,0.0,0.0,0.0,NONE,2.2253983843880236E-9,-6.382490459058645E-10,-1.5258789E-5,2,48.68,49.72,39.82,41.22,16.767,16.767,5.959,5.657459,0,3458,4.113,12.0,5.988,96,25.7,OK,215,0,0,0,0,0,65,100,0.0,0,0.0,1.16542366E-26,2.68E-43,0.0,2.4570909E-8,63,7.0589886E-7,-3.672122E-7,1.2799793E-30,False,False,0,None,1.8328808E36,1.9887822E-19,
870263220,12.120,14.090102997105998,66.33861762540226,18,-74.52324,-75.22446,-0.015867567,0.0052939644,-1.00011,1.0002499,-2.0117443,-4.0452147,1.6082803,4.7955647,-155,186,1585,1603.0,-0.05441948,0.03322978,-0.031240437,0.07100467,0.06376282626036599,-0.050701914826697426,-1.060035573170537,-1.4155358760743382,-134.057565568898,225.942434431102,-569.1718521633956,-429.39399162787436,-158.31549595345444,-132.02453171784896,6.3979410748523025,22.85024002325509,139.78880915566123,145.10870719285137,65.02,0.7759858642578195,,14.0901031,66.3386176,20190515,115457,2019-05-15T11:54:57Z,99.178,0.61,1.12,7.42,9,9,18,0.01,0.04,-0.01,0,0,0,0,5,5,14.090024082713995,66.33866566282857,30,,,,,,,,,,,,,,,false,false,false,false,false,false,true,false,false,false,5412,5350,4733,4682,55,71,72,55,1519,1521,1455,1440,1511,1509,1446,1438,0.0,0.0,0.0,0.0,1658.8,1653.3,1653.3,1658.8,4.43,3.69,3.34,2.89,0,0,0,0,-179.53211613585194,14.090102929713096,66.33861735778319,0,-74.72409,-73.7984,-0.016234348,0.0027544945,-0.9998818,1.0000173,3.3867767,-1.5932193,1.69171,4.10737,-155,186,1585,1603.0,-0.030607954,0.06885303,-0.044318777,0.087417044,0.07534976059265554,-0.07460093548638598,-1.0166629171474681,-1.4374512915148367,-135.05358941862548,224.94641058137452,-561.5577435887933,-414.0197262662866,-132.28662961330218,-132.27255876409873,6.421157755861678,22.353243917461157,146.79891379233052,152.11881182952067,65.01,NONE,0.0,0.0,0.0,NONE,3.4314895935129986E-9,-5.568615827390353E-10,-1.296997E-4,2,48.83,49.64,41.14,39.25,16.717,16.717,5.955,6.2859106,0,3456,4.18,12.0,7.18,96,25.7,OK,216,0,0,0,0,0,65,100,0.0,0,0.0,1.24860904E-26,2.68E-43,0.0,2.4570909E-8,63,7.1646355E-7,-3.6985338E-7,1.2823868E-30,False,False,0,None,1.8401013E36,1.9994694E-19,
874160917,13.133,14.090105794620428,66.33861709422989,18,-74.8678,-75.22689,-0.018470485,2.85225E-4,-0.99540335,0.9955747,3.6283748,2.3012815,1.5502619,4.5677466,-147,208,1585,1605.0,-0.10181322,0.030423185,-0.018631509,0.1078825,0.10626147520283293,0.030075454856342845,-0.024997840138083496,-1.4116653650611286,-133.86802732033627,226.13197267966373,-562.3255529793144,-423.3552071547105,-160.53346721730594,-131.7097027253875,6.516363509305715,23.023210751679656,10.578118126957168,15.898016164147302,64.99,0.43142714843750696,,14.0901048,66.3386171,20190515,115458,2019-05-15T11:54:58Z,99.088,0.61,1.12,7.4,9,9,18,-0.07,0.05,0.0,0,0,0,0,5,5,14.090024082713995,66.33866566282857,30,,,,,,,,,,,,,,,false,false,false,false,false,false,true,false,false,false,5291,5405,4711,4726,56,72,73,56,1502,1518,1450,1449,1503,1516,1446,1444,0.0,0.0,0.0,0.0,1656.4,1652.7,1652.7,1656.4,4.22,3.73,3.32,3.06,0,0,0,0,175.50386477253699,14.090105344522,66.33861684854641,0,-74.88362,-73.78657,-0.018166414,3.9078342E-4,-0.99369437,0.9938605,3.1881952,4.6114244,2.260269,6.0447197,-147,208,1588,1608.0,-0.06381979,0.071835555,-0.04089269,0.10442952,0.09609012790769575,0.024082558970687784,0.07041695679323741,-1.3881290776447628,-134.81409691695276,225.18590308304724,-558.9105055762676,-408.01456902673374,-132.68571641031437,-131.98552963601153,6.527842796903766,22.494650811575347,137.82750427786976,143.1474023150599,65.03,NONE,0.0,0.0,0.0,NONE,1.3117575809240884E-8,-4.596249823370737E-9,-3.2043457E-4,2,46.93,49.42,41.02,40.68,16.721,16.721,5.959,6.7349873,0,3454,4.165,12.0,7.087,96,25.7,OK,217,0,0,0,0,0,65,100,0.0,0,0.0,3.188134E-25,2.68E-43,0.0,2.4570909E-8,63,7.246417E-7,-3.7189793E-7,1.4458019E-30,False,False,0,None,2.3287857E36,2.0077081E-19,
878039430,14.141,14.09011843942919,66.33861143343938,18,-74.495026,-75.20629,-0.010356358,0.045210417,-1.0253649,1.0264133,22.27648,-5.2063546,58.758377,63.054695,-158,-146,1582,1596.0,-1.484375,1.3193262,-0.026268784,1.986122,1.9859483143821899,-1.1473076736421608,-15.18955305692207,1.0903546748967063,-119.62069839505564,240.37930160494437,-550.5013690541737,-438.7457453138623,-160.45762416204929,-115.10427255264,7.354707745267396,23.87167878993296,131.33811409199075,136.6580121291809,65.0,0.804199365234382,,14.0901142,66.3386129,20190515,115459,2019-05-15T11:54:59Z,99.029,0.61,1.12,7.4,9,9,18,-1.04,0.91,0.0,-7036,0,9998,0,5,5,14.090024082713995,66.33866566282857,30,,,,,,,,,,,,,,,false,false,false,false,false,false,true,false,false,false,5749,5442,4768,4832,56,72,71,56,1558,1525,1436,1467,1546,1518,1422,1462,0.0,0.0,0.0,0.0,1652.1,1647.8,1647.8,1652.7,5.05,3.84,2.86,3.53,0,0,0,0,-166.8739469835277,14.090116104593953,66.33861234119563,0,-74.83884,-73.77199,-0.01536621,0.03867957,-1.0291245,1.0299658,1.2954297,-5.867794,55.200455,55.52656,-158,-170,1579,1595.0,-1.3091934,1.2498271,-0.03490765,1.8103242,1.8099875959740597,-1.121407468397004,-15.729767904943735,0.5865921469852007,-124.87388112479468,235.12611887520532,-548.8586316463652,-426.3127936877209,-132.54970164251873,-118.22884859558248,7.212349264383077,23.19454920130535,130.56570606310117,135.88560410029132,65.0,NONE,0.0,0.0,0.0,NONE,7.645335576183237E-8,-3.27263267117935E-8,-9.918213E-5,2,53.28,50.26,41.01,41.61,16.713,16.713,5.944,7.052969,0,3452,4.166,12.0,7.078,96,25.8,OK,218,0,0,0,0,0,65,100,0.0,0,0.0,5.957639E-23,2.68E-43,0.0,2.4570909E-8,63,7.35512E-7,-3.7461186E-7,3.2491653E-30,False,False,0,None,9.9763494E36,2.01866E-19,
881936817,15.154,14.090154299647448,66.33859097175396,18,-73.96121,-75.16321,-0.0033932975,0.09444663,-0.9964914,1.000963,10.971896,0.11328819,4.0696273,11.702872,-73,72,1591,1594.0,-3.0775027,1.8448625,-0.017771767,3.588155,3.5881109694349607,-0.8419115373863577,-13.657052487535937,-0.21669833368536792,-109.96793227318547,250.03206772681455,-539.5532148890203,-435.9395973763888,-165.0741371162776,-100.02598574389758,10.136358412534108,26.660418821814527,143.2639158144738,148.58381385166393,65.01,1.338012841796882,,14.0901496,66.3385938,20190515,115500,2019-05-15T11:55:00Z,99.012,0.61,1.12,7.4,9,9,18,-2.75,1.8,-0.01,-9374,0,0,0,5,5,14.090024082713995,66.33866566282857,30,,,,,,,,,,,,,,,false,false,false,false,false,false,true,false,false,false,5679,5394,4406,4961,58,74,74,58,1551,1521,1407,1475,1546,1510,1402,1466,0.0,0.0,0.0,0.0,1653.3,1649.6,1650.2,1653.9,4.94,3.58,2.67,3.34,0,0,0,0,-153.78529494264183,14.090155584083108,66.33859001879313,0,-73.972466,-73.74013,-0.003641975,0.09603571,-0.99476856,0.9994001,5.26301,-0.80941117,0.96859854,5.412264,-73,72,1588,1591.0,-3.12259,1.954323,-0.040879343,3.6839676,3.683740930458712,-0.6787030285162543,-13.489883361290062,-0.5256904295006924,-110.76053840727214,249.23946159272788,-535.6275437930221,-425.0317323116329,-137.68160525995955,-101.17480296291741,10.256050452684994,26.244267107583855,142.89129601447593,148.21119405166607,65.0,NONE,0.0,0.0,0.0,NONE,1.0237890971799617E-7,-6.312240157594339E-8,-1.296997E-4,2,52.62,48.32,36.65,44.25,16.679,16.679,5.937,7.2656856,0,3450,4.165,12.0,7.406,96,25.8,OK,219,0,0,0,0,0,65,100,0.0,0,0.0,1.1500654E-21,2.68E-43,0.0,2.4570909E-8,63,7.593917E-7,-3.8058542E-7,1.1947934E-28,False,False,0,None,-1.7767657E-38,2.0427475E-19,
885842886,16.169,14.09019991185979,66.33855628182572,18,-75.23513,-75.155106,0.05848849,0.08633314,-1.0474092,1.0525874,-9.249167,-17.16305,27.78696,33.94455,134,-268,1462,1492.0,-5.113669,1.870781,0.012642286,5.4451437,5.4451291287386105,-1.1488441376430512,-25.105377756307863,1.2402817019077506,-78.90331952620656,281.0966804737934,-510.9126013126907,-444.54883553583824,-173.94292347483366,-66.38640663556015,14.474022310524493,31.027313492750377,151.08034217924177,156.4002402164319,65.01,0.06409468994141321,,14.0901944,66.3385611,20190515,115501,2019-05-15T11:55:01Z,98.96,0.61,1.12,7.42,9,9,18,-4.29,1.98,0.01,-9288,0,9956,0,5,5,14.090024082713995,66.33866566282857,30,,,,,,,,,,,,,,,false,false,false,false,false,false,true,false,false,false,6035,5803,4332,5064,56,73,73,57,1562,1587,1375,1515,1561,1594,1346,1507,0.0,0.0,0.0,0.0,1645.9,1641.1,1640.5,1645.9,4.82,4.88,1.89,4.18,0,0,0,0,-158.4579556884671,14.09020114516029,66.33855475786038,0,-75.197235,-73.735054,0.059288323,0.081635304,-1.050762,1.0555948,12.050931,-18.71118,34.366695,40.943897,140,-274,1465,1496.0,-5.2545505,1.9553764,-0.03403228,5.6066885,5.606585050541468,-1.2559224437955239,-24.917215408992636,0.735846623140194,-78.7563926905709,281.2436073094291,-508.30012694012436,-438.07122354679,-146.36032589445986,-66.734403396694,14.646325757278163,30.66752993802768,151.96385013817766,157.2837481753678,65.05,NONE,0.0,0.0,0.0,NONE,1.1036240939451264E-7,-1.1662394841678006E-7,-9.1552734E-5,2,57.64,54.56,35.8,45.52,16.678,16.678,5.919,7.4069977,0,3448,4.154,12.0,7.416,96,25.9,OK,220,0,0,0,0,0,65,100,0.0,0,0.0,1.216246E-26,2.68E-43,0.0,3.041665E-35,64,7.50224E-7,-3.782935E-7,3.4761362E-26,False,False,0,None,-2.6392603E-36,2.0335161E-19,
889692183,17.169,14.090228716796151,66.33850519530982,18,-75.742004,-75.174866,0.06051961,0.048036467,-0.9825221,0.9855555,-59.493248,0.774948,1.9265652,59.52948,577,331,1420,1568.0,-5.026847,0.83215934,0.06308502,5.095651,5.0952604897706815,0.7265108705661785,-4.960348275840999,-7.886577692982039,-38.869742273722906,321.1302577262771,-470.70568232900854,-419.00337297529575,-190.547840776497,-49.87915956300023,20.04425603356117,36.86001578341951,164.91637657340328,170.23627461059343,65.09,-0.44277939453124304,,14.0902269,66.3385103,20190515,115502,2019-05-15T11:55:02Z,99.019,0.61,1.12,7.38,9,9,18,-5.68,1.06,-0.03,-6349,0,0,0,5,5,14.090024082713995,66.33866566282857,30,,,,,,,,,,,,,,,false,false,false,false,false,false,true,false,false,false,5530,5587,2940,3861,57,74,74,57,1527,1544,1317,1384,1524,1536,1314,1380,0.0,0.0,0.0,0.0,1657.6,1652.7,1652.7,1654.6,4.6,4.43,2.56,2.4,0,0,0,0,-168.6798561948612,14.090229625860456,66.33850352331426,0,-75.36158,-73.73534,0.06368384,0.05601651,-0.9838168,0.987466,-53.35551,3.4994001,8.014289,54.067413,577,301,1423,1564.0,-5.270678,0.8121188,0.014514194,5.332897,5.332877537006361,0.5017762379314306,-6.935758248088658,-7.796055124145546,-39.523346456165335,320.4766535438347,-470.5261141906978,-414.6877862864113,-162.19341539868626,-50.71644363253585,20.228298541429655,36.51135167187292,163.0791473606601,168.39904539785024,65.07,NONE,0.0,0.0,0.0,NONE,5.680345808174191E-8,-1.2627907070621634E-7,-1.6784668E-4,2,52.59,53.88,23.19,33.27,16.653,16.653,5.969,7.5005994,0,3446,4.157,12.0,7.538,96,25.9,OK,221,0,0,0,0,0,65,100,0.0,0,0.0,-1.2758507E33,2.66E-43,0.0,3.041665E-35,64,7.7389996E-7,-3.8420885E-7,7.875222E-23,False,False,0,None,-2.5304162E-33,2.0574051E-19,
893671817,18.203,14.090231022317287,66.3384660732195,18,-74.569046,-75.18757,0.035897404,0.040038835,-1.1958317,1.1970401,-10.979945,5.6096606,-2.2396128,12.531694,825,707,1147,1579.0,-2.2270694,-0.068421185,0.11844362,2.231266,2.228120171968384,1.9790155990988465,15.672349624115096,-20.609361629216313,-32.86430647431261,327.1356935256874,-470.97148938622337,-396.57973236719215,-205.87480820414157,-49.54510385643728,24.03805405084466,41.22525956232456,177.97235394617124,-176.70774801663862,65.05,0.7301789794921945,,14.090231,66.3384685,20190515,115503,2019-05-15T11:55:03Z,99.03,0.61,1.12,7.36,9,9,18,-3.47,-0.17,-0.01,0,0,0,0,5,5,14.090024082713995,66.33866566282857,30,,,,,,,,,,,,,,,false,false,false,false,false,false,true,false,false,false,6266,6611,3752,4640,57,73,72,56,1602,1634,1413,1477,1603,1618,1397,1459,0.0,0.0,0.0,0.0,1638.6,1635.5,1633.7,1638.6,5.5,5.42,4.13,3.51,0,0,0,0,-173.09678483594803,14.090230974491355,66.33846445059973,0,-74.539375,-73.791504,0.037731197,0.042992156,-1.1997403,1.2011031,-10.78106,5.5105276,-8.5374,14.815005,822,710,1150,1581.0,-2.243361,-0.114972144,0.061068878,2.2471352,2.2463051870590074,1.954749081577647,15.091656285358885,-19.95617458688002,-33.528795888205174,326.4712041117948,-469.4850269221705,-393.19025051327316,-174.34415735960445,-49.42844138490364,24.203920147161494,40.868782845005285,177.82965728344874,-176.85044467936112,65.05,NONE,0.0,0.0,0.0,NONE,-6.958997235362327E-9,-5.272194114562687E-8,1.6784668E-4,2,60.19,58.98,34.13,42.71,16.715,16.715,5.905,7.5438933,0,3444,4.14,12.0,6.677,96,25.9,OK,222,0,0,0,0,0,65,100,0.0,0,0.0,-57052.0,2.66E-43,0.0,3.041665E-35,64,7.196795E-7,-3.7065374E-7,2.2887223E-22,False,False,0,None,-6.5092294E-33,2.0027119E-19,
897584816,19.220,14.090231010491477,66.33845840675268,18,-74.27891,-75.14154,-0.0018894644,0.0082921,-0.9823659,0.9824027,-1.2645948,-2.41096,5.6477675,6.2697053,427,345,1475,1573.0,-0.008200605,0.07059729,0.016367126,0.07293223,0.07107198665056448,0.7671745782476895,0.2101728985520282,-1.7467196707171933,-36.328720466216616,323.6712795337834,-471.59018737454863,-412.2878088241891,-190.31912279516763,-41.65082605323319,24.827071158423156,42.082981822393975,-176.5396810541093,-171.21978301691917,64.97,1.0203172241211007,,14.0902312,66.3384593,20190515,115504,2019-05-15T11:55:04Z,99.09,0.61,1.12,7.36,9,9,18,-0.07,0.11,-0.07,0,0,0,0,5,5,14.090024082713995,66.33866566282857,30,,,,,,,,,,,,,,,false,false,false,false,false,false,true,false,false,false,5440,5483,4493,4589,58,73,73,57,1528,1540,1420,1441,1522,1525,1415,1431,0.0,0.0,0.0,0.0,1652.7,1647.2,1647.8,1652.1,4.56,4.04,3.1,2.78,0,0,0,0,-178.35098435119153,14.090231647688203,66.33845799299185,0,-74.46629,-73.67682,-0.002897114,0.007924429,-0.9826725,0.9827087,2.7944977,4.501768,5.948044,7.9658246,436,355,1484,1586.0,-0.04431484,0.07404698,-0.023685982,0.08948623,0.08629461075908199,0.620393660823566,0.4856338081225267,-2.125335531118722,-36.90415720233731,323.09584279766267,-469.1966983673273,-406.59371038078,-158.6870579409757,-41.97966347789086,24.880356647100044,41.622423970061,72.5362938124618,77.85619184965194,64.99,NONE,0.0,0.0,0.0,NONE,1.045983957567251E-8,-1.3090530562359527E-8,-3.6621094E-4,2,50.59,50.61,37.47,39.24,16.622,16.622,5.939,7.5460014,0,3442,4.166,12.0,8.006,96,25.9,OK,223,0,0,0,0,0,65,100,0.0,0,0.0,-205.14062,2.66E-43,0.0,3.041665E-35,64,8.063653E-7,-3.9232881E-7,2.3797768E-22,False,False,0,None,-6.744328E-33,2.0901284E-19,
901503980,20.239,14.090231807751897,66.33845962617063,18,-74.61043,-75.134346,-9.032162E-4,0.0056958357,-0.9932404,0.99325716,-4.2166934,-8.911778,-7.966994,12.675696,382,284,1496,1569.0,0.10722477,-0.04549689,0.018965371,0.11801188,0.11647797205550113,0.021149058630247256,-1.682161906889029,0.19948149760217174,-36.224586463965984,323.775413536034,-471.37264171996526,-413.31664695552485,-187.9389314708705,-40.25215668470564,24.71458053573779,42.26338309775337,-96.79273670444107,-91.47283866725094,64.92,0.6887971435546945,,14.0902319,66.3384599,20190515,115505,2019-05-15T11:55:05Z,99.109,0.61,1.12,7.33,9,9,18,0.18,0.04,-0.04,0,0,0,0,5,5,14.090024082713995,66.33866566282857,30,,,,,,,,,,,,,,,false,false,false,false,false,false,true,false,false,false,5449,5532,4507,4623,58,73,73,57,1541,1538,1425,1453,1525,1521,1414,1447,0.0,0.0,0.0,0.0,1648.4,1647.8,1645.9,1650.2,4.7,4.1,3.13,2.85,0,0,0,0,-178.97862753142292,14.090232511826379,66.33845905764967,0,-74.47852,-73.66371,-0.0037577935,0.0053834515,-0.9941471,0.9941688,-10.675569,-0.910318,-8.214638,13.50099,382,282,1496,1569.0,0.053443447,0.008145753,0.01600246,0.056379374,0.05406066221286002,0.0681761298401847,-1.7326968077507958,0.29899220122127146,-36.807336377269216,323.1926636227308,-469.39594700615595,-408.8266599368183,-155.75535464873911,-40.005446730725346,24.784967547333192,41.78686552664411,-13.631129368787875,-8.31123133159774,64.93,NONE,0.0,0.0,0.0,NONE,1.5796492856876012E-9,3.769524479781949E-9,1.1444092E-4,2,50.9,50.83,36.75,40.22,16.665,16.665,5.932,7.5440993,0,3440,4.13,12.0,7.333,96,25.9,OK,224,0,0,0,0,0,65,100,0.0,0,0.0,-1934.625,2.66E-43,0.0,3.041665E-35,64,8.1311737E-7,-3.9401684E-7,2.3376422E-22,False,False,0,None,-6.6354305E-33,2.0969774E-19,
905361055,21.241,14.090230390789014,66.33845947862058,18,-74.63422,-75.12686,-0.0012386352,0.004731873,-0.99655217,0.99656415,-5.2848954,-4.344955,-5.3970504,8.714178,368,304,1499,1573.0,0.0090547055,-0.06248676,0.0072965063,0.06355959,0.06313939413170361,0.0020293068684378995,-0.7564597248871069,0.25564122261478367,-36.117592304158535,323.8824076958415,-470.76996168691045,-411.342464941865,-188.85288790326905,-40.8315984069724,24.70615686928164,42.35865301718006,146.3839495769928,151.70384761418293,64.96,0.665008691406257,,14.0902306,66.3384599,20190515,115506,2019-05-15T11:55:06Z,99.171,0.61,1.12,7.3,9,9,18,0.01,-0.05,-0.01,0,0,0,0,5,5,14.090024082713995,66.33866566282857,30,,,,,,,,,,,,,,,false,false,false,false,false,false,true,false,false,false,5486,5599,4437,4652,57,74,73,58,1531,1544,1425,1451,1524,1526,1414,1450,0.0,0.0,0.0,0.0,1648.4,1645.9,1646.6,1650.8,4.55,4.19,3.09,2.71,0,0,0,0,-177.0746040866941,14.090231089248995,66.33845911963945,0,-74.454445,-73.6714,-5.036923E-4,0.01197111,-0.9964985,0.9965706,6.8962245,-6.6355405,8.546433,12.830816,371,304,1499,1573.0,-0.040879365,-0.026391286,-0.003679514,0.048797145,0.048658220804471804,0.015043903148265474,-0.7877747977046552,0.3662346124221135,-36.698786502901676,323.30121349709833,-469.2084474912207,-408.13784132915396,-156.95035773090007,-40.461976397935736,24.754817910197705,41.877231010713594,-147.7883659733953,-142.46846793620514,65.0,NONE,0.0,0.0,0.0,NONE,-5.571465754540541E-9,-1.5934808043284604E-9,0.0,2,51.44,51.12,35.36,40.79,16.658,16.658,5.935,7.535158,0,3438,4.153,12.0,7.12,96,25.9,OK,225,0,0,0,0,0,65,100,0.0,0,0.0,-435.82812,2.66E-43,0.0,3.041665E-35,64,8.0800964E-7,-3.9273627E-7,2.3342172E-22,False,False,0,None,-6.626779E-33,2.0917827E-19,
909260773,22.255,14.090230041607352,66.33845936741739,17,-74.33115,-75.117874,-0.0022867937,0.011198663,-1.217217,1.2172706,-4.5966845,-8.114336,0.12735528,9.326745,382,309,1493,1571.0,-0.02663565,-0.033434503,-0.07456091,0.08594564,0.04274720956602211,-0.023119896408115525,-0.3798577555163306,-0.003855943023014098,-36.2410158754201,323.7589841245799,-470.6091224262981,-410.06054601817857,-189.1752235187918,-39.86233783803337,24.711832004175175,42.41901112812043,,,64.95,0.968078759765632,,14.0902299,66.3384598,20190515,115507,2019-05-15T11:55:07Z,99.146,0.63,1.14,7.28,9,8,17,-0.03,-0.05,-0.01,0,0,0,3627,5,5,14.090024082713995,66.33866566282857,30,,,,,,,,,,,,,,,false,false,false,false,false,false,true,false,false,false,6167,6093,5069,5221,58,73,75,57,1638,1629,1505,1540,1626,1623,1509,1528,0.0,0.0,0.0,0.0,1617.7,1616.5,1618.4,1620.2,7.14,6.33,5.05,4.75,0,0,0,0,-173.45559159332376,14.090230554568516,66.33845909208833,0,-74.45263,-73.66233,-0.0014181405,0.010994987,-1.2738879,1.2739362,1.049336,-13.315233,-5.678539,14.513523,382,309,1490,1568.0,-0.062664166,-0.0034788672,-0.1684991,0.17980781,0.06276065891002794,-0.03902492571833942,-0.40297496876581196,0.017606345952552522,-36.82727729002684,323.1727227099732,-468.69547647789534,-406.2382505592607,-157.1108918837713,-39.87247784097725,24.74876689944784,41.94537399678923,136.68810475462436,142.0080027918145,64.94,NONE,0.0,0.0,0.0,NONE,-2.049274754963025E-9,-4.334953154170842E-9,-2.2888184E-5,2,59.66,60.31,45.83,46.77,16.655,16.655,5.924,7.500932,0,3436,4.153,12.0,7.149,96,26.0,OK,226,0,0,0,0,0,65,100,0.0,0,0.0,-209.44531,2.66E-43,0.0,3.041665E-35,64,8.1092E-7,-3.9347114E-7,2.3293704E-22,False,False,0,None,-6.6141776E-33,2.0947606E-19,
913116192,23.257,14.090229857965715,66.33845913796311,18,-74.29859,-74.75904,-0.0035608676,0.011851977,-0.97058636,0.9706652,5.575702,-7.0420475,6.641887,11.1711035,396,298,1493,1573.0,-0.09492142,-0.023995273,0.044941694,0.10772931,0.09790734910850284,-0.07116298571000589,-0.7111236133767523,-0.23778104143612733,-36.16358838596159,323.8364116140384,-467.77604405431435,-407.1656620063332,-190.06157665666078,-39.07446858525384,24.732473636358602,42.48520711843946,-142.22341304340085,-136.9035150062107,64.92,1.0006333862304757,,14.0902296,66.3384596,20190515,115508,2019-05-15T11:55:08Z,99.443,0.61,1.12,7.29,9,9,18,0.04,0.01,-0.23,0,0,0,10,5,5,14.090024082713995,66.33866566282857,30,,,,,,,,,,,,,,,false,false,false,false,false,false,true,false,false,false,5445,5428,4411,4621,57,73,74,57,1531,1526,1415,1448,1520,1525,1429,1443,0.0,0.0,0.0,0.0,1647.2,1646.6,1645.9,1647.8,4.63,3.88,2.83,2.9,0,0,0,0,-172.97076386865382,14.090230143717514,66.338458998281,0,-74.15591,-73.29277,-0.004142224,0.008744322,-0.97993404,0.9799818,8.604073,0.6520449,8.659904,12.22494,394,301,1493,1573.0,-0.05282593,0.0053272774,-0.012246132,0.05448786,0.05309387033023973,-0.032041896158023594,-0.6794162458119315,-0.2856300850259954,-36.748621236730244,323.25137876326977,-467.05478804920716,-405.04372259313686,-157.40846371629618,-39.50161546530299,24.7516307434437,42.027381046171236,25.080679524902862,30.400577562092995,64.9,NONE,0.0,0.0,0.0,NONE,4.269322127971164E-10,-1.4050045036201187E-9,-3.6621094E-4,2,52.99,52.71,39.15,42.32,16.493,16.493,5.937,7.4648275,0,3434,4.151,12.0,7.881,96,26.0,OK,227,0,0,0,0,0,65,100,0.0,0,0.0,-112.51953,2.66E-43,0.0,3.041665E-35,64,1.20388E-6,-4.6043178E-7,2.0817248E-22,False,False,0,None,-6.0224807E-33,2.5615635E-19,
917013196,24.270,14.090229766198265,66.33845890099195,18,-72.88204,-73.2444,-0.002627689,0.0035380824,-0.64196515,0.6419803,4.341236,-1.9297712,1.1367632,4.884934,382,301,1487,1564.0,-0.16379952,-0.0068778647,-2.235692,2.241695,0.16394386089083138,-0.13761490997653666,-0.35656814326760544,0.582882744735217,-36.226919230017145,323.77308076998287,-464.9630213580377,-404.47766473018675,-189.6342246091294,-38.000791467615954,24.755423276357178,42.56843618982491,-160.0373390077591,-154.71744097056896,64.93,2.417183068847663,,14.0902292,66.3384595,20190515,115509,2019-05-15T11:55:09Z,100.395,0.61,1.12,7.25,9,9,18,-0.37,-0.02,-1.15,0,0,0,0,5,5,14.090024082713995,66.33866566282857,30,,,,,,,,,,,,,,,false,false,false,false,false,false,true,false,false,false,4610,4663,3884,4024,58,74,74,59,1430,1435,1353,1371,1421,1418,1347,1366,0.0,0.0,0.0,0.0,1664.4,1661.9,1662.5,1667.4,2.84,2.26,1.82,1.68,0,0,0,0,-176.35311400987135,14.090229995083641,66.33845885840104,0,-72.39054,-71.73409,-0.0027159525,0.0033995481,-0.6274364,0.6274515,1.2237871,-4.170275,-0.3780666,4.362543,382,304,1484,1562.0,-0.06528815,-0.014139765,-2.1643715,2.1654022,0.06680176212323882,-0.050106485463866285,-0.16046171446712248,0.24170390069212763,-36.81027778202047,323.1897222179795,-467.5461010627882,-405.4134360664107,-159.23278236231198,-38.43887331053267,24.763610050983928,42.09608902693737,,,64.97,NONE,0.0,0.0,0.0,NONE,-4.0558551907566815E-10,-1.5763461916256184E-9,-0.006362915,2,36.18,37.11,27.69,29.16,16.675,16.675,5.945,7.4421473,1660,3432,4.142,12.0,6.972,96,26.0,OK,228,0,0,0,0,0,65,100,0.0,0,0.0,-82.7207,2.66E-43,0.0,3.041665E-35,64,5.473499E-6,-9.703002E-7,1.5016967E-22,False,False,0,None,-4.5245248E-33,4.9666907E-19,
920862999,25.270,14.09022884071103,66.33845892192723,18,-70.55059,-71.25485,-0.0035147553,-9.7320694E-4,-0.68556553,0.68557525,0.686807,3.8711011,3.1485403,5.036907,377,304,1484,1561.0,0.022964133,-0.023189396,-2.8594651,2.8596513,0.03263586210693802,0.008708072689780036,-0.37787555958308244,1.1995726859197389,-36.133549259615656,323.8664507403843,-465.3986153398821,-405.33613758357984,-190.07337363714853,-37.56672582127593,24.73797617828007,42.63265365643187,-33.86536239875936,-28.545464361569227,64.97,4.748634484863288,,14.0902285,66.3384594,20190515,115510,2019-05-15T11:55:10Z,102.207,0.61,1.12,7.24,9,9,18,-0.07,0.01,-1.67,0,0,0,0,5,5,14.090024082713995,66.33866566282857,30,,,,,,,,,,,,,,,false,false,false,false,false,false,true,false,false,false,4839,4962,4134,4282,57,75,75,57,1453,1466,1381,1392,1442,1455,1380,1385,0.0,0.0,0.0,0.0,1658.8,1658.2,1657.6,1661.9,3.16,2.53,1.93,1.66,0,0,0,0,-178.96589245511657,14.090228872783895,66.33845875450194,0,-70.465996,-69.72435,-0.003536435,-8.4397616E-4,-0.67679065,0.67680043,-0.2023657,5.251172,1.5187753,5.470141,377,304,1484,1561.0,0.004304766,0.004567211,-2.7518349,2.751842,0.006276179584312031,0.04509493956475592,-0.2930509506738926,0.8615081894464225,-36.73356557905566,323.26643442094434,-467.16616492004397,-404.4528595549653,-157.94412153829654,-37.96974573609356,24.75580577123692,42.19347113566292,-14.782293849579915,-9.462395812389783,64.97,NONE,0.0,0.0,0.0,NONE,-7.684776517549529E-10,-5.140258211273481E-11,-0.006072998,2,39.2,40.39,30.89,32.96,16.688,16.688,5.873,7.45197,1656,3429,4.093,12.0,9.157,96,26.0,OK,229,0,0,0,0,0,65,100,0.0,0,0.0,-18.507812,2.66E-43,0.0,3.041665E-35,64,4.313793E-5,-2.8739603E-6,8.853783E-23,False,False,0,None,-2.7831474E-33,1.2723561E-18,
924712487,26.271,14.090224434528547,66.33846216346876,18,-69.62203,-70.21006,-0.030321484,0.0055303806,-1.0484608,1.0489137,4.3677263,14.081458,2.1731522,14.902587,969,325,1199,1575.0,1.4858128,-1.0560583,0.0679332,1.8241473,1.8228820216201853,-1.4124841848568324,-0.26739461696401223,-23.861116759649942,-36.107360696599045,323.892639303401,-465.1292610296261,-404.460081632079,-212.64207316181805,-39.44843629354739,24.330443674706526,43.06331935369892,-39.99381386911535,-34.673915831925214,65.01,5.677192834472663,,14.0902236,66.3384626,20190515,115511,2019-05-15T11:55:11Z,103.795,0.61,1.12,7.23,9,9,18,1.19,-0.73,-1.01,0,10000,0,0,5,5,14.090024082713995,66.33866566282857,30,,,,,,,,,,,,,,,false,false,false,false,false,false,false,false,false,false,5345,5477,4833,5003,59,75,74,58,1510,1530,1486,1500,1520,1523,1460,1480,0.0,0.0,0.0,0.0,1641.1,1640.5,1640.5,1643.5,4.12,3.86,4.1,3.94,0,0,0,0,-177.79293850728484,14.090223140675976,66.33846223682134,0,-69.51153,-68.74477,-0.025456041,0.0065312367,-1.0392953,1.0396276,-2.8351574,13.129511,-2.748247,13.710399,969,325,1202,1577.0,1.4379224,-1.0208926,0.014710659,1.763536,1.7634745642718008,-1.29960911487023,-0.09606118385597506,-23.503671668819667,-36.70482670782679,323.2951732921732,-468.8294593436035,-405.45919352943076,-180.45671888250655,-38.612752668497926,24.301692825814946,42.68152663971984,-41.12929400848146,-35.80939597129132,64.99,NONE,0.0,0.0,0.0,NONE,-4.2778580465163926E-8,2.4262011529795695E-8,-8.392334E-5,2,48.99,51.32,43.96,44.97,16.642,16.642,5.915,7.552844,1633,3427,4.144,12.0,9.231,96,26.0,OK,230,0,0,0,0,0,65,100,0.0,0,0.0,-2.1329346,2.66E-43,0.0,3.041665E-35,64,1.3536587E-4,-5.1668917E-6,6.3299127E-23,False,False,0,None,-2.1313123E-33,2.1148959E-18,
928561974,27.271,14.090179420651088,66.33848796474389,19,-70.53376,-70.31468,-0.09977607,0.010429197,-1.0026133,1.0076196,-3.4721718,2.5159037,-3.7041316,5.6662455,687,293,1371,1561.0,3.7826695,-2.6502872,0.015839867,4.618751,4.618723967069734,-1.118027795476496,-1.1893798826459165,-11.086113970449981,-36.304449016510326,323.6955509834897,-466.3001523686081,-406.1435908818618,-200.57888015656016,-37.97176490219968,20.93984670994698,46.56632462403699,-40.43252754679408,-35.11262950960394,65.03,4.765464929199226,,14.09018,66.338488,20190515,115512,2019-05-15T11:55:12Z,103.637,0.6,1.09,7.24,9,10,19,3.75,-2.62,-0.19,0,6483,0,0,5,5,14.090024082713995,66.33866566282857,30,,,,,,,,,,,,,,,false,false,false,false,false,false,false,false,false,false,4893,4853,5026,5104,59,75,75,58,1482,1482,1481,1480,1466,1471,1477,1471,0.0,0.0,0.0,0.0,1645.9,1645.3,1644.7,1649.0,3.96,3.17,3.74,3.2,0,0,0,0,-17.08175686914234,14.090178393178217,66.33848822162616,0,-70.54555,-68.878426,-0.104413666,0.01476344,-1.0140921,1.0195602,1.2233341,12.592371,1.6001704,12.752447,684,293,1374,1562.0,3.8568404,-2.8122807,0.0173636,4.773305,4.773273471442707,-1.2626175757670253,-1.0672406536335126,-11.282629334832064,-36.98441152458423,323.01558847541577,-469.6597532343052,-407.6874283942434,-165.4510496578762,-38.31859218325351,20.897741419819436,46.19477767388481,-41.06511702432425,-35.745218987134116,65.01,NONE,0.0,0.0,0.0,NONE,-1.4026858614801883E-7,7.804623188012042E-8,3.0517578E-5,2,42.62,41.89,45.86,47.34,16.603,16.603,5.931,7.7067027,1599,3425,4.171,12.0,7.032,95,26.0,OK,231,0,0,0,0,0,65,100,0.0,0,0.0,-1.4970691E-11,2.66E-43,0.0,3.041665E-35,64,1.1696294E-4,-4.799485E-6,4.69209E-23,False,False,0,None,-1.552875E-33,1.9666122E-18,
932440641,28.279,14.090114182296773,66.33852415715924,19,-71.23532,-70.45153,-0.08741242,0.012410843,-0.9635143,0.96755093,0.97907263,26.205757,-4.9609036,26.689152,349,284,1487,1553.0,4.1204166,-3.032373,-0.0057048686,5.11597,5.1159670240638375,-0.18855541567063216,-1.2965096572492059,4.313689821735825,-36.30998605870064,323.69001394129936,-465.3295209061551,-406.5884341687201,-184.21697958147558,-34.65831573350874,16.24031563668998,51.5341956172801,-42.615374220599584,-37.29547618340945,64.93,4.063903955078132,,14.0901125,66.3385248,20190515,115513,2019-05-15T11:55:13Z,103.579,0.6,1.09,7.2,9,10,19,4.33,-3.14,-0.08,0,2436,0,0,5,5,14.090024082713995,66.33866566282857,30,,,,,,,,,,,,,,,false,false,false,false,false,false,false,false,false,false,4340,4290,5113,5111,58,76,75,59,1422,1425,1504,1490,1408,1418,1501,1476,0.0,0.0,0.0,0.0,1649.6,1649.6,1648.4,1652.7,2.88,2.25,4.34,3.52,0,0,0,0,-1.7248221997880364,14.090111228612757,66.33852507020013,0,-71.521774,-68.88534,-0.08623286,0.011105563,-0.9629391,0.9668563,-3.228751,29.964935,5.9276695,30.715784,323,284,1490,1550.0,4.1977267,-3.0840595,-0.077366725,5.209445,5.208870496388304,-0.1727646453670717,-1.2422947498528514,4.4221919383735475,-36.891934298374515,323.1080657016255,-468.79692076805645,-408.5962109072506,-148.16048161099806,-35.92749061371366,16.109643616081982,51.27249433630863,-41.61231622603597,-36.292418188845836,64.93,NONE,0.0,0.0,0.0,NONE,-5.328443595080364E-7,2.9140115836062554E-7,-6.866455E-4,2,33.29,33.03,51.65,49.0,16.623,16.623,5.939,7.7960243,1579,3421,4.145,12.0,7.066,95,26.0,OK,232,0,0,0,0,0,65,100,0.0,0,0.0,NaN,2.66E-43,0.0,3.041665E-35,64,1.1529587E-4,-4.7474473E-6,4.550435E-25,False,False,0,None,-2.6162096E-35,1.9456481E-18,
936294791,29.281,14.090061291045993,66.33855238240582,18,-69.90022,-70.58175,-0.031627048,0.010834218,-1.1075946,1.1080991,-3.0411425,-9.156267,-5.258917,10.988266,-211,263,1493,1530.0,1.3319886,-0.94111264,0.013291568,1.63097,1.6309158772257495,2.2895158256309474,-1.0701884911578248,22.095680524987223,-36.17286050100196,323.827139498998,-466.3368124131438,-405.07469108634814,-167.70424834598273,-38.61370377125257,12.70517923711136,55.46291294030084,-37.868545754620875,-32.54864771743074,64.81,5.3990022216796945,,14.0900608,66.338553,20190515,115514,2019-05-15T11:55:14Z,103.506,0.61,1.12,7.16,9,9,18,1.81,-1.36,-0.03,0,0,0,0,5,5,14.090024082713995,66.33866566282857,30,,,,,,,,,,,,,,,false,false,false,false,false,false,false,false,false,false,5410,5496,5056,5175,59,75,74,59,1508,1501,1527,1531,1518,1510,1484,1502,0.0,0.0,0.0,0.0,1641.1,1638.0,1638.0,1640.5,3.42,3.61,4.3,4.14,0,0,0,0,-177.20110148642368,14.090061098318548,66.33855258021357,0,-69.85204,-68.980804,-0.013876333,0.013062217,-1.055185,1.055357,-15.095927,-17.678528,-13.715751,26.991465,-206,263,1496,1532.0,1.3508931,-0.9326694,-0.11032889,1.6452833,1.641579922290069,2.141802935086025,-1.0785189024413189,20.475458012117862,-36.604379914488376,323.3956200855116,-469.02217527573544,-407.7776822910181,-136.34438123641183,-41.546881634101226,12.682249899946243,55.06312730613673,-40.03575663359569,-34.71585859640555,64.82,NONE,0.0,0.0,0.0,NONE,-3.068210371456231E-7,1.7207866413819558E-7,2.975464E-4,2,50.78,51.36,43.65,44.06,16.623,16.623,5.883,7.7884192,1580,3419,4.133,12.0,6.789,95,26.1,OK,233,0,0,0,0,0,65,100,0.0,0,0.0,1.237772E-33,2.66E-43,0.0,3.041665E-35,64,1.0649115E-4,-4.472358E-6,5.390115E-27,False,False,0,None,-5.1866392E-37,1.8346339E-18,
940151247,30.283,14.090059517710436,66.33855274505379,18,-69.63543,-70.52359,0.06354046,0.019318216,-0.97945625,0.9817052,2.683358,-61.67564,4.0514903,61.866787,-242,276,1475,1519.0,-1.4463481,1.0146508,0.02467332,1.7669317,1.766759457340625,-1.6781426029721445,-0.3923253697124554,21.988069354600572,-36.037448274064374,323.9625517259356,-469.4399920308213,-406.1318452035319,-170.9088479536601,-41.17045073375396,12.655069630639565,56.34282409896155,141.39310356030705,146.7130015974972,64.95,5.663795617675788,,14.0900589,66.3385532,20190515,115515,2019-05-15T11:55:15Z,103.387,0.61,1.12,7.17,9,9,18,-1.0,0.67,-0.01,0,-3432,0,0,5,5,14.090024082713995,66.33866566282857,30,,,,,,,,,,,,,,,false,false,false,false,false,false,false,false,false,false,5674,5599,4778,4868,58,74,73,58,1576,1588,1400,1423,1569,1560,1410,1427,0.0,0.0,0.0,0.0,1639.8,1636.7,1638.0,1641.7,5.88,4.38,2.68,1.98,0,0,0,0,-174.20922419937224,14.090060163173407,66.33855225449605,0,-69.83684,-68.88597,0.039659735,0.014654831,-1.0296563,1.030524,12.380343,-58.05038,8.029417,59.896503,-234,276,1475,1518.0,-1.442365,1.0446696,-0.06366623,1.7820787,1.7809411835251678,-1.725809986601294,-0.38972593043787607,19.543572106546772,-36.631348480675065,323.36865151932494,-470.7108449526522,-409.554317744754,-137.73254153029353,-46.41209141219081,12.712807532196047,55.969879506549276,138.60814415902158,143.92804219621172,64.95,NONE,0.0,0.0,0.0,NONE,1.2818145489840227E-7,-7.243478537205434E-8,-4.119873E-4,2,50.68,50.87,41.37,42.79,16.582,16.582,5.892,7.7412724,1589,3417,4.144,12.0,8.405,95,26.0,OK,234,0,0,0,0,0,65,100,0.0,0,0.0,-2.300447E37,2.65E-43,0.0,3.041665E-35,64,1.15523115E-4,-4.7545486E-6,4.682704E-27,False,False,0,None,-4.4557435E-37,1.9485069E-18,
944048864,31.296,14.090077492921486,66.33854214101731,18,-69.84033,-70.51732,0.0046368903,0.0099777905,-1.0181726,1.0182321,-4.1833415,5.505635,16.8506,18.214144,546,306,1423,1554.0,-0.42737535,0.27465895,0.025293194,0.5086521,0.508022851659027,0.8998184926981212,-0.8310675955771321,-5.974584338888243,-33.82120380477057,326.17879619522944,-466.9170070997245,-404.93694152023636,-200.84313332983447,-39.557635565388615,13.940271570501304,57.77019009957593,145.0334204629372,150.35331850012733,65.07,5.458892968750007,,14.0900768,66.3385425,20190515,115516,2019-05-15T11:55:16Z,103.246,0.61,1.12,7.15,9,9,18,-0.6,0.43,0.07,0,0,5357,0,5,5,14.090024082713995,66.33866566282857,30,,,,,,,,,,,,,,,false,false,false,false,false,false,false,false,false,false,5684,5592,4561,4507,59,75,75,59,1564,1530,1454,1424,1556,1517,1453,1416,0.0,0.0,0.0,0.0,1641.1,1639.2,1638.6,1644.1,5.38,3.8,3.66,2.05,0,0,0,0,-179.0140286678063,14.090077236768535,66.33854160246463,0,-69.79577,-68.8416,0.003020705,0.029594302,-1.0273175,1.0277481,3.1963933,-0.8181441,18.72874,19.01715,537,304,1423,1551.0,-0.4884222,0.3506735,0.013797746,0.60143036,0.6012720918066494,0.7890443267643055,-0.6841203384396843,-6.145435781137439,-36.153880039209454,323.84611996079053,-469.8382733461781,-408.26894122282954,-166.65302860870685,-40.039711187715575,13.99733614753914,57.379758241622554,144.92904355867643,150.24894159586657,65.07,NONE,0.0,0.0,0.0,NONE,3.071785474587557E-8,-1.7211292993381647E-8,2.2888184E-5,2,54.71,48.69,41.72,36.26,16.562,16.562,5.916,7.7192063,1592,3414,4.143,12.0,7.773,95,26.0,OK,235,0,0,0,0,0,65,100,0.0,0,0.0,1.776801E-11,2.66E-43,0.0,3.041665E-35,64,1.19987875E-4,-4.894014E-6,2.3617021E-26,False,False,0,None,-1.94829E-36,2.0048345E-18,
