Tick#,offsetTime,IMU_ATTI(0):Longitude,IMU_ATTI(0):Latitude,IMU_ATTI(0):numSats,IMU_ATTI(0):barometer:Raw,IMU_ATTI(0):barometer:Smooth,IMU_ATTI(0):accel:X,IMU_ATTI(0):accel:Y,IMU_ATTI(0):accel:Z,IMU_ATTI(0):accel:Composite,IMU_ATTI(0):gyro:X,IMU_ATTI(0):gyro:Y,IMU_ATTI(0):gyro:Z,IMU_ATTI(0):gyro:Composite,IMU_ATTI(0):mag:X,IMU_ATTI(0):mag:Y,IMU_ATTI(0):mag:Z,IMU_ATTI(0):mag:Mod,IMU_ATTI(0):velN,IMU_ATTI(0):velE,IMU_ATTI(0):velD,IMU_ATTI(0):velComposite,IMU_ATTI(0):velH,IMU_ATTI(0):GPS-H,IMU_ATTI(0):roll,IMU_ATTI(0):pitch,IMU_ATTI(0):yaw,IMU_ATTI(0):yaw360,IMU_ATTI(0):totalGyro:Z,IMU_ATTI(0):totalGyro:X,IMU_ATTI(0):totalGyro:Y,IMU_ATTI(0):magYaw,IMU_ATTI(0):distanceHP,IMU_ATTI(0):distanceTravelled,IMU_ATTI(0):directionOfTravel[mag],IMU_ATTI(0):directionOfTravel[true],IMU_ATTI(0):temperature,General:relativeHeight,General:absoluteHeight,GPS(0):Long,GPS(0):Lat,GPS(0):Date,GPS(0):Time,GPS:dateTimeStamp,GPS(0):heightMSL,GPS(0):hDOP,GPS(0):pDOP,GPS(0):sAcc,GPS(0):numGPS,GPS(0):numGLNAS,GPS(0):numSV,GPS(0):velN,GPS(0):velE,GPS(0):velD,RC:Aileron,RC:Elevator,RC:Rudder,RC:Throttle,Controller:navHealth,Controller:ctrl_level,HP:Longitude,HP:Latitude,HP:rthHeight,BatBlackBox:tick,BatBlackBox:id,BatBlackBox:rsoc,BatBlackBox:index,BatBlackBox:rm,BatBlackBox:fcc,BatBlackBox:cell_min,BatBlackBox:cell_max,BatBlackBox:current,BatBlackBox:voltage,BatBlackBox:temp,BatBlackBox:flag,BatBlackBox:reserve,BatBlackBox:user_data,OA:avoidObst,OA:emergBrake,OA:radiusLimit,OA:airportLimit,OA:groundForceLanding,OA:horizNearBoundary,OA:vertLowLimit,OA:vertAirportLimit,OA:roofLimit,OA:hitGroundLimit,Motor:Speed:RFront,Motor:Speed:LFront,Motor:Speed:LBack,Motor:Speed:RBack,Motor:EscTemp:RFront,Motor:EscTemp:LFront,Motor:EscTemp:LBack,Motor:EscTemp:RBack,Motor:PPMrecv:RFront,Motor:PPMrecv:LFront,Motor:PPMrecv:LBack,Motor:PPMrecv:RBack,Motor:PPMsend:RFront,Motor:PPMsend:LFront,Motor:PPMsend:LBack,Motor:PPMsend:RBack,Motor:V_out:RFront,Motor:V_out:LFront,Motor:V_out:LBack,Motor:V_out:RBack,Motor:Volts:RFront,Motor:Volts:LFront,Motor:Volts:LBack,Motor:Volts:RBack,Motor:Current:RFront,Motor:Current:LFront,Motor:Current:LBack,Motor:Current:RBack,Motor:Status:RFront,Motor:Status:LFront,Motor:Status:LBack,Motor:Status:RBack,Motor:thrustAngle,IMU_ATTI(1):Longitude,IMU_ATTI(1):Latitude,IMU_ATTI(1):numSats,IMU_ATTI(1):barometer:Raw,IMU_ATTI(1):barometer:Smooth,IMU_ATTI(1):accel:X,IMU_ATTI(1):accel:Y,IMU_ATTI(1):accel:Z,IMU_ATTI(1):accel:Composite,IMU_ATTI(1):gyro:X,IMU_ATTI(1):gyro:Y,IMU_ATTI(1):gyro:Z,IMU_ATTI(1):gyro:Composite,IMU_ATTI(1):mag:X,IMU_ATTI(1):mag:Y,IMU_ATTI(1):mag:Z,IMU_ATTI(1):mag:Mod,IMU_ATTI(1):velN,IMU_ATTI(1):velE,IMU_ATTI(1):velD,IMU_ATTI(1):velComposite,IMU_ATTI(1):velH,IMU_ATTI(1):GPS-H,IMU_ATTI(1):roll,IMU_ATTI(1):pitch,IMU_ATTI(1):yaw,IMU_ATTI(1):yaw360,IMU_ATTI(1):totalGyro:Z,IMU_ATTI(1):totalGyro:X,IMU_ATTI(1):totalGyro:Y,IMU_ATTI(1):magYaw,IMU_ATTI(1):distanceHP,IMU_ATTI(1):distanceTravelled,IMU_ATTI(1):directionOfTravel[mag],IMU_ATTI(1):directionOfTravel[true],IMU_ATTI(1):temperature,IMUEX(0):err,IMUEX(0):rtk_Longitude,IMUEX(0):rtk_Latitude,IMUEX(0):rtk_Alti,IMUEX(1):err,IMUEX(1):rtk_Longitude,IMUEX(1):rtk_Latitude,IMUEX(1):rtk_Alti,MotorCtrl:Status,MotorCtrl:PWM:RFront,MotorCtrl:PWM:LFront,MotorCtrl:PWM:LBack,MotorCtrl:PWM:RBack,BattInfo:Voltage,BattInfo:BatVoltage,BattInfo:AdVoltage,BattInfo:AvgCurrent,BattInfo:R_time,BattInfo:R_CAP_MAH,BattInfo:LowCellVoltage,BattInfo:LowCellVolThreshold,BattInfo:BatCurrent,BattInfo:Remaining%,BattInfo:Temp,BattInfo:status,battery_info:BatDynCnt,battery_info:Vol1Protect,battery_info:Vol2Protect,battery_info:Cap1Protect,battery_info:Cap2Protect,battery_info:Batpresent,battery_info:sopPercentage,battery_info:sopValue,battery_info:sopScale,battery_info:sopFlg,BattInfo:WindHeading:WindDir,battery_info:home_dir,BattInfo:Wind:rangeMin,BattInfo:Wind:rangeMax,battery_info:cap_speed,battery_info:against_wind,battery_info:emergency_land_cap,battery_info:intel_bat_land_cap,battery_info:intel_bat_gh_cap,BattInfo:Smart:SmartGh,BattInfo:Smart:SmartLand,BattInfo:GoHome:CntDown,BattInfo:GoHome:GhCmd,BattInfo:GoHome:CapLevel,BattInfo:GoHome:LandCapLv,Attribute|Value,ConvertDatV3,3.6.6-Tablet
204968198,.000,9.106538307217438,62.688715028109605,18,570.2179,570.13745,0.07281164,-0.003069174,-0.98085946,0.98356307,0.37257776,-0.12625158,0.058968704,0.39778253,375,94,1473,1522.0,0.0018605357,-0.014056084,-0.0075743482,0.016075006,0.014178684255941522,-0.014178684255941522,0.18651123862214083,4.166453810202255,-7.7879688031654855,352.2120311968345,1.030830492279724,4.619152470932426,-0.9885618552862228,-10.505427839557136,0.8546150903248181,0.38653553249685163,-169.90079720923296,-167.39473458770948,38.2,,,9.1065383,62.6887154,20190822,90652,2019-08-22T09:06:52Z,612.725,0.59,1.14,6.99,9,9,18,0.01,0.01,0.01,0,0,0,0,5,5,9.106542153887325,62.68872250845285,120,8304201,181,54,275,1818,3664,3889,3891,0,15554,27,58118,2,0,false,false,false,false,false,false,false,false,false,false,0,0,0,0,44,56,56,44,944,945,943,944,940,940,940,940,0.0,0.0,0.0,0.0,1721.4,1712.8,1713.4,1720.8,0.0,0.0,0.0,0.0,0,0,0,0,-45.0,9.10653828344575,62.688714520061005,0,570.30774,570.50287,0.072587796,-0.0034736893,-0.9797563,0.9824477,0.26050696,0.09260314,0.06961534,0.28510615,375,91,1470,1519.0,0.0021463477,2.44919E-4,2.1886763E-4,0.0021713353,0.0021602763149118306,-0.0021602763149118306,0.2587829221325398,3.574519261548317,-11.128583059636126,348.8714169403639,0.8982435803542295,4.658660503011968,-1.0039029460828908,-10.262280189322242,0.9099527277765824,0.34824369248162557,-22.347406568379604,-19.841343946856107,38.23,NONE,0.0,0.0,0.0,NONE,-9.393323026086318E-11,9.181934131094672E-11,0.0,,,,,,17.3,17.3,6.185,1.223174,0,3669,4.321,12.0,1.228,100,20.3,OK,50,0,0,0,0,0,65,100,0.0,0,0.0,1.5015342E29,8.7E-44,0.0,-1.05007105E-23,62,1.5869364E-4,-1.5869462E-4,4.9493103E-31,False,False,0,None,3.7096111E31,1.0842106E-19,Firmware Date| Oct 17 2018
208822008,1.002,9.106538544766618,62.688714847839634,18,570.39764,570.12866,0.07206125,-0.0048019914,-0.9795441,0.9822029,0.79263586,-0.012335284,0.049024038,0.79424626,372,82,1443,1492.0,-0.0026720916,0.0017869003,-0.0054409346,0.006319561,0.0032145118945950653,0.02017245951338138,0.20885126123965106,4.179657284086806,-7.796233332884141,352.2037666671159,1.1348164062968384,5.080438032397744,-0.9928462094134053,-9.154433032593206,0.8714956936008739,0.4290658404224483,146.7923107428744,149.29837336439792,38.45,0.1987910429687645,,9.1065385,62.6887153,20190822,90653,2019-08-22T09:06:53Z,612.69,0.59,1.14,6.95,9,9,18,0.01,0.01,0.01,0,0,0,0,5,5,9.106542153887325,62.68872250845285,120,8909002,181,54,276,1784,3646,3885,3887,0,15539,24,58118,1,0,false,false,false,false,false,false,false,false,false,false,350,358,374,367,49,61,58,49,1300,1308,1304,1303,1292,1292,1292,1292,0.1,0.1,0.1,0.1,1675.4,1667.4,1668.0,1674.1,8.01,7.42,8.2,7.64,0,0,0,0,24.44395478041656,9.106538531098519,62.68871441777963,0,570.39764,570.4966,0.07254245,-0.004576443,-0.9794288,0.9821223,0.43142202,0.030621516,0.09341744,0.442481,375,82,1452,1501.0,0.006193165,-0.0011047267,0.011761799,0.0133385025,0.006290923308478583,0.010681886587407017,0.25625823935795217,3.574171774731055,-11.119395583177898,348.8806044168221,0.9597180018854016,5.081559928829039,-0.9340844361622266,-9.226673677088794,0.9184322843191247,0.3824206722989702,-29.830958803242776,-27.32489618171928,38.44,NONE,0.0,0.0,0.0,NONE,2.3337448419411106E-12,6.317598993687084E-11,0.0,1,22.5,22.5,22.5,22.5,17.018,17.018,6.011,1.2596887,0,3668,4.321,12.0,2.975,100,20.3,OK,51,0,0,0,0,0,65,100,0.0,0,0.0,4.41064252E18,8.7E-44,0.0,-1.05007105E-23,62,1.5869364E-4,-1.5869462E-4,5.3852927E-31,False,False,0,None,4.137567E31,1.0842106E-19,ACType|MavicEnterprise
212721326,2.015,9.106538652002373,62.68871473677405,18,570.39764,570.1247,0.074130245,-0.00787198,-0.9767943,0.9796348,1.9637603,2.1293418,-0.78440064,3.0009558,372,82,1455,1504.0,0.005166644,-8.509059E-4,-6.3475117E-4,0.005274577,0.005236244344087747,0.008092471450852253,0.1505753373078418,4.134936279511527,-7.8716213049348465,352.1283786950652,0.06168864926586213,7.210398811318188,-2.5029777842847425,-9.327478027021778,0.8824467421470982,0.4613601424638066,,,38.77,0.1987910429687645,,9.1065386,62.6887152,20190822,90654,2019-08-22T09:06:54Z,612.662,0.59,1.14,6.92,9,9,18,0.0,0.01,0.01,0,0,0,0,5,5,9.106542153887325,62.68872250845285,120,9513803,181,54,277,1757,3638,3881,3883,0,15524,23,58118,5,0,false,false,false,false,false,false,false,false,false,false,2343,2404,2433,2432,48,61,60,48,1205,1205,1208,1211,1200,1200,1203,1204,0.0,0.0,0.0,0.0,1713.4,1707.3,1708.5,1714.6,0.02,0.08,0.04,0.02,0,0,0,0,27.71850162818339,9.106538618985313,62.68871433599591,0,570.39764,570.42004,0.06905483,-0.0027151145,-0.98005754,0.9824911,0.9149574,-2.024341,-0.17577548,2.2284527,375,82,1455,1504.0,0.068973236,-0.012799633,0.07306451,0.101289496,0.07015082527376693,-0.06014576776120633,0.23769393335639633,3.4494992195475653,-11.29409562325821,348.7059043767418,0.8645356087783794,4.50350363266411,-0.2534425969336776,-9.339436568461888,0.9264586938048853,0.42151965879495,-22.28657780892037,-19.780515187396873,38.72,NONE,0.0,0.0,0.0,NONE,-1.6528748027408257E-9,3.749016546668452E-9,2.4414062E-4,2,10.49,10.0,10.85,11.29,17.005,17.005,6.147,1.4131522,0,3667,4.231,12.0,4.336,100,20.3,OK,52,0,0,0,0,0,65,100,0.0,0,0.0,2.88264461E15,8.7E-44,0.0,-1.05007105E-23,62,1.5869364E-4,-1.5869462E-4,5.515293E-31,False,False,0,None,4.3686904E31,1.0842106E-19,dateTime|2019-8-22 9:6:39 GMT
216870912,3.093,9.106538861618267,62.6887146166934,18,570.39764,570.12384,0.07010238,-0.0023114681,-0.9804978,0.9830034,2.2866316,-0.34364685,0.09282176,2.3141723,372,82,1458,1506.0,-0.010988126,-0.0069163647,-0.0015572738,0.013076701,0.012983643673664176,0.0028789676499367256,0.150540156933489,4.187051056873331,-7.88174587791787,352.11825412208213,0.03544615064688073,7.652929448239243,-2.499142061862719,-9.297590842348864,0.893454523638085,0.5012298484548194,155.93827701981428,158.4443396413378,39.11,0.1987910429687645,,9.1065388,62.6887151,20190822,90655,2019-08-22T09:06:55Z,612.626,0.59,1.14,6.89,9,9,18,-0.01,0.01,0.0,0,0,0,0,5,5,9.106542153887325,62.68872250845285,120,10055957,48,54,278,1742,3635,3878,3880,0,15511,23,212,4,0,false,false,false,false,false,false,false,false,false,false,2343,2404,2433,2432,48,61,60,48,1205,1205,1208,1211,1200,1200,1203,1204,0.0,0.0,0.0,0.0,1713.4,1707.3,1708.5,1714.6,0.02,0.08,0.04,0.02,0,0,0,0,27.71850162818339,9.106538823194542,62.68871425014294,0,570.39764,570.46094,0.07464919,-0.0075773923,-0.97887653,0.981748,-0.21897571,0.7020529,0.1303485,0.7468731,372,82,1458,1506.0,0.021323834,-0.006057806,0.004629491,0.02264586,0.022167608545964727,-0.009064817889228652,0.21308559279507236,3.4373019679506442,-11.308712689714106,348.6912873102859,-0.15530249837885807,3.9204675789390393,-0.4290144631278907,-9.47645370354676,0.9338724867344818,0.45624289025319437,,,39.09,NONE,0.0,0.0,0.0,NONE,-1.406081269769335E-10,1.2323333550513685E-9,0.0,2,10.0,10.09,10.36,10.29,17.136,17.136,6.148,1.6678928,0,3666,4.231,12.0,1.789,100,20.3,OK,53,0,0,0,0,0,65,100,0.0,0,0.0,858336.0,8.7E-44,0.0,-1.05007105E-23,62,1.5869364E-4,-1.5869462E-4,5.699821E-31,False,False,0,None,4.6967445E31,1.0842106E-19,geoDeclination|251 degrees
220725574,4.095,9.106538796965784,62.68871471490079,18,570.39764,570.1226,0.07355008,0.0012821639,-0.9760089,0.9787771,-1.4307166,-0.04447779,-1.1822473,1.8565121,384,82,1452,1504.0,-0.0035727953,-0.012615493,-0.003921666,0.013685576,0.013111656117843712,-0.0017248020819836032,0.1247413564400838,4.147614037737413,-7.928728339813104,352.0712716601869,0.028917105531567802,7.8865394383287555,-2.453529505937205,-9.176640102527854,0.8833650436643717,0.5291747106778998,89.13655962599718,91.64262224752068,39.36,0.1987910429687645,,9.1065388,62.688715,20190822,90656,2019-08-22T09:06:56Z,612.599,0.59,1.14,6.86,9,9,18,0.0,-0.01,0.01,0,0,0,0,5,5,9.106542153887325,62.68872250845285,120,10055957,48,54,278,1742,3635,3878,3880,0,15511,23,212,4,0,false,false,false,false,false,false,false,false,false,false,2090,2064,2146,2161,49,60,60,49,1205,1205,1210,1210,1200,1200,1205,1204,0.0,0.0,0.0,0.0,1711.6,1704.8,1704.8,1711.6,0.66,0.26,0.73,0.31,0,0,0,0,-15.00131846047151,9.106538928148785,62.6887142695735,0,570.39764,570.45355,0.07042543,-0.0068759373,-0.9810912,0.98363966,2.1685076,-0.45227122,1.9914798,2.9787524,375,82,1458,1507.0,0.032060448,-0.010943081,0.009864932,0.03528371,0.033876590836787894,-0.02811289992615783,0.2402508546346101,3.4340719432286884,-11.321305515953396,348.6786944840466,0.8276951241313488,5.174746925112556,0.40928585369688214,-9.334146323982534,0.9307863876959415,0.4810230546689134,89.16490003353533,91.67096265505883,39.32,NONE,0.0,0.0,0.0,NONE,-9.352482454466186E-10,2.1980091582051445E-9,1.2207031E-4,2,10.15,10.0,10.32,10.58,17.21,17.21,6.151,1.8924733,0,3666,4.215,12.0,1.805,100,20.4,OK,54,0,0,0,0,0,65,100,0.0,0,0.0,745616.0,8.7E-44,0.0,-1.05007105E-23,62,1.5869364E-4,-1.5869462E-4,5.9984607E-31,False,False,0,None,5.227573E31,1.0842106E-19,geoInclination|7435 degrees
224625305,5.109,9.106538871197351,62.68871464469939,18,570.39764,570.1204,0.07150168,-0.0028741653,-0.98099154,0.98359805,0.8966682,1.5216287,-3.5209312,3.9390767,378,82,1458,1508.0,0.012128478,-0.009706135,-0.009711232,0.018319855,0.01553412456572217,-0.006973636664135377,0.11534371434871063,4.1342945957611,-7.972185680439884,352.0278143195601,-0.1863750245547765,8.471454530392784,-2.2871024658960133,-9.31284034668974,0.8903040562647299,0.5682976648975874,-23.671762026841186,-21.16569940531769,39.69,0.1987910429687645,,9.1065389,62.688715,20190822,90657,2019-08-22T09:06:57Z,612.576,0.59,1.14,6.84,9,9,18,-0.01,0.0,0.02,0,0,0,0,5,5,9.106542153887325,62.68872250845285,120,10055957,48,54,280,1742,3635,3878,3880,0,15511,23,212,4,0,false,false,false,false,false,false,false,false,false,false,2114,2057,2148,2161,50,60,61,49,1206,1205,1209,1210,1200,1200,1205,1204,0.0,0.0,0.0,0.0,1710.9,1704.2,1704.8,1711.6,0.63,0.29,0.74,0.36,0,0,0,0,-26.896236965493358,9.106538924135945,62.68871422512787,0,570.39764,570.41113,0.07218058,-0.0038051708,-0.9826842,0.98533887,0.83194137,0.62003607,-0.8971031,1.3716286,378,82,1458,1508.0,0.058267746,0.0060603153,0.0068690986,0.058983404,0.05858205837588195,-0.0537016850111737,0.3146916037650842,3.3164210770453586,-11.460363063402848,348.53963693659716,0.589115691810008,5.7333827584144625,-0.11834338167540481,-9.10393815127873,0.9356870934710416,0.5053513171346861,8.891529890009341,11.397592511532839,39.69,NONE,0.0,0.0,0.0,NONE,4.807514436217939E-10,4.150676007277793E-9,2.4414062E-4,2,20.18,20.39,21.6,21.48,17.208,17.208,6.151,2.0300035,0,3665,4.297,12.0,1.847,99,20.4,OK,55,0,0,0,0,0,65,100,0.0,0,0.0,136.23438,8.7E-44,0.0,-1.05007105E-23,62,1.5869364E-4,-1.5869462E-4,5.7867288E-31,False,False,0,None,4.8511156E31,1.0842106E-19,geoIntensity|5165842 nanoTesla
228664723,6.159,9.106538992672942,62.68871437555993,18,570.7498,570.4291,-0.011987385,0.0025469866,-1.1632006,1.1632652,-8.99297,-4.2714796,-3.7021303,10.621903,445,76,1431,1500.0,-0.101096965,0.015391925,-1.0990944,1.1038415,0.10226195903644784,-0.07315055267056907,-0.22090081274991535,1.613904750422674,-7.308459598688546,352.69154040131144,-0.5441197663145774,6.294874795874955,-6.614020056812682,-9.538560112306893,0.9186055852599546,0.6139615748809089,-176.59612952768038,-174.0900669061569,40.01,0.5509638945312645,,9.1065389,62.6887148,20190822,90658,2019-08-22T09:06:58Z,612.765,0.59,1.14,6.84,9,9,18,-0.09,-0.05,-0.31,0,0,0,6379,5,5,9.106542153887325,62.68872250845285,120,10055957,48,54,281,1742,3635,3878,3880,0,15511,23,212,4,0,false,false,false,false,false,false,true,false,false,false,6316,6303,5396,5537,48,59,59,47,1617,1623,1518,1530,1611,1617,1509,1520,0.0,0.0,0.0,0.0,1625.1,1618.4,1619.0,1624.5,5.64,5.12,4.2,3.77,0,0,0,0,-174.78105953033253,9.106539138798249,62.68871405244809,0,570.71014,570.6756,-0.010779048,0.011034743,-1.1523446,1.1524478,6.4375677,1.8285447,7.176653,9.8127575,445,76,1428,1497.0,-0.036540225,0.023312872,-1.0194056,1.0203266,0.04334372042388154,-0.022287976303942265,0.21314706442365408,1.0440785232101677,-10.772585348994909,349.2274146510051,1.5416903105159765,7.259223617604665,-4.883750407590121,-8.536051659253927,0.9527647154232572,0.5524472336649361,141.19503317257386,143.70109579409734,39.99,NONE,0.0,0.0,0.0,NONE,-2.1237077598746645E-10,1.32303588367171E-9,-0.0040283203,2,61.03,61.71,49.13,50.76,16.979,16.979,5.858,2.1476307,0,3665,4.297,12.0,4.086,99,20.4,OK,56,0,0,0,0,0,65,100,0.0,0,0.0,-2.1488571E-27,8.7E-44,0.0,-1.05007105E-23,62,1.7584115E-4,-1.6727023E-4,2.2682437E-32,False,False,0,None,1.9000445E29,1.1500542E-19,mcID(SN)|298DG13001W644
232514297,7.159,9.106539378650828,62.688713176004114,18,572.80756,572.1884,-0.020371944,0.0043410687,-1.3082846,1.3084503,3.6437972,5.4631915,8.738146,10.930641,521,88,1407,1502.0,-0.11556994,-0.038964905,-2.7248893,2.7276173,0.12196177807472375,0.01280289705923257,0.44087188017754153,-0.9001855209373646,-6.7700011939506854,353.2299988060493,1.935679560181419,10.64974075248076,-7.180460399363852,-8.794339781408599,0.15500733105554454,0.7669523647340334,-165.85586688897882,-163.3498042674553,40.28,2.6087031523437645,,9.1065391,62.6887135,20190822,90659,2019-08-22T09:06:59Z,614.372,0.59,1.14,6.87,9,9,18,-0.14,-0.03,-1.5,0,0,1508,9129,5,5,9.106539085710603,62.68871456352372,120,10055959,114,48,282,1742,3635,3878,3880,0,15511,23,3642,1920,0,false,false,false,false,false,false,true,false,false,false,6250,6303,5288,5530,48,59,59,48,1602,1611,1508,1524,1597,1602,1497,1515,0.0,0.0,0.0,0.0,1629.4,1621.4,1621.4,1627.6,5.36,4.59,3.96,3.58,0,0,0,0,-173.78307157337895,9.106539203215572,62.68871268501184,0,572.34796,572.31836,-0.009419315,6.512087E-4,-1.1553046,1.1553432,-1.0250138,1.8080044,0.5222853,2.142969,539,82,1401,1503.0,-0.050449125,-0.03332353,-2.531235,2.531957,0.06046132611998753,0.09155212439465046,0.6041689370383826,-2.1442481653386993,-10.34046821605251,349.6595317839475,1.4389066463940885,8.518017131609982,-6.202979964621861,-7.872283853457124,0.2089670020829586,0.7233404838824656,-167.18876683702837,-164.68270421550488,40.28,NONE,0.0,0.0,0.0,NONE,-1.9720135437964643E-9,-2.3877035442349976E-9,-0.015136719,2,69.17,71.16,58.14,60.25,16.675,16.675,5.81,2.440041,0,3662,4.296,12.0,9.375,99,20.4,OK,57,0,0,0,0,0,65,100,0.0,0,0.0,1.4415732E26,2.62E-43,0.0,-3.3654391E38,62,0.0010617077,-4.1347937E-4,6.441372E-32,False,False,0,None,1.09861376E30,2.611459E-19,mcVer|v3.4.1.6
236375948,8.163,9.10653983413244,62.68871280246512,18,575.7989,575.3243,-0.013630196,-0.0043300567,-0.5862722,0.5864466,0.46204406,2.449201,48.112064,48.176582,545,-25,1395,1497.0,-0.029504355,-0.012006119,-2.0490537,2.0493011,0.03185363128643918,0.015568788763476255,-0.0754439932607837,-1.4220520569045396,9.855562398858998,9.855562398858979,21.575711351542697,13.410552802272067,-7.0201551406591065,2.599388025614811,0.1995088322021114,0.86756413388574,64.8513247764026,67.3573873979261,40.59,5.6000361601562645,,9.1065402,62.6887134,20190822,90700,2019-08-22T09:07:00Z,617.543,0.59,1.14,6.89,9,9,18,0.01,0.1,-2.73,0,0,8854,5852,5,5,9.106539085710603,62.68871456352372,120,10059634,16,48,283,1742,3635,3879,3880,0,15513,25,1,17514,0,false,false,false,false,false,false,true,false,false,false,5343,5186,4802,4421,49,59,59,49,1492,1478,1434,1406,1488,1468,1420,1395,0.0,0.0,0.0,0.0,1661.9,1655.8,1655.2,1661.9,3.42,2.53,2.6,1.7,0,0,0,0,170.26755080811085,9.106539993687484,62.68871249280503,0,575.796,575.98645,-0.015460797,-0.002511017,-0.6299243,0.630119,1.5525848,3.6815147,46.69565,46.866276,542,-46,1398,1500.0,0.0836431,0.009637194,-1.900861,1.9027249,0.08419646053977461,-0.03871911728455806,-0.011620094479570508,-2.039596164531577,9.21396903041734,9.213969030417331,22.896446045248503,12.505165592501546,-8.292426990855677,5.309720345032718,0.23486709192551958,0.8340921564593428,52.07168508625364,54.577747707777135,40.61,NONE,0.0,0.0,0.0,NONE,6.225259001905839E-10,2.1677913629452224E-9,-0.013977051,2,40.63,41.58,33.78,32.5,16.481,16.481,5.968,3.0788286,0,3660,4.2,12.0,9.393,99,20.5,OK,58,0,0,0,0,0,65,100,0.0,0,0.0,6.542128E-13,2.66E-43,0.0,-3.3654391E38,62,0.03117323,-0.002241329,1.6989489E-31,False,False,0,None,5.9905466E30,1.1491922E-18,
240296056,9.182,9.106540785445553,62.688713244252206,18,577.3996,576.58594,-0.012907676,0.019772787,-0.8006689,0.801017,-1.3481759,-3.309926,48.00592,48.138775,431,-243,1431,1514.0,-0.10996071,-0.098522596,-1.585828,1.5926859,0.14764165856658373,-0.07986025444868046,-0.9819648337727506,1.1505900799885993,36.5179132400473,36.51791324004728,49.44233418222544,12.884577513682867,-4.049217375035143,25.414817032075625,0.1704110927054036,0.9686867520604663,-160.03599549022988,-157.52993286870637,40.89,7.2007441679687645,,9.1065418,62.6887136,20190822,90701,2019-08-22T09:07:01Z,619.265,0.59,1.14,6.9,9,9,18,-0.04,-0.02,-1.94,0,0,6882,6549,5,5,9.106539085710603,62.68871456352372,120,10059634,18,48,284,1762,3646,3942,3950,3291,15779,25,1,15857,0,false,false,false,false,false,false,true,false,false,false,5439,5224,4909,4263,47,61,61,48,1481,1448,1436,1353,1470,1439,1410,1345,0.0,0.0,0.0,0.0,1670.5,1662.5,1665.0,1669.9,2.86,1.16,2.46,0.02,0,0,0,0,163.87712415668878,9.106541292387499,62.688712473727094,0,577.2412,577.0973,-0.01427553,0.0037845615,-0.6801377,0.68029803,3.4348433,-4.867982,55.968006,56.284218,428,-258,1428,1512.0,0.022685599,0.0015610319,-1.3186688,1.318865,0.022739243694757293,0.042328562821921344,-0.8654333317308173,0.07511259594699463,36.35021599360528,36.350215993605275,44.6308701838881,5.389611100849337,-7.755876527254028,28.80770471901981,0.25821082566285386,0.9692967036444504,-173.46370134676005,-170.95763872523656,40.91,NONE,0.0,0.0,0.0,NONE,3.462690116407969E-10,1.0941514714059454E-9,-0.0068359375,2,45.47,39.25,38.83,28.36,16.344,16.344,5.908,3.9585001,0,3657,4.095,12.0,7.556,99,20.5,OK,59,0,0,0,0,0,65,100,0.0,0,0.0,4.575273E-39,2.68E-43,0.0,-3.3654391E38,62,0.15641785,-0.004983218,2.618799E-31,False,False,0,None,1.2442535E31,2.2548151E-18,
244150045,10.183,9.106538266109373,62.68871216474202,18,578.6125,577.5546,-0.009456872,-0.0077536376,-1.0633084,1.0633787,-2.2632215,5.314745,44.879654,45.249886,133,-482,1440,1524.0,0.0061007505,-0.21171284,-1.1630576,1.1821854,0.21180071634139044,-0.03621949351758394,-1.2053017685917407,-0.1725150859194316,93.61357543454292,93.6135754345429,109.77465032745523,16.412706764145327,-6.0644819428010885,74.10099212632215,0.26999011199550377,1.1692358817593924,-110.50862929775636,-108.00256667623286,41.22,8.413634792968764,,9.1065405,62.6887124,20190822,90702,2019-08-22T09:07:02Z,620.323,0.59,1.14,6.9,9,9,18,-0.15,-0.15,-1.44,0,0,7043,6508,5,5,9.106539085710603,62.68871456352372,120,10063071,114,99,285,3646,3646,4387,4391,216,17569,29,3635,17560,0,false,false,false,false,false,false,true,false,false,false,5390,5221,4609,4479,47,60,61,47,1528,1521,1447,1447,1525,1524,1445,1438,0.0,0.0,0.0,0.0,1641.7,1636.1,1634.9,1641.1,4.72,4.17,3.46,3.11,0,0,0,0,-178.53312726796466,9.106539221172424,62.68871169561571,0,578.51746,577.90894,-0.010584041,-0.0035014846,-1.0684279,1.0684861,3.1984887,-8.450993,49.855476,50.667725,148,-482,1440,1525.0,-0.018125057,-0.101133294,-1.0564716,1.061456,0.10274463663959524,0.03360657501372741,-1.5608087645341713,-0.7700428465722016,88.56285873787942,88.56285873787942,94.574134151518,3.7092960125488132,-11.884048344322869,73.81457904503264,0.3189717012335288,1.1090019469672845,-108.47987013226984,-105.97380751074634,41.19,NONE,0.0,0.0,0.0,NONE,-9.764959814059606E-9,-1.745903963560792E-9,-0.004638672,2,65.4,70.22,50.75,56.54,16.399,16.399,5.807,4.8485312,0,3655,4.127,12.0,7.554,99,20.5,OK,60,0,0,0,0,0,65,100,0.0,0,0.0,-3.368582E25,8.5E-44,0.0,-3.3654391E38,62,0.40720367,-0.007673533,3.947827E-31,False,False,0,None,2.8195322E31,3.2872954E-18,
248049509,11.197,9.106534836611319,62.688712058905374,18,582.63544,580.47064,-0.0014683033,0.008423901,-1.0479813,1.0480161,-3.135237,-1.8644781,-3.4857526,5.0454392,34,-488,1437,1517.0,0.19859795,-0.14715266,-4.083375,4.090849,0.24717413187350062,-0.07413725189689535,-1.3980064458360446,-0.3576534270471349,103.09314917839968,103.0931491783997,119.78549162753063,16.095431554357816,-6.694271757613029,86.84510415731516,0.352928197006448,1.3803185090012116,-53.971529463292185,-51.46546684176869,41.58,12.436584011718764,,9.1065362,62.6887117,20190822,90703,2019-08-22T09:07:03Z,623.072,0.59,1.14,6.91,9,9,18,-0.06,-0.23,-2.49,0,0,0,10000,5,5,9.106539085710603,62.68871456352372,120,10063266,19,100,286,3689,3689,4390,4394,180,17594,28,1,17598,0,false,false,false,false,false,false,false,false,false,false,7065,7204,6109,6193,48,62,61,48,1699,1710,1587,1595,1689,1697,1581,1588,0.0,0.0,0.0,0.0,1592.6,1584.6,1585.2,1593.2,6.37,5.73,4.75,4.09,0,0,0,0,178.39834926377495,9.10653683589356,62.68871142441974,0,579.74286,578.65295,-0.0012065351,0.0036194334,-1.4214973,1.4215025,3.4296424,5.820714,7.8831534,10.382065,40,-488,1431,1512.0,0.012107039,-0.062968336,-2.1306553,2.13162,0.06412169466367462,0.059589054907067895,-1.6346257708535432,-0.7524325010735682,99.85633245659541,99.8563324565954,105.96377487001448,4.378652384501595,-12.312751320331959,87.30635150073056,0.3674409055516664,1.234667673689651,-104.70750115359564,-102.20143853207215,41.33,NONE,0.0,0.0,0.0,NONE,-8.031569377138151E-9,2.963377563478114E-9,-0.01977539,2,65.24,66.51,53.73,53.86,16.323,16.323,5.736,5.730081,0,3653,4.088,12.0,12.202,99,20.6,OK,61,0,0,0,0,0,65,100,0.0,0,0.0,8.1570994E-24,8.8E-44,0.0,-3.3654391E38,62,6.48584,-0.030636912,1.101879E-30,False,False,0,None,1.4625271E32,1.1242087E-17,
251915917,12.202,9.106534266260617,62.68871326338968,18,587.0102,584.6246,0.009319155,0.0015037348,-1.055023,1.0550652,-3.3444068,-40.86777,0.09369525,41.004494,323,-451,1422,1526.0,0.17378682,0.29854277,-4.0668154,4.08146,0.34544123411912475,-0.20904725437063415,-0.6258737247288861,-14.964289648195907,102.92768369866695,102.92768369866695,115.65262482599826,14.028031223965813,-23.199569706680595,97.37862611437446,0.2852343253666059,1.5399567769282057,53.912146861390376,56.41820948291387,41.92,16.811339871093764,,9.1065344,62.6887126,20190822,90704,2019-08-22T09:07:04Z,627.477,0.59,1.14,6.92,9,9,18,0.08,-0.08,-3.91,0,9998,0,10000,5,5,9.106539085710603,62.68871456352372,120,10063266,48,100,287,3689,3689,4390,4394,182,17594,28,212,17590,0,false,false,false,false,false,false,false,false,false,false,6472,6570,5584,5680,48,62,61,48,1636,1645,1540,1545,1630,1635,1527,1542,0.0,0.0,0.0,0.0,1606.7,1601.2,1600.6,1608.5,5.45,4.93,4.12,3.64,0,0,0,0,179.93555033144264,9.106533748630065,62.68871232264526,0,586.6722,584.6936,0.0023235923,-0.0014294228,-1.0477651,1.0477687,11.3111315,-46.468994,9.354245,48.732033,256,-454,1428,1520.0,0.076740205,0.23101497,-3.9824877,3.9899204,0.24342755515287515,-0.05782335107159897,-0.489241835508306,-13.084696398614643,100.1432782634587,100.14327826345868,98.44890381684908,-5.259419836436313,-23.501766695844708,99.6095661521192,0.3690947778328162,1.4667602212799307,69.27724882088471,71.7833114424082,41.9,NONE,0.0,0.0,0.0,NONE,4.200731616990406E-10,5.242391584710064E-9,-0.020019531,2,67.08,68.41,51.25,53.3,15.941,15.941,5.775,5.730081,0,3653,4.104,12.0,12.202,99,20.6,OK,61,0,0,0,0,0,65,100,0.0,0,0.0,7.814926E24,8.8E-44,0.0,-3.3654391E38,62,196.7539,-0.17732339,2.4198473E-30,False,False,0,None,5.736614E32,4.8409842E-17,
255811923,13.214,9.106569135163049,62.68871069615911,18,591.7735,588.7228,-0.026580965,0.0064825304,-1.0355115,1.0358729,-10.754915,5.553575,-14.301089,18.735836,466,-427,1392,1528.0,-0.6653014,3.2023196,-4.053729,5.208666,3.2706998243033922,-1.4913059600353789,0.728780364885957,-16.3029023509208,103.55354104399575,103.55354104399578,114.69761724460024,15.057718111133838,-24.693165155925644,82.56066237051795,1.5922619777882578,3.344366337888989,99.62307425442303,102.12913687594653,42.16,21.574645535156264,,9.1065587,62.6887115,20190822,90705,2019-08-22T09:07:05Z,631.929,0.59,1.14,6.9,9,9,18,-0.43,2.42,-4.28,3812,10000,0,10000,5,5,9.106539085710603,62.68871456352372,120,10063266,48,100,288,3689,3689,4390,4394,182,17594,28,212,17590,0,false,false,false,false,false,false,false,false,false,false,6661,6797,5755,5826,49,61,61,48,1661,1673,1552,1571,1656,1660,1543,1568,0.0,0.0,0.0,0.0,1598.1,1590.8,1592.0,1596.9,5.94,5.28,4.18,3.91,0,0,0,0,178.0166552908757,9.106555058444911,62.688711267526884,0,590.8373,587.8758,-0.018813273,0.0080233365,-1.0356457,1.0358477,-2.13967,6.8703375,-2.2668035,7.5444098,481,-436,1383,1527.0,-0.4428554,2.5818434,-3.938792,4.73034,2.6195487686513443,-1.5395902499118437,-0.07434390869826454,-16.846537776500757,101.65682005256996,101.65682005256997,102.2089403057215,-0.28138951868169654,-29.610459988588826,82.21177909214596,0.8935340640678682,2.5638585865624592,96.83782301891324,99.34388564043674,42.09,NONE,0.0,0.0,0.0,NONE,5.9726420678419E-7,-5.34569081548651E-8,-0.03930664,2,66.79,67.83,57.2,57.57,16.199,16.199,5.724,7.660337,0,3647,3.97,12.0,11.016,99,20.7,OK,63,0,0,0,0,0,65,100,0.0,0,0.0,-2.1629516E-18,2.68E-43,0.0,-3.3654391E38,62,28132.0,-2.0171058,2.7473475E-28,False,False,0,None,2.0821922E36,4.0999277E-16,
259672966,14.218,9.106650272456854,62.68869889493213,18,595.8702,593.0743,-0.091145694,-0.0029392731,-0.9740869,0.9783463,-53.23847,-20.86481,-3.1883657,57.269894,332,-221,1458,1511.0,-2.2052815,4.7196727,-4.241692,6.717926,5.2094698873847385,-0.8819230680787289,4.724821727274055,-12.970813679171977,103.74695652353603,103.74695652353603,110.90560603690938,17.07497584554688,-21.28200536056886,89.75220458006687,5.934161801676936,7.69925527908673,111.32623268914548,113.83229531066898,42.42,25.671325222656264,,9.1066343,62.6887022,20190822,90706,2019-08-22T09:07:06Z,636.49,0.59,1.14,6.92,9,9,18,-1.65,4.52,-4.45,1234,10000,0,10000,5,5,9.106539085710603,62.68871456352372,120,10063266,48,100,289,3689,3689,4390,4394,182,17594,28,212,17590,0,false,false,false,false,false,false,false,false,false,false,6489,6601,6089,6215,49,61,60,49,1641,1644,1593,1609,1635,1644,1581,1593,0.0,0.0,0.0,0.0,1595.7,1589.5,1590.2,1596.3,5.38,4.69,4.88,4.5,0,0,0,0,-178.97957239045883,9.106646453913276,62.68869899719085,0,595.72437,592.68933,-0.08692371,1.8317252E-5,-0.9870289,0.990849,-54.42243,-18.594313,0.3737262,57.512512,311,-178,1458,1501.0,-2.107164,4.5121226,-4.0285954,6.4053864,4.97989867294975,-0.13826730288201006,6.804874589342659,-11.690853991280406,102.48281034341352,102.48281034341352,96.83876855243115,0.889783856114116,-21.906606891582236,87.46601831318927,5.744777931423027,7.435329302473187,111.02269342527183,113.52875604679532,42.39,NONE,0.0,0.0,0.0,NONE,4.311250787820002E-7,-7.452707436067643E-8,-0.020019531,2,62.66,64.56,58.39,58.04,16.127,16.127,5.736,8.546213,0,3640,4.04,12.0,11.126,99,20.8,OK,64,0,0,0,0,0,65,100,0.0,0,0.0,-3.3264572E-18,2.68E-43,0.0,-3.3654391E38,62,1862336.0,-16.608526,7.0569184E-22,False,False,0,None,-1.1507208E-34,2.60134E-15,
263714343,15.268,9.106759529718591,62.68867886605618,18,600.26086,597.5831,-0.11552649,-0.00957421,-0.91968703,0.92696404,0.50970554,5.794068,3.303942,6.689324,408,-494,1374,1516.0,-2.222695,6.2192707,-4.068764,7.7572255,6.60452128359793,-0.8895485721456149,-2.3692840380387223,-14.774290349939756,103.7891434554607,103.7891434554607,112.73883957606483,9.299100930447828,-23.463464729586878,84.86945199059853,11.926742378893042,13.704356781137406,107.30779363966967,109.81385626119317,42.7,30.062011257812514,,9.1067616,62.6886782,20190822,90707,2019-08-22T09:07:07Z,641.975,0.59,1.14,6.93,9,9,18,-2.26,6.12,-4.46,0,10000,0,9517,5,5,9.106539085710603,62.68871456352372,120,10063266,48,100,290,3689,3689,4390,4394,182,17594,28,212,17590,0,false,false,false,false,false,false,false,false,false,false,6453,6625,6339,6378,49,63,63,49,1643,1665,1616,1615,1632,1654,1607,1609,0.0,0.0,0.0,0.0,1592.0,1585.2,1585.2,1590.8,5.42,5.07,5.1,4.38,0,0,0,0,159.77514056883192,9.106730397003894,62.68868278181567,0,599.11395,595.98193,-0.114459656,-0.016624274,-0.93723255,0.9443422,-15.316503,1.9189094,-10.606675,18.729095,393,-491,1386,1522.0,-2.2146714,5.760156,-3.9992723,7.353798,6.171237111023101,-1.747152540054052,-1.6353840865988103,-13.629431489511258,101.51298360937793,101.5129836093779,101.99960414137261,-3.497550850351738,-23.352881941488686,83.40570336086397,10.380580442988835,12.082965106998259,109.45829743017042,111.96436005169392,42.61,NONE,0.0,0.0,0.0,NONE,5.843105995526476E-7,-9.914520690555116E-8,-0.019165039,2,62.47,63.74,59.0,59.94,16.116,16.116,5.736,9.314846,0,3637,4.017,12.0,10.899,99,20.8,OK,65,0,0,0,0,0,65,100,0.0,0,0.0,-1.5498004E-21,2.68E-43,0.0,-3.3654391E38,62,1.30398208E8,-143.55962,9.4650436E-14,False,False,0,None,-1.2330142E-27,1.6045001E-14,
267563906,16.268,9.106890620692598,62.688659494197125,18,602.533,601.0101,-0.15119816,-0.004888117,-0.87762994,0.8905723,53.2931,11.587824,19.81785,58.0274,451,-476,1386,1533.0,-2.0247037,7.125607,-1.8771178,7.641811,7.407678651435258,-0.38462154416562644,0.18516635710577153,-15.63096169309411,104.32901679318032,104.3290167931803,109.74739998522631,10.394799356836902,-23.92411180205805,82.73021695470146,18.951502706909082,20.732494342676762,104.50617583166691,107.0122384531904,42.9,32.334167019531264,,9.1068929,62.6886591,20190822,90708,2019-08-22T09:07:08Z,645.369,0.59,1.14,6.95,9,9,18,-2.04,7.06,-3.34,6306,10000,1073,5613,5,5,9.106539085710603,62.68871456352372,120,10246864,16,100,291,3637,3667,4353,4358,-618,17362,22,0,16734,0,false,false,false,false,false,false,false,false,false,false,5301,5490,5650,5699,49,64,63,49,1519,1546,1546,1543,1513,1532,1540,1540,0.0,0.0,0.0,0.0,1617.1,1611.0,1611.6,1617.1,4.0,3.62,4.46,4.12,0,0,0,0,14.084553557247887,9.10689904123633,62.68865762807023,0,602.85504,599.74744,-0.15932181,0.0073788958,-0.90435594,0.9183123,29.898142,12.321847,-2.7881088,32.457672,440,-436,1404,1534.0,-2.0506086,6.9823055,-1.3841211,7.4076567,7.277196189543299,1.7656904467942693,2.6023612000796,-14.174300659327647,102.39004815846246,102.39004815846249,103.5312200051798,2.22066110911019,-20.797470739871194,80.00381360173627,19.42519941005134,21.132865938681398,103.87825833532271,106.38432095684621,42.96,NONE,0.0,0.0,0.0,NONE,6.597362265338044E-7,-9.342294818965412E-8,-0.010681152,2,48.67,52.16,52.55,52.92,16.098,16.098,5.859,9.314846,0,3637,4.013,12.0,10.899,99,20.8,OK,65,0,0,0,0,0,65,100,0.0,0,0.0,-1.6697468E-20,2.68E-43,0.0,-3.3654391E38,62,2.40137011E9,-619.0666,1.1041064E-4,False,False,0,None,-8.5416324E-20,5.4941515E-14,
271413948,17.269,9.107033369785302,62.68863740730505,18,604.1399,602.87225,-0.14828388,-0.011127157,-0.6798885,0.69596,-1.5085782,7.3116994,2.37943,7.835716,443,-491,1380,1530.0,-2.4946527,7.5232177,-0.96422434,7.984474,7.926039223869656,-0.2448365507927459,-2.437137483736546,-15.689042451878398,103.99548040688641,103.99548040688643,105.9984665926034,4.272763076386562,-24.890708286549042,83.65634949490463,26.637341803992825,28.420729900483924,106.3520299885095,108.858092610033,43.29,33.941039578125014,,9.1070358,62.6886371,20190822,90709,2019-08-22T09:07:09Z,647.351,0.59,1.14,6.96,9,9,18,-2.58,7.49,-2.22,0,10000,0,0,5,5,9.106539085710603,62.68871456352372,120,10246865,20,100,292,3637,3667,4323,4335,-1394,17362,22,2,16734,0,false,false,false,false,false,false,false,false,false,false,4498,4572,4918,4955,50,62,62,50,1445,1455,1479,1485,1445,1454,1468,1481,0.0,0.0,0.0,0.0,1636.7,1633.1,1632.5,1636.1,3.21,2.76,3.88,3.3,0,0,0,0,2.6381637103534104,9.107042320888004,62.688635408769564,0,604.24414,601.24396,-0.15776093,-0.010803431,-0.75725436,0.77358866,3.0318341,11.042659,-0.5043535,11.462404,437,-497,1380,1530.0,-2.53428,7.468032,-0.4782215,7.9008083,7.886322117317168,-0.1747814961396843,-1.9358537129783706,-14.575141756202623,101.85076308266903,101.850763082669,100.29354649588562,-6.061851941223754,-22.64119716490875,80.95717044813033,27.141332788910553,28.85112372638513,106.45976801418021,108.96583063570371,43.3,NONE,0.0,0.0,0.0,NONE,7.256959373976229E-7,-1.1516392205047193E-7,-0.0040893555,2,41.54,43.14,45.42,46.58,16.518,16.518,5.926,9.882893,0,3635,4.002,12.0,8.074,99,20.8,OK,66,0,0,0,0,0,65,100,0.0,0,0.0,-2.6099203E-20,2.68E-43,0.0,1.2335205,64,1.25677076E10,-1414.7269,0.0050273254,False,False,0,None,-2.2717953E-18,1.1063243E-13,
275313261,18.282,9.107203312616628,62.68861353777487,18,606.36176,604.45483,-0.18241768,0.0023336364,-0.9674453,0.9844959,24.339334,0.5011665,23.585218,33.895676,352,-491,1404,1528.0,-2.3214262,8.191007,-2.0178707,8.749481,8.51361340202735,0.43385151534211985,-1.6502102436452177,-12.776047427416357,104.20710622881984,104.20710622881984,109.69165714110285,7.0256496847276715,-22.033981771679446,86.2136568840194,35.70160496213094,37.48902119605485,103.51310773535225,106.01917035687575,43.61,36.162902371093764,,9.1071889,62.6886154,20190822,90710,2019-08-22T09:07:10Z,648.81,0.59,1.14,6.98,9,9,18,-2.34,8.04,-1.76,0,9998,0,6646,5,5,9.106539085710603,62.68871456352372,120,10246865,20,100,292,3637,3667,4323,4335,-1394,17362,22,2,16734,0,false,false,false,false,false,false,false,false,false,false,5512,5679,5971,6017,50,62,63,50,1536,1556,1579,1582,1532,1544,1560,1577,0.0,0.0,0.0,0.0,1611.6,1605.5,1605.5,1611.6,3.99,3.84,4.73,4.02,0,0,0,0,8.632684020877036,9.107197015877242,62.68861373108742,0,606.257,602.6514,-0.18741943,-0.005864014,-0.9791854,0.9969777,15.281411,2.7964478,10.251764,18.612907,355,-488,1401,1525.0,-2.3534877,8.092689,-1.8738345,8.633758,8.427960011101765,-0.2849018779640602,-1.33618763435725,-11.95463898866571,102.08471967474195,102.08471967474196,100.08842564803848,-5.393059914071662,-20.50491370204294,83.13247038946365,35.3899969169754,37.104320259978515,103.51948196582279,106.02554458734629,43.59,NONE,0.0,0.0,0.0,NONE,7.772987524665434E-7,-1.0684613280070004E-7,-0.008544922,2,51.45,52.5,53.75,55.86,16.412,16.412,5.78,10.158289,0,3633,4.103,12.0,8.057,99,20.9,OK,67,0,0,0,0,0,65,100,0.0,0,0.0,-8.860924E-20,2.68E-43,0.0,1.2335205,64,4.8181019E10,-2767.1414,0.007813993,False,False,0,None,-3.3409097E-18,2.0283169E-13,
279315833,19.323,9.107366200601748,62.68859387976564,18,608.04675,606.71497,-0.21347466,0.004778972,-1.1935877,1.2125369,6.616665,-8.345365,-0.10880192,10.650691,302,-482,1416,1525.0,-2.1325471,8.526256,-2.9899106,9.283553,8.788901908255074,-0.5283216357485809,-1.3118761539820571,-11.073762925462121,104.27112759954213,104.27112759954213,112.2071189989817,10.82648315648542,-18.135247442401276,87.15270464423143,44.28098229877672,46.08247599938872,101.37203874502995,103.87810136655345,43.89,37.847899929687514,,9.1073514,62.6885955,20190822,90711,2019-08-22T09:07:11Z,650.896,0.59,1.14,6.99,9,9,18,-2.15,8.43,-2.01,0,10000,0,8958,5,5,9.106539085710603,62.68871456352372,120,0,0,53,294,1930,3716,3771,3795,-7941,15297,35,9,15280,0,false,false,false,false,false,false,false,false,false,false,5941,6099,6464,6547,51,65,65,51,1579,1596,1623,1630,1575,1582,1605,1618,0.0,0.0,0.0,0.0,1600.0,1593.8,1593.8,1600.0,4.28,3.99,5.06,4.44,0,0,0,0,4.4167541115297695,9.107359931717983,62.68859392391577,0,607.8825,604.6627,-0.21537584,0.0026237024,-1.2310922,1.2497927,10.267669,-2.2003684,7.879397,13.128272,299,-485,1416,1526.0,-2.1653726,8.444593,-2.7594752,9.144107,8.71779744950555,-0.4518263703633796,-0.8353573672947074,-10.248335134849027,102.07885215050763,102.0788521505076,105.31223395404903,0.14006660275803304,-19.586241876235228,84.94495281086856,43.974799047746316,45.70377743504738,101.5994289275198,104.1054915490433,43.91,NONE,0.0,0.0,0.0,NONE,8.221426507948595E-7,-9.861398397438332E-8,-0.01184082,2,56.03,58.27,62.03,62.69,16.219,16.219,5.706,10.199209,0,3630,4.127,12.0,9.688,99,20.9,OK,68,0,0,0,0,0,65,100,0.0,0,0.0,-7.3615104E-19,2.68E-43,0.0,1.2335205,64,3.79467071E11,-7537.7827,0.011830869,False,False,0,None,-4.7538665E-18,4.870306E-13,
283166280,20.323,9.107534941058194,62.68857583527734,18,612.05164,610.39355,-0.19179437,0.008823284,-0.98191816,1.000513,1.0716068,4.1503687,4.0629416,5.9060473,314,-488,1407,1521.0,-2.017323,8.71943,-4.1612883,9.869872,8.949751559597374,-0.11633150392646385,-1.3743815677807678,-11.061563442602925,104.30492233474959,104.30492233474956,112.65087859838938,10.700186913297046,-18.76957992970331,85.46153458228417,53.09776612228412,54.922436324987274,100.1446396747637,102.65070229628719,44.25,41.852782742187514,,9.1075205,62.6885773,20190822,90712,2019-08-22T09:07:12Z,654.36,0.59,1.14,7.0,9,9,18,-2.04,8.69,-3.18,0,10000,0,10000,5,5,9.106539085710603,62.68871456352372,120,0,0,53,294,1930,3716,3771,3795,-7941,15297,35,9,15280,0,false,false,false,false,false,false,false,false,false,false,5915,6061,6266,6313,51,64,65,50,1582,1610,1608,1616,1581,1584,1593,1614,0.0,0.0,0.0,0.0,1596.3,1591.4,1591.4,1597.5,4.62,4.6,4.92,4.04,0,0,0,0,9.323591778137995,9.107529259452969,62.68857580255092,0,611.6787,607.84955,-0.18795179,0.0126916235,-0.9947426,1.0124227,-6.8596,6.868013,-0.4714568,9.718332,314,-488,1410,1524.0,-2.0668123,8.708902,-3.9095562,9.76736,8.950792791108253,-0.08627408024072913,-0.8909790633932636,-11.111082938459345,102.03444710813821,102.03444710813824,105.55981093216697,0.5336946273163234,-21.13428397993238,85.7096355800375,52.8215281240459,54.57494369584493,100.4178303724537,102.92389299397719,44.26,NONE,0.0,0.0,0.0,NONE,8.52535928618794E-7,-9.251480165431705E-8,-0.01953125,2,56.5,59.78,60.17,60.26,16.004,16.004,5.724,10.148677,0,3628,4.048,12.0,9.541,98,21.0,OK,69,0,0,0,0,0,65,100,0.0,0,0.0,-7.975874E-18,2.68E-43,0.0,1.2335205,64,8.935411E12,-37943.26,0.0129469065,False,False,0,None,-5.1822535E-18,1.953285E-12,
287032812,21.328,9.107706280281352,62.6885586534084,18,616.3711,614.69946,-0.19529961,0.014232903,-0.96924436,0.98882717,11.156141,0.071806416,2.8107743,11.505003,320,-491,1419,1535.0,-1.9531014,8.827895,-4.2813277,10.003804,9.041368142633337,-0.13701064469030655,-1.4872979178944525,-11.545516916757574,104.23819758803904,104.23819758803904,114.71234343732814,10.774046998307204,-19.540330868764517,86.58872473313089,62.02145067638308,63.87067874768678,98.47581419368335,100.98187681520685,44.53,46.172240750000014,,9.1076927,62.68856,20190822,90713,2019-08-22T09:07:13Z,658.46,0.59,1.14,7.0,9,9,18,-1.94,8.8,-3.84,0,10000,0,10000,5,5,9.106539085710603,62.68871456352372,120,0,20,53,295,1930,3716,3771,3794,-7950,15297,35,2,15280,0,false,false,false,false,false,false,false,false,false,false,5939,6154,6252,6434,52,65,64,51,1581,1605,1594,1620,1573,1577,1587,1610,0.0,0.0,0.0,0.0,1599.3,1588.9,1587.0,1596.9,4.78,4.41,4.77,4.5,0,0,0,0,3.1851813647831477,9.107700436696742,62.688558734988774,0,616.23926,611.66437,-0.19822814,0.017400961,-0.97679335,0.9968563,12.834489,-1.1573986,15.509164,20.164272,320,-488,1413,1528.0,-2.0186472,8.775047,-3.9567103,9.83524,9.004243062436808,-0.11061407306678817,-0.9659478393548643,-11.737925852246809,102.16469103570475,102.16469103570478,104.79848009321792,-1.323453485624249,-21.175761310664736,87.0125248222051,61.73270956328385,63.51259834247344,99.80506698700665,102.31112960853015,44.54,NONE,0.0,0.0,0.0,NONE,8.582107299656192E-7,-9.045887394889344E-8,-0.01977539,2,58.96,59.33,58.5,62.43,16.099,16.099,5.718,10.091649,0,3625,3.982,12.0,10.599,98,21.0,OK,70,0,0,0,0,0,65,100,0.0,0,0.0,-6.7703343E-17,2.68E-43,0.0,1.2335205,64,4.87951234E14,-266546.1,0.01178247,False,False,0,None,-4.735232E-18,1.1236624E-11,
290903835,22.334,9.10787691490484,62.688538652976476,18,619.9346,618.5314,-0.19458228,0.0016523441,-1.035804,1.0539236,-10.645343,1.5046476,-8.643709,13.794963,162,-98,1485,1497.0,-3.127194,8.0306425,-4.0187078,9.508973,8.618036970114582,0.3130531722420251,13.023552621920002,-5.683329707283655,105.14303042899725,105.14303042899724,115.40535618030295,27.16810732626568,-13.675875792235612,87.32268624224601,71.00235285621682,72.86679172375514,107.5266428678218,110.0327054893453,44.87,49.735717312500014,,9.1078634,62.6885411,20190822,90714,2019-08-22T09:07:14Z,662.341,0.59,1.14,7.01,9,9,18,-2.61,8.42,-3.8,10000,10000,0,9722,5,5,9.106539085710603,62.68871456352372,120,147,48,44,296,1613,3716,3796,3806,-1101,15228,37,212,15225,0,false,false,false,false,false,false,false,false,false,false,5758,5936,6198,6327,52,65,65,52,1572,1585,1603,1610,1568,1582,1593,1596,0.0,0.0,0.0,0.0,1596.9,1590.2,1590.8,1598.1,4.66,4.02,5.05,4.4,0,0,0,0,3.374544153713771,9.10788637394118,62.688536541751,0,620.0232,615.47723,-0.19437476,3.3959653E-4,-1.0317501,1.0498999,-0.8032947,-1.8191818,0.4361505,2.0359106,165,-101,1485,1497.0,-3.277533,8.004844,-3.678776,9.399635,8.649840919046124,1.0932084593105333,13.343669821919907,-6.3291628088125345,103.18261864575646,103.18261864575646,105.5648101341037,15.458223028105149,-14.118158329266075,89.05465694969159,71.53100584730494,73.32892289669678,108.2602904748341,110.76635309635759,44.89,NONE,0.0,0.0,0.0,NONE,7.86069696849372E-7,-1.4547079405078038E-7,-0.018310547,2,55.48,57.09,59.6,60.59,16.083,16.083,5.73,10.07117,0,3622,4.014,12.0,10.429,98,21.1,OK,71,0,0,0,0,0,65,100,0.0,0,0.0,-2.1136183E-16,2.68E-43,0.0,1.2335205,64,1.84536534E16,-1742952.4,0.011589351,False,False,0,None,-4.6611164E-18,5.327228E-11,
294823908,23.353,9.10802243583365,62.688504489068215,18,622.6377,621.8967,-0.16289487,-0.030310016,-0.8831214,0.89853036,-19.463028,6.1930223,-5.0649652,21.043213,191,-19,1497,1509.0,-4.617764,6.941761,-2.2558746,8.637173,8.337372932438058,-0.15152155001399414,15.49651866211846,-6.336510701265056,105.45745428439183,105.45745428439182,116.51733047065086,31.688395975907493,-15.391974551292012,85.73693090980642,79.20228999115241,81.22204871484365,120.65139450578678,123.15745712731028,45.21,52.438842312500014,,9.1080118,62.6885075,20190822,90715,2019-08-22T09:07:15Z,665.85,0.59,1.14,7.02,9,9,18,-4.31,7.22,-3.34,10000,9780,0,6625,5,5,9.106539085710603,62.68871456352372,120,147,17,44,297,1613,3716,3796,3806,-1101,15228,37,0,15225,0,false,false,false,false,false,false,false,false,false,false,5092,5248,5491,5557,52,64,65,52,1486,1512,1540,1542,1483,1512,1530,1529,0.0,0.0,0.0,0.0,1617.1,1614.1,1612.2,1617.7,3.62,3.54,4.28,3.6,0,0,0,0,7.244506852441191,9.108032457797965,62.68850080557386,0,623.0643,618.30273,-0.16173126,-0.038269315,-0.89719826,0.91246164,3.1063101,2.5989506,9.54717,10.370735,186,-25,1500,1511.0,-4.7981486,6.9045644,-1.7729431,8.5929365,8.408045920786511,-0.11775201308909011,15.486605536583768,-6.752339153895724,103.32321794909468,103.32321794909467,105.13174248999975,17.30263834021097,-12.59626642705459,87.90520723654123,79.81202481392646,81.79433596824423,121.54783524098077,124.05389786250427,45.2,NONE,0.0,0.0,0.0,NONE,6.98246446314402E-7,-1.9847821133478888E-7,-0.0107421875,2,45.41,47.93,51.75,51.59,16.11,16.11,5.827,10.06999,0,3619,4.01,12.0,9.423,98,21.1,OK,72,0,0,0,0,0,65,100,0.0,0,0.0,-2.9606448E-18,2.68E-43,0.0,1.2335205,64,7.1939726E17,-1.0687043E7,0.012691083,False,False,0,None,-5.0839976E-18,2.531895E-10,
298677992,24.355,9.108153635055373,62.68845722140982,18,624.291,623.4498,-0.16818479,-0.0646717,-0.90599847,0.92374337,19.504274,-49.29484,-0.012253359,53.01319,352,-356,1437,1521.0,-5.4075255,6.832405,-1.3870665,8.823097,8.713386006778594,-0.21687961557983293,4.749168501594193,-15.42971168730293,105.36035065833829,105.36035065833829,119.98982676412032,23.00470076229874,-19.88496507648288,94.08747977850985,87.20169916834828,89.73515819897882,125.9064145894193,128.4124772109428,45.52,54.092162625000014,,9.1081429,62.6884612,20190822,90716,2019-08-22T09:07:16Z,667.622,0.59,1.14,6.99,9,9,18,-5.46,6.68,-2.01,6488,9842,0,4402,5,5,9.106539085710603,62.68871456352372,120,1464,48,44,298,1613,3716,3852,3854,0,15408,32,212,2,0,false,false,false,false,false,false,false,false,false,false,5110,5311,5567,5499,51,66,67,51,1493,1537,1528,1535,1483,1526,1551,1533,0.0,0.0,0.0,0.0,1617.1,1609.8,1609.8,1617.1,4.58,3.95,3.0,3.09,0,0,0,0,22.63878485253042,9.108161980622887,62.688453619910845,0,624.61194,619.5798,-0.16107014,-0.057212878,-0.898651,0.91476256,23.324076,-41.29551,-3.4477682,47.552273,419,-316,1431,1524.0,-5.4884253,6.8798547,-0.92906284,8.849767,8.800864471976691,-0.3770135688624716,6.80394175460529,-18.524049904943567,103.48751822638674,103.48751822638673,106.95170097654365,8.635554038482468,-26.395238167473984,94.99541723608546,87.73564825302549,90.23422028732476,127.33915571668312,129.84521833820662,45.55,NONE,0.0,0.0,0.0,NONE,6.713606569359249E-7,-2.459347417325057E-7,-0.004760742,2,45.88,49.31,50.45,50.21,16.332,16.332,5.808,9.989543,0,3617,4.015,12.0,7.037,98,21.2,OK,73,0,0,0,0,0,65,100,0.0,0,0.0,-6.1429534E-21,2.68E-43,0.0,1.2335205,64,2.63559094E18,-2.0493446E7,0.01990903,False,False,0,None,-7.125029E-18,4.438281E-10,
302577234,25.368,9.108320423020206,62.68839923074734,18,626.8541,625.25714,-0.20745125,-0.12827462,-1.0770214,1.1042941,-33.674545,52.967373,-36.090176,72.40179,612,-596,1278,1537.0,-5.4134216,8.833342,-2.1397753,10.578833,10.360166677658578,0.1753416986859193,-6.8086264077303165,-16.13694989700681,84.64288718670849,84.64288718670849,107.83718769109487,7.392501220072682,-19.45759036830407,63.91464380016895,97.41183565258459,100.4197784865797,119.92493073547067,122.43099335699416,45.82,56.655272976562514,,9.1082889,62.688409,20190822,90717,2019-08-22T09:07:17Z,669.078,0.59,1.14,6.97,9,9,18,-6.0,8.28,-1.67,0,6136,-6840,6372,5,5,9.106539085710603,62.68871456352372,120,1464,48,44,299,1613,3716,3852,3854,0,15408,32,212,2,0,false,false,false,false,false,false,false,false,false,false,5798,6087,5999,5752,52,64,66,52,1570,1603,1589,1531,1554,1582,1585,1537,0.0,0.0,0.0,0.0,1602.4,1596.9,1596.9,1603.0,4.64,4.1,5.07,2.9,0,0,0,0,104.03624346792651,9.108313262164815,62.68840092252892,0,626.9442,620.8924,-0.19653238,-0.12260699,-1.0573103,1.0823874,-19.474277,47.02366,-19.215597,54.40323,629,-583,1269,1531.0,-5.517465,8.833096,-1.7069024,10.553649,10.41470094571007,-0.8521787832434509,-5.4612831676586415,-18.065748229036956,84.02443673851866,84.02443673851866,94.56318297023984,-7.252104208154936,-24.760610391016893,67.64063657811047,97.00327717982529,99.93132154179801,120.8280313034468,123.3340939249703,45.78,NONE,0.0,0.0,0.0,NONE,8.307234823751123E-7,-2.6726446366532306E-7,-0.008300781,2,51.25,56.32,55.82,50.3,16.343,16.343,5.745,9.752052,0,3615,4.071,12.0,7.205,98,21.2,OK,74,0,0,0,0,0,65,100,0.0,0,0.0,-2.6358304E-23,2.68E-43,0.0,1.2335205,64,1.0475936E19,-4.086606E7,0.035015356,False,False,0,None,-1.21998155E-17,8.229542E-10,
306472691,26.381,9.108476538409727,62.68836040986705,18,626.76605,626.62195,-0.062434424,-0.0527216,-1.1062623,1.1092763,3.2954886,7.591722,4.290869,9.322342,-211,-936,1215,1548.0,-3.1009164,6.280387,-0.8137062,7.0513163,7.004209070419617,1.944193375647699,-18.44880970309542,19.0431859551664,78.34688983118596,78.34688983118599,100.6528739213742,-5.052972493319188,17.64828196856107,61.50648831493429,106.40302859458139,109.48100347708359,113.79054450032623,116.29660712184973,46.07,56.567199246093764,,9.1084533,62.6883665,20190822,90718,2019-08-22T09:07:18Z,670.892,0.59,1.14,6.96,9,9,18,-3.87,7.68,-1.64,0,0,-939,3710,5,5,9.106539085710603,62.68871456352372,120,1464,48,44,300,1613,3716,3852,3854,0,15408,32,212,2,0,false,false,false,false,false,false,false,false,false,false,4507,4893,4918,4580,51,67,66,51,1471,1508,1498,1466,1476,1512,1459,1449,0.0,0.0,0.0,0.0,1619.6,1614.1,1614.7,1619.6,3.89,4.14,4.36,3.64,0,0,0,0,82.29134564320327,9.108471406595074,62.68836103997842,0,626.73456,621.97284,-0.06765295,-0.05488734,-1.0920929,1.0955622,-0.13319583,6.755566,0.092184715,6.757508,-205,-936,1215,1547.0,-3.3428211,6.5214357,-0.5010684,7.3453827,7.328272576056011,1.7657469954607565,-17.36397993852342,17.921123021395367,76.32939836495453,76.3293983649545,84.54854216789805,-14.22013808175576,8.698805905838649,64.97866345350475,106.13387136544331,109.14354674538644,111.9611739691539,114.4672365906774,46.06,NONE,0.0,0.0,0.0,NONE,6.468637989009149E-7,-1.5227218128103325E-7,-0.0025634766,2,39.96,46.74,46.62,42.36,16.145,16.145,5.853,9.461599,1374,3612,4.063,12.0,10.683,98,21.2,OK,75,0,0,0,0,0,65,100,0.0,0,0.0,-3.475532E-24,2.68E-43,0.0,1.2335205,64,3.2504167E19,-6.9192216E7,0.065683864,False,False,0,None,-2.1680232E-17,1.3690241E-9,
310487882,27.424,9.10855254272107,62.688345394310645,18,629.16254,627.2813,-0.0307195,-0.014018476,-1.019099,1.0196583,4.1730924,-7.422855,-3.1358643,9.074532,-12,-955,1239,1564.0,-0.42395648,1.4346316,-0.76398337,1.6797551,1.4959634669376893,2.549814698657647,-20.628986202626262,14.456855759902595,66.30938036836594,66.30938036836596,92.58899659594182,-0.610967852162268,19.623049258988175,51.642219805822684,110.62339036052916,113.70568008768153,105.52712898579543,108.03319160731893,46.39,58.963683621093764,,9.1085466,62.6883464,20190822,90719,2019-08-22T09:07:19Z,671.708,0.59,1.14,6.96,9,9,18,-1.15,2.77,-0.97,0,0,-2330,2980,5,5,9.106539085710603,62.68871456352372,120,1464,48,44,301,1613,3716,3852,3854,0,15408,32,212,2,0,false,false,false,false,false,false,false,false,false,false,5574,5730,5247,5034,52,66,66,52,1539,1551,1497,1481,1531,1546,1500,1476,0.0,0.0,0.0,0.0,1621.4,1614.7,1615.3,1619.6,4.0,3.18,3.2,2.25,0,0,0,0,160.16543275753767,9.10855437894531,62.688344080212836,0,629.29016,622.70105,-0.022610476,-0.011824159,-0.99718386,0.99751025,7.860805,-6.6474485,-7.9514623,13.007943,0,-955,1239,1564.0,-0.50125784,1.2728242,-0.47287992,1.4473964,1.3679695726323555,3.072989590156628,-19.265862582269524,13.650144972444336,64.41479039422767,64.41479039422768,71.1767967752947,-13.61621511780748,5.455151280379347,54.5819560183204,110.76465464015276,113.7858550382898,108.61139727971032,111.11745990123381,46.43,NONE,0.0,0.0,0.0,NONE,2.59880472719346E-7,-5.475493387456875E-8,-0.0026855469,2,51.32,53.38,46.47,43.14,16.429,16.429,5.771,9.208832,1411,3610,4.063,12.0,5.965,98,21.3,OK,76,0,0,0,0,0,65,100,0.0,0,0.0,-2.7185788E-24,2.68E-43,0.0,7.5523244E-20,64,6.3611093E19,-1.0147484E8,0.08857014,False,False,0,None,-2.6072098E-17,1.7561846E-9,
314393355,28.439,9.108557583278499,62.68834646723377,18,629.9238,627.59564,-0.022403246,0.012782621,-0.9862707,0.98660797,0.36616975,-3.147499,-63.019054,63.098667,478,-267,1410,1512.0,0.26115736,-0.16727148,-0.23378903,0.38838154,0.31013370114858446,-0.030834273928889544,-1.108183084971009,0.047755313908632906,29.70212498431345,29.702124984313457,57.22143762468206,19.435565577693552,4.387592428320195,26.57373207659525,110.81811431109405,114.17385155245657,-36.601690464515436,-34.09562784299194,46.78,59.724975125000014,,9.1085579,62.6883464,20190822,90720,2019-08-22T09:07:20Z,672.22,0.59,1.14,6.98,9,9,18,0.35,-0.17,-0.52,0,0,-9854,810,5,5,9.106539085710603,62.68871456352372,120,1466,16,44,302,1613,3716,3852,3854,0,15416,32,1,17525,0,false,false,false,false,false,false,false,false,false,false,5667,5724,4761,5078,51,66,66,51,1556,1559,1465,1489,1550,1543,1471,1478,0.0,0.0,0.0,0.0,1617.1,1611.6,1611.0,1617.1,4.56,3.77,3.24,2.98,0,0,0,0,-170.48979165225649,9.10855722662031,62.688346162479434,0,629.7423,623.2133,-0.021718767,0.02675692,-0.98906523,0.98966545,-0.9159556,-0.16642278,-53.13135,53.139507,492,-233,1413,1514.0,0.18228698,-0.14852142,-0.07714841,0.24746522,0.23513221015856828,0.034170144210624476,-0.13446312056382373,0.14996790497840526,25.373535752343656,25.373535752343628,36.40599944868128,8.518285554369726,-4.045888185906946,24.860795791100333,110.81372773946786,114.2811193285481,-31.23024632251305,-28.724183700989553,46.83,NONE,0.0,0.0,0.0,NONE,-8.66268141660966E-9,7.4011667177206114E-9,-3.6621094E-4,2,53.69,54.19,42.37,45.03,16.236,16.236,5.805,8.931996,1454,3608,4.019,12.0,8.51,98,21.3,OK,77,0,0,0,0,0,65,100,0.0,0,0.0,-4.077338E-24,2.68E-43,0.0,7.5523244E-20,64,1.1505796E20,-1.29499672E8,0.07855656,False,False,0,None,-2.4150603E-17,2.3219544E-9,
318246839,29.441,9.108552013393837,62.688348828529676,18,629.76227,628.0358,-0.01924979,0.00725428,-0.958814,0.9590347,-2.574228,6.1480317,-5.562333,8.6812725,524,-15,1413,1507.0,0.15841639,-0.13844089,-0.17649436,0.27461225,0.21038449170464776,0.1759383403090469,0.6051416172216253,0.028587786200590222,7.173789205149769,7.173789205149774,34.10529533626244,20.324612583053725,3.88291719587111,3.263897999128178,110.4571424098436,114.56205869525145,-34.678986964028034,-32.17292434250454,47.13,59.563415066406264,,9.1085528,62.6883492,20190822,90721,2019-08-22T09:07:21Z,672.479,0.59,1.14,6.95,9,9,18,0.27,-0.18,-0.26,0,0,-1108,0,5,5,9.106539085710603,62.68871456352372,120,1467,18,44,303,1603,3701,3887,3891,2671,15534,32,1,15647,0,false,false,false,false,false,false,false,false,false,false,5589,5576,4859,4976,52,67,68,52,1548,1542,1459,1489,1539,1542,1455,1472,0.0,0.0,0.0,0.0,1618.4,1612.9,1613.5,1619.0,4.48,3.77,3.08,3.2,0,0,0,0,-174.41739424346895,9.108552022365556,62.68834860048234,0,629.92255,623.5591,-0.019398898,0.009520014,-0.9691774,0.9694183,-5.1585765,4.945195,-3.268212,7.8579307,527,-19,1407,1502.0,-0.010004652,-0.03766124,-0.05981165,0.07138554,0.0389674490581101,0.3399258253273209,1.2905418297631472,0.4392427811959477,6.208801253005546,6.208801253005561,16.63175429749265,10.63100126334215,-4.131863628304168,5.384193007308958,110.46690698197877,114.66174216777074,-45.888145566652476,-43.38208294512898,47.15,NONE,0.0,0.0,0.0,NONE,-9.260108005312946E-9,2.7069080822438935E-9,-4.8828125E-4,2,52.84,51.25,41.79,45.72,16.305,16.305,5.819,8.647483,1501,3606,4.081,12.0,7.417,98,21.4,OK,78,0,0,0,0,0,65,100,0.0,0,0.0,-5.329317E-24,2.68E-43,0.0,7.5523244E-20,64,1.5966161E20,-1.59851568E8,0.06673672,False,False,0,None,-2.1882673E-17,2.742482E-9,
322101954,30.443,9.108550469622305,62.68835040452475,18,629.85944,628.23444,-0.020730058,-0.004949438,-1.0470619,1.0472788,10.624806,4.0709867,-54.241848,55.422356,483,143,1434,1519.0,0.057238694,-0.026556794,0.037476845,0.07338968,0.06309937505247264,0.12866003556273786,-0.45233977551398863,0.3587535794575379,-20.43518644307225,339.56481355692773,7.223321866667128,20.445018832507994,5.037028102908975,-17.41538055714371,110.31947120382463,114.75936170311194,-23.07489431645632,-20.568831694932822,47.45,59.660583035156264,,9.1085507,62.6883512,20190822,90722,2019-08-22T09:07:22Z,672.599,0.59,1.14,6.93,9,9,18,0.13,-0.06,-0.01,0,0,-9998,21,5,5,9.106539085710603,62.68871456352372,120,4957,114,99,304,3701,3701,4388,4391,209,17598,32,3716,17582,0,false,false,false,false,false,false,false,false,false,false,5687,5982,4963,5329,52,67,67,53,1567,1601,1486,1521,1563,1575,1469,1517,0.0,0.0,0.0,0.0,1609.1,1600.0,1600.6,1607.9,4.92,4.86,4.16,3.58,0,0,0,0,-177.0483652448136,9.108550667532665,62.68835026040213,0,629.9104,623.80396,-0.024221396,0.0012978362,-1.0570933,1.0573715,7.146851,-2.693881,-52.5341,53.086403,472,165,1428,1513.0,-0.11885202,0.041361693,0.036100827,0.13091931,0.12584352491750356,0.07087075502648718,0.00594919777193246,1.0391757024161725,-24.616990659181443,335.38300934081855,-13.31535581889575,9.730889551437578,-1.5067510621258537,-18.32211451189032,110.33474669361206,114.86902203288139,-47.506426215907304,-45.000363594383806,47.42,NONE,0.0,0.0,0.0,NONE,2.688418506818651E-9,-3.1866131433623522E-9,4.8828125E-4,2,54.37,53.7,42.78,45.63,16.322,16.322,5.809,8.387568,1546,3604,4.059,12.0,7.39,98,21.5,OK,79,0,0,0,0,0,65,100,0.0,0,0.0,-6.4852697E-24,2.68E-43,0.0,7.5523244E-20,64,2.1624934E20,-1.8558264E8,0.06091715,False,False,0,None,-2.0462198E-17,3.051085E-9,
