Tick#,offsetTime,IMU_ATTI(0):Longitude,IMU_ATTI(0):Latitude,IMU_ATTI(0):numSats,IMU_ATTI(0):barometer:Raw,IMU_ATTI(0):barometer:Smooth,IMU_ATTI(0):accel:X,IMU_ATTI(0):accel:Y,IMU_ATTI(0):accel:Z,IMU_ATTI(0):accel:Composite,IMU_ATTI(0):gyro:X,IMU_ATTI(0):gyro:Y,IMU_ATTI(0):gyro:Z,IMU_ATTI(0):gyro:Composite,IMU_ATTI(0):mag:X,IMU_ATTI(0):mag:Y,IMU_ATTI(0):mag:Z,IMU_ATTI(0):mag:Mod,IMU_ATTI(0):velN,IMU_ATTI(0):velE,IMU_ATTI(0):velD,IMU_ATTI(0):velComposite,IMU_ATTI(0):velH,IMU_ATTI(0):GPS-H,IMU_ATTI(0):roll,IMU_ATTI(0):pitch,IMU_ATTI(0):yaw,IMU_ATTI(0):yaw360,IMU_ATTI(0):totalGyro:Z,IMU_ATTI(0):totalGyro:X,IMU_ATTI(0):totalGyro:Y,IMU_ATTI(0):magYaw,IMU_ATTI(0):distanceHP,IMU_ATTI(0):distanceTravelled,IMU_ATTI(0):directionOfTravel[mag],IMU_ATTI(0):directionOfTravel[true],IMU_ATTI(0):temperature,General:relativeHeight,General:absoluteHeight,GPS(0):Long,GPS(0):Lat,GPS(0):Date,GPS(0):Time,GPS:dateTimeStamp,GPS(0):heightMSL,GPS(0):hDOP,GPS(0):pDOP,GPS(0):sAcc,GPS(0):numGPS,GPS(0):numGLNAS,GPS(0):numSV,GPS(0):velN,GPS(0):velE,GPS(0):velD,RC:Aileron,RC:Elevator,RC:Rudder,RC:Throttle,Controller:navHealth,Controller:ctrl_level,HP:Longitude,HP:Latitude,HP:rthHeight,BatBlackBox:tick,BatBlackBox:id,BatBlackBox:rsoc,BatBlackBox:index,BatBlackBox:rm,BatBlackBox:fcc,BatBlackBox:cell_min,BatBlackBox:cell_max,BatBlackBox:current,BatBlackBox:voltage,BatBlackBox:temp,BatBlackBox:flag,BatBlackBox:reserve,BatBlackBox:user_data,OA:avoidObst,OA:emergBrake,OA:radiusLimit,OA:airportLimit,OA:groundForceLanding,OA:horizNearBoundary,OA:vertLowLimit,OA:vertAirportLimit,OA:roofLimit,OA:hitGroundLimit,Motor:Speed:RFront,Motor:Speed:LFront,Motor:Speed:LBack,Motor:Speed:RBack,Motor:EscTemp:RFront,Motor:EscTemp:LFront,Motor:EscTemp:LBack,Motor:EscTemp:RBack,Motor:PPMrecv:RFront,Motor:PPMrecv:LFront,Motor:PPMrecv:LBack,Motor:PPMrecv:RBack,Motor:PPMsend:RFront,Motor:PPMsend:LFront,Motor:PPMsend:LBack,Motor:PPMsend:RBack,Motor:V_out:RFront,Motor:V_out:LFront,Motor:V_out:LBack,Motor:V_out:RBack,Motor:Volts:RFront,Motor:Volts:LFront,Motor:Volts:LBack,Motor:Volts:RBack,Motor:Current:RFront,Motor:Current:LFront,Motor:Current:LBack,Motor:Current:RBack,Motor:Status:RFront,Motor:Status:LFront,Motor:Status:LBack,Motor:Status:RBack,Motor:thrustAngle,IMU_ATTI(1):Longitude,IMU_ATTI(1):Latitude,IMU_ATTI(1):numSats,IMU_ATTI(1):barometer:Raw,IMU_ATTI(1):barometer:Smooth,IMU_ATTI(1):accel:X,IMU_ATTI(1):accel:Y,IMU_ATTI(1):accel:Z,IMU_ATTI(1):accel:Composite,IMU_ATTI(1):gyro:X,IMU_ATTI(1):gyro:Y,IMU_ATTI(1):gyro:Z,IMU_ATTI(1):gyro:Composite,IMU_ATTI(1):mag:X,IMU_ATTI(1):mag:Y,IMU_ATTI(1):mag:Z,IMU_ATTI(1):mag:Mod,IMU_ATTI(1):velN,IMU_ATTI(1):velE,IMU_ATTI(1):velD,IMU_ATTI(1):velComposite,IMU_ATTI(1):velH,IMU_ATTI(1):GPS-H,IMU_ATTI(1):roll,IMU_ATTI(1):pitch,IMU_ATTI(1):yaw,IMU_ATTI(1):yaw360,IMU_ATTI(1):totalGyro:Z,IMU_ATTI(1):totalGyro:X,IMU_ATTI(1):totalGyro:Y,IMU_ATTI(1):magYaw,IMU_ATTI(1):distanceHP,IMU_ATTI(1):distanceTravelled,IMU_ATTI(1):directionOfTravel[mag],IMU_ATTI(1):directionOfTravel[true],IMU_ATTI(1):temperature,IMUEX(0):err,IMUEX(0):rtk_Longitude,IMUEX(0):rtk_Latitude,IMUEX(0):rtk_Alti,IMUEX(1):err,IMUEX(1):rtk_Longitude,IMUEX(1):rtk_Latitude,IMUEX(1):rtk_Alti,BattInfo:Voltage,BattInfo:BatVoltage,BattInfo:AdVoltage,BattInfo:AvgCurrent,BattInfo:R_time,BattInfo:R_CAP_MAH,BattInfo:LowCellVoltage,BattInfo:LowCellVolThreshold,BattInfo:BatCurrent,BattInfo:Remaining%,BattInfo:Temp,BattInfo:status,battery_info:BatDynCnt,battery_info:Vol1Protect,battery_info:Vol2Protect,battery_info:Cap1Protect,battery_info:Cap2Protect,battery_info:Batpresent,battery_info:sopPercentage,battery_info:sopValue,battery_info:sopScale,battery_info:sopFlg,BattInfo:WindHeading:WindDir,battery_info:home_dir,BattInfo:Wind:rangeMin,BattInfo:Wind:rangeMax,battery_info:cap_speed,battery_info:against_wind,battery_info:emergency_land_cap,battery_info:intel_bat_land_cap,battery_info:intel_bat_gh_cap,BattInfo:Smart:SmartGh,BattInfo:Smart:SmartLand,BattInfo:GoHome:CntDown,BattInfo:GoHome:GhCmd,BattInfo:GoHome:CapLevel,BattInfo:GoHome:LandCapLv,Attribute|Value,ConvertDatV3,3.6.6-Tablet
7894991,2.052,,,,,,,,,,,,,,,,,,,,,,,,,,,,,,,,,,,,,,,,,,,,,,,,,,,,,,,,,,,,,,,,,,,,,,,,,,,,,,,,,,,,,,,,,,,,,,,,,,,,,,,,,,,,,,,,,,,,,,,,,,,,,,,,,,,,,,,,,,,,,,,,,,,,,,,,,,,,,,,,,,,,,,,,,,,,,,,OK,,,,,,,,,,,,,,,,,,,,,,,,,,Firmware Date| Oct 17 2018
78067121,20.289,,,,,,,,,,,,,,,,,,,,,,,,,,,,,,,,,,,,,,,,,,,,,,,,,,,,,,,,,,,,,,,,,,,,,,,,,,,,,,,,,,,,,,,,,,,,,,,,,,,,,,,,,,,,,,,,,,,,,,,,,,,,,,,,,,,,,,,,,,,,,,,,,,,,,,,,,,,,,,,,NONE,2.7422682074570026E-11,2.0299707199111872E-11,0.0,,,,,,,,,,,,OK,,,,,,,,,,,,,,,,,,,,,,,,,,ACType|MavicEnterprise
81964158,21.302,,,0,531.66113,531.8578,0.09590408,-0.027871616,-0.98021203,0.9852868,0.36313486,-0.04793678,0.18143547,0.40875873,-24,-405,1461,1516.0,0.0,0.0,0.051773056,0.051773056,0.0,0.0,1.6153109571803335,5.57544027526591,78.83788190494333,78.83788190494334,-0.01075100544383162,0.2318586404551659,0.007350143136518427,75.31425627579755,,0.0,,,33.2,,,0.0,0.0,20151021,134037,2015-10-21T13:40:37Z,-17.0,99.99,99.99,3.75E7,0,0,0,0.0,0.0,0.0,0,0,0,0,0,0,,,,3471534,20,80,286,2780,3508,4131,4147,-1200,16632,28,2,16455,0,false,false,false,false,false,false,false,false,false,false,0,0,0,0,44,55,56,43,944,945,945,945,940,940,940,940,0.0,0.0,0.0,0.0,1723.2,1717.7,1719.6,1723.8,0.0,0.0,0.0,0.0,0,0,0,0,-45.0,-2.8255573698004173E-11,1.089124739664891E-11,0,531.5132,531.9547,0.09515805,-0.02828674,-0.9807908,0.9858021,0.20314084,0.043135162,-0.10927404,0.23466498,-27,-411,1476,1532.0,4.637404E-4,-0.0012554628,0.0012887603,0.0018579948,0.001338372839332576,-0.001338372839332576,1.640650421309934,5.529546371107031,76.76201421388484,76.76201421388487,0.0011681767111539985,0.1709705071972472,-0.014801207686764194,75.8582671922354,,3.1255143565922874E-5,,,33.26,NONE,0.0,0.0,0.0,NONE,-8.095204610447917E-12,9.892940782536588E-12,0.0,17.338,17.338,6.199,1.1678343,0,3653,4.324,12.0,1.186,100,24.5,OK,19,0,0,0,0,0,65,100,0.0,0,0.0,589232.0,2.69E-43,0.0,-5.9807744E7,62,5.49322E-5,-5.4932443E-5,9.4E-44,False,False,0,None,0.0,1.0842022E-19,dateTime|2015-10-21 13:40:37 GMT
85880647,22.320,0.0,0.0,0,531.9782,531.8346,0.09584615,-0.028458089,-0.9794145,0.9845045,0.20480509,-0.06466214,-0.14200528,0.25747198,-35,-411,1473,1529.0,0.0,0.0,0.027843364,0.027843364,0.0,0.0,1.6100619403783183,5.568574879136648,78.83063541600741,78.8306354160074,0.030949405930950316,0.5193468169618084,-0.0067035912859241,76.69732701589156,,0.0,,,33.5,,,0.0,0.0,20151021,134038,2015-10-21T13:40:38Z,-17.0,99.99,99.99,3.75E7,0,0,0,0.0,0.0,0.0,0,0,0,0,0,0,,,,3471713,48,78,287,2713,3508,4104,4115,-1127,16447,27,212,16441,0,false,false,false,false,false,false,false,false,false,false,0,0,0,0,44,56,55,44,944,946,945,945,940,940,940,940,0.0,0.0,0.0,0.0,1725.0,1717.7,1718.9,1722.6,0.0,0.0,0.0,0.0,0,0,0,0,-45.0,2.6810169503081774E-11,2.1401667779061656E-11,0,531.78534,531.9548,0.095488854,-0.027964331,-0.98012275,0.9851603,0.23416701,-0.09287057,0.19598532,0.31916982,-35,-411,1473,1529.0,9.596379E-4,0.0012103916,7.813105E-4,0.001731011,0.0015446530158003673,-0.0015385289327183177,1.6502225405005104,5.504485583675647,76.75011059597382,76.75011059597381,0.052742604771035234,0.434157547651335,-0.06452899941657567,76.92533606179711,,6.038372246757378E-5,,,33.5,NONE,0.0,0.0,0.0,NONE,3.0754771400617935E-11,2.393380469860106E-11,0.0,17.335,17.335,6.2,1.1616784,0,3653,4.325,12.0,1.224,100,24.5,OK,20,0,0,0,0,0,65,100,0.0,0,0.0,589232.0,2.69E-43,0.0,-5.9807744E7,62,5.49322E-5,-5.4932443E-5,9.4E-44,False,False,0,None,0.0,1.0842022E-19,
89776215,23.332,0.0,0.0,0,531.8593,531.89435,0.09456853,-0.028842174,-0.9804955,0.9854677,0.24535258,-0.12431729,-0.029156903,0.2765914,-35,-411,1473,1529.0,0.0,0.0,7.877345E-4,7.877345E-4,0.0,0.0,1.6064512466055052,5.571687348373754,78.82849360798706,78.82849360798707,0.06814697472678144,0.7570970629309228,-0.01244527416923635,76.684881905299,,0.0,,,33.81,,,0.0,0.0,20151021,134039,2015-10-21T13:40:39Z,-17.0,99.99,99.99,3.75E7,0,0,0,0.0,0.0,0.0,0,0,0,0,0,0,,,,3471713,17,78,288,2713,3508,4104,4115,-1127,16447,27,0,16441,0,false,false,false,false,false,false,false,false,false,false,0,0,0,0,43,56,56,44,943,946,944,944,940,940,940,940,0.0,0.0,0.0,0.0,1725.0,1717.7,1717.7,1723.8,0.0,0.0,0.0,0.0,0,0,0,0,-45.0,9.050703312863672E-12,4.344695738799346E-11,0,531.87256,531.95557,0.094923034,-0.029768575,-0.98184747,0.98687434,0.30571446,0.033316337,-0.010647418,0.30770874,-35,-411,1473,1529.0,0.0019425333,3.9448298E-4,9.271234E-4,0.0021882893,0.001982183791163781,-0.0019790746654967167,1.6660444449550895,5.5130464307388225,76.73155294730086,76.73155294730088,0.06553481674689253,0.7288182639956094,-0.04769013321976926,76.91191181655788,,1.1231383828745493E-4,,,33.81,NONE,0.0,0.0,0.0,NONE,-1.0750602169638097E-11,-2.769665270379412E-11,0.0,17.335,17.335,6.199,1.1615117,0,3652,4.323,12.0,1.201,100,24.5,OK,21,0,0,0,0,0,65,100,0.0,0,0.0,589232.0,2.69E-43,0.0,-5.9807744E7,62,5.49322E-5,-5.4932443E-5,9.4E-44,False,False,0,None,0.0,1.0842022E-19,
93643776,24.338,0.0,0.0,0,531.6955,531.9203,0.09387152,-0.02808927,-0.9810732,0.9859541,0.33869764,0.06507802,0.09499629,0.35773668,-35,-405,1458,1513.0,0.0,0.0,0.0103808,0.0103808,0.0,0.0,1.6163921735048472,5.578346852357226,78.82971473746666,78.82971473746665,0.0920373894617205,0.9915138551447715,-0.008659691705609075,76.66294915780712,,0.0,,,34.15,,,0.0,0.0,20151021,134040,2015-10-21T13:40:40Z,-17.0,99.99,99.99,3.75E7,0,0,0,0.0,0.0,0.0,0,0,0,0,0,0,,,,3472494,16,78,289,2709,3504,4107,4127,-1205,16414,26,0,15865,0,false,false,false,false,false,false,false,false,false,false,0,0,0,0,44,56,56,44,943,945,945,944,940,940,940,940,0.0,0.0,0.0,0.0,1723.2,1717.7,1718.3,1725.0,0.0,0.0,0.0,0.0,0,0,0,0,-45.0,2.8020947132705372E-11,-3.4233747405724058E-12,0,531.7933,531.9553,0.09447477,-0.029020824,-0.980709,0.98567635,0.2840525,0.009036801,0.07288926,0.2933945,-35,-405,1458,1513.0,-1.6236155E-4,0.0012404402,0.0013521756,0.0018421271,0.0012510208389669142,-0.0012454272733725714,1.6919487992415023,5.522573812158289,76.67255993584956,76.67255993584956,0.0874599423718475,0.9934442764442107,-0.0314090934267227,76.89486962169596,,1.406492670985254E-4,,,34.17,NONE,0.0,0.0,0.0,NONE,2.2973665746605975E-11,-8.780033143575616E-13,0.0,17.335,17.335,6.2,1.1648781,0,3652,4.324,12.0,1.193,100,24.6,OK,22,0,0,0,0,0,65,100,0.0,0,0.0,589232.0,2.69E-43,0.0,-5.9807744E7,62,5.49322E-5,-5.4932443E-5,9.4E-44,False,False,0,None,0.0,1.0842022E-19,
97708163,25.394,0.0,0.0,5,531.89105,531.9889,0.094614826,-0.028965283,-0.9803645,0.98534536,0.27380863,0.015270245,-0.009984355,0.2744158,-32,-411,1461,1518.0,0.0,0.0,-0.009067746,0.009067746,0.0,0.0,1.622350817848275,5.575428606380205,78.82584802330699,78.825848023307,0.13666048708862033,1.2654124373910256,0.02570794251477862,76.45858417445764,,0.0,,,34.4,,,9.1359462,62.6835291,20190821,134040,2019-08-21T13:40:40Z,610.37,1.58,2.17,83.03,0,5,5,-0.02,0.0,0.01,0,0,0,0,0,0,,,,3472494,20,78,290,2709,3504,4107,4127,-1205,16414,26,2,15865,0,false,false,false,false,false,false,false,false,false,false,0,0,0,0,44,56,55,44,944,946,945,944,940,940,940,940,0.0,0.0,0.0,0.0,1723.8,1717.7,1718.9,1723.8,0.0,0.0,0.0,0.0,0,0,0,0,-45.0,4.696321875584322E-12,-1.5016426782593883E-11,0,531.7933,531.95593,0.09536662,-0.029134776,-0.98004645,0.9851064,0.2728962,-0.14083602,0.15942606,0.34601128,-32,-411,1464,1520.0,-6.695795E-4,2.2446873E-4,-1.7914589E-4,7.2857126E-4,7.062031560720155E-4,-7.034612922285406E-4,1.693674532266039,5.513297751838292,76.71541667813455,76.71541667813455,0.13366742692806066,1.272987608827083,-0.09778161244978466,76.67210048457878,,1.7353973913807446E-4,,,34.44,NONE,0.0,0.0,0.0,NONE,-1.3490275758790947E-11,2.7553262539265484E-12,0.0,17.333,17.333,6.197,1.1693968,0,3652,4.323,12.0,1.19,100,24.6,OK,23,0,0,0,0,0,65,100,0.0,0,0.0,589232.0,2.69E-43,0.0,-5.9807744E7,62,5.49322E-5,-5.4932443E-5,9.4E-44,False,False,0,None,0.0,1.0842022E-19,
101567222,26.397,0.0,0.0,5,531.73517,531.9699,0.094999425,-0.029443577,-0.9804328,0.9854645,0.15924603,0.13516527,0.020691464,0.20989779,-35,-411,1458,1515.0,0.0,0.0,0.012511054,0.012511054,0.0,0.0,1.6239840635398988,5.571934525156007,78.82136679567537,78.82136679567537,0.17765608247451556,1.4939192180531828,0.035573172767498454,76.86118615658833,,0.0,,,34.73,,,9.135942,62.6835276,20190821,134041,2019-08-21T13:40:41Z,610.035,1.58,2.17,49.66,0,5,5,-0.01,-0.03,-0.01,0,0,0,0,0,0,,,,3473278,48,69,291,2601,3707,4020,4030,-1231,16102,30,212,16100,0,false,false,false,false,false,false,false,false,false,false,0,0,0,0,44,56,55,44,944,946,945,944,940,940,940,940,0.0,0.0,0.0,0.0,1723.8,1717.7,1718.9,1723.8,0.0,0.0,0.0,0.0,0,0,0,0,-45.0,-1.5754356732502765E-11,1.751438272980754E-11,0,531.7774,531.9557,0.09407843,-0.028547104,-0.981129,0.9860425,0.24923883,-0.043161564,0.058546312,0.25963548,-35,-411,1467,1523.0,7.666886E-4,-7.255949E-4,-0.001035799,0.0014789114,0.0010556037448738354,-0.0010513436516382396,1.6824653371325906,5.522591190553851,76.71674328977426,76.71674328977429,0.17564987379743785,1.5304720723926781,-0.12527632193992463,76.96022296585322,,1.8853689281294383E-4,,,34.78,NONE,0.0,0.0,0.0,NONE,-7.124739476073974E-13,-1.4160758740812164E-12,0.0,17.333,17.333,6.197,1.1741306,0,3651,4.323,12.0,1.196,99,24.6,OK,24,0,0,0,0,0,65,100,0.0,0,0.0,589232.0,2.69E-43,0.0,-5.9807744E7,62,5.49322E-5,-5.4932443E-5,9.4E-44,False,False,0,None,0.0,1.0842022E-19,
105464666,27.410,0.0,0.0,5,531.93066,531.96985,0.094849944,-0.028652467,-0.9802547,0.9852496,0.19391777,0.05405651,0.03585558,0.20447941,-32,-405,1452,1507.0,0.0,0.0,0.008917057,0.008917057,0.0,0.0,1.6228482236183617,5.576212245650812,78.81987239414602,78.81987239414605,0.25825883702894814,1.7645799113122145,0.06676516952856561,76.37791199551975,,0.0,,,35.09,,,9.135943,62.6835269,20190821,134042,2019-08-21T13:40:42Z,609.782,1.58,2.17,37.35,0,5,5,0.01,0.0,-0.01,0,0,0,0,0,0,,,,3473278,17,69,292,2601,3707,4020,4030,-1156,16107,30,0,16100,0,false,false,false,false,false,false,false,false,false,false,0,0,0,0,45,56,56,45,943,945,945,944,940,940,940,940,0.0,0.0,0.0,0.0,1723.2,1717.7,1717.7,1723.2,0.0,0.0,0.0,0.0,0,0,0,0,-45.0,5.585027168269869E-12,4.65386688598844E-11,0,531.5158,531.955,0.095069505,-0.028766684,-0.9818389,0.9868502,0.2506794,-0.061998308,-0.018693868,0.25890812,-32,-405,1455,1510.0,0.0020874266,2.4396961E-4,-8.623165E-4,0.0022716648,0.002101635310700872,-0.002097680674130627,1.6738279662831632,5.532469305146719,76.69013029693465,76.69013029693463,0.1891878978355596,1.7868479919829399,-0.13455034176835462,76.52044209732681,,2.1327241590969284E-4,,,35.08,NONE,0.0,0.0,0.0,NONE,-2.560279036091068E-11,-2.2264688324198443E-11,0.0,17.332,17.332,6.2,1.178823,0,3651,4.323,12.0,1.197,99,24.6,OK,25,0,0,0,0,0,65,100,0.0,0,0.0,589232.0,2.69E-43,0.0,-5.9807744E7,62,5.49322E-5,-5.4932443E-5,9.4E-44,False,False,0,None,0.0,1.0842022E-19,
109600421,28.485,0.0,0.0,5,531.8408,531.9216,0.09460482,-0.02856987,-0.9807642,0.9857305,0.25208583,0.066809535,-0.010149394,0.2609862,-32,-408,1470,1525.0,0.0,0.0,0.025030844,0.025030844,0.0,0.0,1.6189231242677344,5.582855589647916,78.81372350309063,78.81372350309061,0.2914670245903706,2.054673546146748,0.10294968357862266,76.24723888195771,,0.0,,,35.39,,,9.1359432,62.6835268,20190821,134043,2019-08-21T13:40:43Z,609.578,1.58,2.17,32.13,0,5,5,0.01,0.0,0.01,0,0,0,0,0,0,,,,3475439,16,69,293,2579,3686,4036,4050,-1191,16124,27,0,15572,0,false,false,false,false,false,false,false,false,false,false,0,0,0,0,44,56,56,44,944,945,944,945,940,940,940,940,0.0,0.0,0.0,0.0,1722.6,1718.9,1718.3,1723.8,0.0,0.0,0.0,0.0,0,0,0,0,-45.0,8.614683504919953E-12,-1.9875941564845945E-11,0,531.7431,531.9552,0.094597965,-0.029420264,-0.97929794,0.9842961,0.29439571,0.12185818,0.021695076,0.31935704,-30,-411,1470,1526.0,-8.631286E-4,3.7491138E-4,0.001278486,0.0015874747,9.410363799669127E-4,-9.341586296935027E-4,1.668471209071876,5.543370808480056,76.66523221529545,76.66523221529542,0.2046501753130688,2.072133989211736,-0.14995727233556216,76.25914893243474,,2.4565652081847376E-4,,,35.38,NONE,0.0,0.0,0.0,NONE,2.5711019215909644E-11,-3.1519039652204984E-11,0.0,17.331,17.331,6.197,1.1832124,0,3650,4.322,12.0,1.194,99,24.7,OK,26,0,0,0,0,0,65,100,0.0,0,0.0,589232.0,2.69E-43,0.0,-5.9807744E7,62,5.49322E-5,-5.4932443E-5,9.4E-44,False,False,0,None,0.0,1.0842022E-19,
113452192,29.486,0.0,0.0,5,531.7193,531.972,0.09541337,-0.029694725,-0.9812518,0.9863268,0.2575564,0.07777111,-0.04151346,0.27222604,-35,-414,1464,1521.0,0.0,0.0,-0.0018210053,0.0018210053,0.0,0.0,1.6074849049084035,5.586565019463354,78.81155411658148,78.81155411658148,0.3222035168952277,2.3307558576648235,0.09179595100489213,76.82362124155405,,0.0,,,35.64,,,9.1359474,62.683528,20190821,134044,2019-08-21T13:40:44Z,609.098,1.58,2.17,28.94,0,5,5,0.0,0.0,0.0,0,0,0,0,0,0,,,,3475439,20,69,294,2579,3686,4036,4050,-1191,16124,27,2,15572,0,false,false,false,false,false,false,false,false,false,false,0,0,0,0,44,56,56,45,943,946,944,945,940,940,940,940,0.0,0.0,0.0,0.0,1723.2,1717.7,1717.1,1723.2,0.0,0.0,0.0,0.0,0,0,0,0,-45.0,1.6310304046854541E-12,6.037565601500362E-12,0,531.94653,531.95526,0.095037326,-0.028348975,-0.98137087,0.9863694,0.31640825,0.10898043,-9.937391E-4,0.33465192,-38,-414,1461,1519.0,2.4684388E-4,7.576307E-5,2.0542767E-4,3.2995827E-4,2.582090960914495E-4,-2.5522799450219946E-4,1.6616027215349192,5.541452518989351,76.6363513512755,76.6363513512755,0.21333803703208307,2.362170858502917,-0.1365970817493339,77.3914678287081,,2.679774575519666E-4,,,35.67,NONE,0.0,0.0,0.0,NONE,8.881432339336512E-12,-3.1965418319936775E-12,0.0,17.33,17.33,6.195,1.1870748,0,3650,4.322,12.0,1.2,99,24.7,OK,27,0,0,0,0,0,65,100,0.0,0,0.0,589232.0,2.69E-43,0.0,-5.9807744E7,62,5.49322E-5,-5.4932443E-5,9.4E-44,False,False,0,None,0.0,1.0842022E-19,
117311392,30.489,0.0,0.0,5,531.5766,531.93726,0.09584226,-0.028910242,-0.98048204,0.9855793,0.2990593,-0.058334913,0.0013821061,0.30469877,-35,-414,1455,1513.0,0.0,0.0,0.016337685,0.016337685,0.0,0.0,1.6048488910033663,5.603629189332317,78.80493453955518,78.80493453955518,0.287871158876474,2.6103916079935483,0.09832258118548384,76.86789260434435,,0.0,,,35.94,,,9.1359498,62.6835289,20190821,134045,2019-08-21T13:40:45Z,608.722,1.58,2.17,26.93,0,5,5,0.0,-0.02,0.01,0,0,0,0,0,0,,,,3475698,48,67,295,2480,3686,3988,4003,-1187,16001,29,212,16001,0,false,false,false,false,false,false,false,false,false,false,0,0,0,0,46,56,57,46,944,945,944,945,940,940,940,940,0.0,0.0,0.0,0.0,1722.6,1718.3,1717.1,1722.6,0.0,0.0,0.0,0.0,0,0,0,0,-45.0,7.899856756052721E-12,-1.866026226375526E-11,0,531.7774,531.9552,0.09412098,-0.028046206,-0.981667,0.9865675,0.27238208,0.07134885,-0.14422096,0.31635794,-32,-414,1455,1513.0,-8.537723E-4,3.3066887E-4,-0.0012092747,0.0015167777,9.155703077566649E-4,-9.127453939673466E-4,1.6546679980334664,5.552854943592204,76.62781098602139,76.62781098602136,0.23425271183356033,2.6270869208959193,-0.08145132215985894,76.7035715155152,,2.851366259337528E-4,,,36.0,NONE,0.0,0.0,0.0,NONE,6.524905886115595E-12,6.542127083677536E-12,0.0,17.33,17.33,6.197,1.1905702,0,3650,4.322,12.0,1.205,99,24.7,OK,28,0,0,0,0,0,65,100,0.0,0,0.0,589232.0,2.69E-43,0.0,-1.05007105E-23,62,5.49322E-5,-5.4932443E-5,9.4E-44,False,False,0,None,0.0,1.0842022E-19,
121208649,31.502,0.0,0.0,5,531.7801,531.9435,0.095098436,-0.029451814,-0.9815063,0.9865423,0.260079,-0.022198709,-0.07482244,0.27153686,-38,-414,1455,1513.0,0.0,0.0,-0.003964768,0.003964768,0.0,0.0,1.6047582984982638,5.5904358118362785,78.80825051234315,78.80825051234314,0.30213554180963914,2.9174700164295757,0.12292939668885079,77.26496978336256,,0.0,,,36.27,,,9.1359515,62.6835296,20190821,134046,2019-08-21T13:40:46Z,608.287,1.58,2.17,24.59,0,5,5,-0.01,0.0,0.01,0,0,0,0,0,0,,,,3475698,17,67,296,2480,3686,3990,4004,-1135,16001,29,0,16004,0,false,false,false,false,false,false,false,false,false,false,0,0,0,0,46,56,56,45,944,946,944,944,940,940,940,940,0.0,0.0,0.0,0.0,1722.6,1718.3,1717.7,1723.2,0.0,0.0,0.0,0.0,0,0,0,0,-45.0,-5.007349121402554E-12,-9.108771753301192E-13,0,531.82764,531.9555,0.09435458,-0.0302317,-0.9806374,0.98563,0.24166818,0.0011124304,-0.08373058,0.25576463,-35,-414,1455,1513.0,-1.7442278E-5,-2.4615132E-4,0.0027813604,0.0027922858,2.4676852750388705E-4,-2.44359249660086E-4,1.6510976301337301,5.536043964830169,76.64695665437594,76.64695665437591,0.21985341995211363,2.914284388491843,-0.10105110058173773,77.10718048546187,,3.188576340123155E-4,,,36.26,NONE,0.0,0.0,0.0,NONE,-4.73991405340486E-13,-4.738129028894918E-12,0.0,17.329,17.329,6.195,1.1937501,0,3649,4.322,12.0,1.199,99,24.7,OK,29,0,0,0,0,0,65,100,0.0,0,0.0,589232.0,2.69E-43,0.0,-1.05007105E-23,62,5.49322E-5,-5.4932443E-5,9.4E-44,False,False,0,None,0.0,1.0842022E-19,
125267493,32.556,0.0,0.0,5,531.7034,531.94745,0.09449512,-0.029331192,-0.9808249,0.98580277,0.20100267,-0.004958701,0.07775929,0.21557637,-38,-414,1455,1513.0,0.0,0.0,-0.009845861,0.009845861,0.0,0.0,1.6041195704574116,5.602752968074573,78.81770099618565,78.81770099618564,0.30366609430796,3.1524201091991575,0.13058710627461967,77.22736611038138,,0.0,,,36.55,,,9.1359519,62.6835296,20190821,134047,2019-08-21T13:40:47Z,608.07,1.58,2.17,22.71,0,5,5,0.02,0.01,0.01,0,0,0,0,0,0,,,,3475698,17,67,296,2480,3686,3990,4004,-1135,16001,29,0,16004,0,false,false,false,false,false,false,false,false,false,false,0,0,0,0,45,57,56,46,943,945,944,944,940,940,940,940,0.0,0.0,0.0,0.0,1722.6,1717.1,1717.7,1722.6,0.0,0.0,0.0,0.0,0,0,0,0,-45.0,-5.15893487392939E-11,-1.207732061625445E-11,0,531.7219,531.9547,0.09551495,-0.029821098,-0.98206764,0.9871521,0.13846192,0.043848492,-1.276992E-4,0.14523914,-35,-414,1455,1513.0,-5.037656E-4,-0.002303306,-0.003593517,0.004297949,0.002357752851660647,-0.002352703510963303,1.648563888563927,5.543003050374764,76.6553624941464,76.6553624941464,0.2572578532980491,3.1582330450414178,-0.11731252802430438,77.08432215045211,,3.5156255786724386E-4,,,36.58,NONE,0.0,0.0,0.0,NONE,-3.852293664524807E-11,-1.391665561977468E-11,0.0,17.329,17.329,6.195,1.1966531,0,3649,4.322,12.0,1.215,99,24.7,OK,30,0,0,0,0,0,65,100,0.0,0,0.0,589232.0,2.69E-43,0.0,-1.05007105E-23,62,5.49322E-5,-5.4932443E-5,9.4E-44,False,False,0,None,0.0,1.0842022E-19,
129155461,33.567,0.0,0.0,15,531.8805,531.9717,0.09465051,-0.029176015,-0.98186094,0.9868439,0.27852443,-0.03454315,0.14472969,0.31577805,-35,-411,1470,1526.0,0.0,0.0,-0.013540977,0.013540977,0.0,0.0,1.6008973644884723,5.513300354929943,79.68937112264354,79.68937112264354,0.38428608165938016,3.4655932438467327,0.12507059623287,76.8910539116007,,0.0,,,36.87,,,9.136007,62.6835351,20190821,134048,2019-08-21T13:40:48Z,611.116,0.77,1.31,17.79,10,5,15,0.0,0.0,-0.01,0,0,0,0,0,0,,,,3561171,20,67,298,2470,3699,3947,3976,-2041,15865,21,2,15923,0,false,false,false,false,false,false,false,false,false,false,0,0,0,0,45,56,57,45,943,945,944,944,940,940,940,940,0.0,0.0,0.0,0.0,1722.6,1717.7,1717.1,1723.2,0.0,0.0,0.0,0.0,0,0,0,0,-45.0,9.1359910581107,62.68353153275515,0,531.9835,531.9548,0.09462209,-0.028134037,-0.98233825,0.9872858,0.23773888,0.031630937,0.105979405,0.26220587,-38,-414,1455,1513.0,-0.0012998738,7.224147E-4,-8.828047E-4,0.0017294216,0.0014871297283847772,6939143.335504404,1.6640001425602433,5.523185407407611,76.58769564369022,76.58769564369021,0.28316803853680994,3.3723158754679523,-0.12572468159778086,77.51289685213362,,7011764.753964499,,,36.87,NONE,0.0,0.0,0.0,NONE,4.520866290512594E-11,-4.835267857483844E-12,0.0,17.327,17.327,6.194,1.1994463,0,3649,4.322,12.0,1.204,99,24.7,OK,31,0,0,0,0,0,65,100,0.0,0,0.0,589232.0,2.69E-43,0.0,-1.05007105E-23,62,5.49322E-5,-5.4932443E-5,9.4E-44,False,False,0,None,0.0,1.0842022E-19,
133036254,34.576,0.0,0.0,15,532.0364,531.98486,0.095435254,-0.028633248,-0.98107105,0.9861177,0.28642413,0.07811017,0.023233775,0.2977915,-38,-411,1467,1523.0,0.0048230803,-0.011393608,-0.01565281,0.019952115,0.01237240471449331,-0.01237240471449331,1.633655479862317,5.521679664256815,80.40377463086797,80.40377463086799,0.42315808960153684,3.6948810469334354,0.13546082261909936,77.2832031754811,,0.0,,,37.2,,,9.1360134,62.6835381,20190821,134050,2019-08-21T13:40:50Z,612.099,0.77,1.31,15.57,10,5,15,0.01,0.01,0.0,0,0,0,0,2,0,,,,3561172,114,67,299,2470,3699,3951,3978,-2732,15821,21,3507,15988,0,false,false,false,false,false,false,false,false,false,false,0,0,0,0,45,56,57,45,943,945,945,944,940,940,940,940,0.0,0.0,0.0,0.0,1723.8,1717.1,1717.7,1722.6,0.0,0.0,0.0,0.0,0,0,0,0,-45.0,9.136017939029388,62.68353860828472,0,531.9835,531.9549,0.09515911,-0.029153023,-0.9813877,0.9864213,0.2985062,0.027931781,0.07830178,0.3098666,-35,-414,1455,1513.0,-7.133279E-4,4.0392517E-4,-9.285542E-4,0.0012386304,8.197513105873796E-4,1.5669906844004702,1.6724225305661125,5.516992689155926,76.57996276701947,76.57996276701948,0.2985395157494502,3.6719249405490224,-0.14361409888814472,77.18090734335897,,7011766.541927261,57.13342195107238,57.13342195107238,37.22,NONE,0.0,0.0,0.0,NONE,-6.876092790390644E-11,-2.191765015088887E-12,0.0,17.326,17.326,6.193,1.2018845,0,3648,4.321,12.0,1.207,99,24.7,OK,32,0,0,0,0,0,65,100,0.0,0,0.0,589232.0,2.69E-43,0.0,-1.05007105E-23,62,5.49322E-5,-5.4932443E-5,9.4E-44,False,False,0,None,0.0,1.0842022E-19,
136895337,35.578,9.136000810592629,62.68353920753733,15,532.0179,531.97284,0.09599071,-0.028794423,-0.98120874,0.9863133,0.24669167,-0.03867106,0.04479356,0.25369015,-35,-411,1464,1521.0,-0.0023364536,-0.011208743,0.010515421,0.015545707,0.011449669432408544,-0.011449669432408544,1.670729200299285,5.534403798465677,80.78791724469704,80.78791724469704,0.44226221960677503,3.9294989127271416,0.1206508133506404,76.94725698059891,,4.003748815984284,90.97176929764217,90.97176929764217,37.48,,,9.136015,62.6835398,20190821,134051,2019-08-21T13:40:51Z,612.767,0.77,1.31,14.06,10,5,15,0.0,0.0,-0.01,0,0,0,0,2,0,,,,3561343,48,66,300,2406,3699,3955,3967,-1062,15862,23,212,15844,0,false,false,false,false,false,false,false,false,false,false,0,0,0,0,45,56,57,45,943,945,945,944,940,940,940,940,0.0,0.0,0.0,0.0,1723.8,1717.1,1717.7,1722.6,0.0,0.0,0.0,0.0,0,0,0,0,-45.0,9.136015876350891,62.683539954734066,0,531.69025,531.95465,0.09352098,-0.028944138,-0.9818253,0.9866939,0.28696078,0.02762325,-0.03242785,0.29010534,-32,-411,1461,1518.0,-1.4397938E-6,8.271758E-5,-0.004081201,0.0040820395,8.27301116394464E-5,0.1823911335846813,1.6676583369479565,5.541099003424659,76.58906533928337,76.58906533928337,0.2950518304240221,3.9473556378460013,-0.15906628154534774,76.59918157026873,,7011767.169266691,36.411626084130944,36.411626084130944,37.52,NONE,0.0,0.0,0.0,NONE,-2.5958528205609616E-11,-5.236812593153655E-12,0.0,17.327,17.327,6.197,1.2036784,0,3648,4.322,12.0,1.201,99,24.7,OK,33,0,0,0,0,0,65,100,0.0,0,0.0,589232.0,2.69E-43,0.0,-1.05007105E-23,62,5.49322E-5,-5.4932443E-5,9.4E-44,False,False,0,None,0.0,1.0842022E-19,
140792719,36.591,9.136014746366682,62.68354097062701,15,532.0945,531.9803,0.094122544,-0.029858578,-0.9805905,0.98554975,0.21117835,-0.12505437,-0.046786264,0.24984765,-35,-418,1449,1508.0,0.016663507,-0.012077098,-0.0028237924,0.02077264,0.020579814109880894,0.7076593493084028,1.6597457372837492,5.538100600240984,81.00394328478174,81.00394328478171,0.47149050513066726,4.222080988406618,0.0757403312735283,77.28138869057359,,4.861141759133003,-8.160393833063251,-8.160393833063251,37.78,,,9.1360151,62.6835406,20190821,134052,2019-08-21T13:40:52Z,613.328,0.77,1.31,12.94,10,5,15,0.0,0.0,0.0,0,0,0,0,3,0,,,,3561343,17,66,301,2406,3699,3956,3969,-1014,15852,23,0,15844,0,false,false,false,false,false,false,false,false,false,false,0,0,0,0,45,56,56,45,944,945,944,945,940,940,940,940,0.0,0.0,0.0,0.0,1723.8,1717.1,1716.5,1722.6,0.0,0.0,0.0,0.0,0,0,0,0,-45.0,9.136013768793868,62.68354033970966,0,532.00464,531.9549,0.09492463,-0.029672489,-0.98120004,0.9862275,0.26735774,-0.06853579,0.13060926,0.30534586,-35,-418,1449,1508.0,-4.0979948E-4,-0.0012343602,-4.0912675E-4,0.0013634388,0.0013006077673577232,0.11297453270666812,1.6541963917980844,5.56274449004262,76.56861826993992,76.56861826993992,0.30683714755669905,4.1776249169688375,-0.1711546118935788,77.20407479729064,,7011767.302954152,-28.453645824632282,-28.453645824632282,37.81,NONE,0.0,0.0,0.0,NONE,-4.513575622605696E-11,-1.2322404072673963E-11,0.0,17.326,17.326,6.194,1.2048143,0,3648,4.321,12.0,1.205,99,24.7,OK,34,0,0,0,0,0,65,100,0.0,0,0.0,589232.0,2.69E-43,0.0,-1.05007105E-23,62,5.49322E-5,-5.4932443E-5,9.4E-44,False,False,0,None,0.0,1.0842022E-19,
144716172,37.611,9.13601362597607,62.683541073941804,15,531.8805,531.974,0.09488476,-0.028768182,-0.9799375,0.9849407,0.29683405,-0.13737312,-0.037625223,0.32923773,-38,-414,1464,1521.0,-0.008097654,-0.018388018,0.0013836052,0.020139651,0.020092068076933922,0.0370959822311451,1.6398471847306617,5.544420350369152,81.1093475427969,81.10934754279691,0.5135262643344168,4.450237637684827,0.09218330254667739,77.33339311778892,,4.945136189961792,-41.30617519915597,-41.30617519915597,38.14,,,9.1360146,62.683541,20190821,134052,2019-08-21T13:40:52Z,613.774,0.77,1.31,12.1,10,5,15,0.02,0.01,0.01,0,0,0,0,3,0,,,,3563504,16,66,302,2407,3698,3969,3990,-1326,15874,24,0,15344,0,false,false,false,false,false,false,false,false,false,false,0,0,0,0,45,57,56,45,943,944,944,944,940,940,940,940,0.0,0.0,0.0,0.0,1722.6,1717.7,1717.1,1722.0,0.0,0.0,0.0,0.0,0,0,0,0,-45.0,9.136012961752986,62.683540344104756,0,531.95184,531.9548,0.09450701,-0.028984435,-0.9811786,0.98614556,0.29839858,0.10512257,-0.003802321,0.31639677,-38,-414,1470,1527.0,-5.692446E-4,-5.795553E-4,-0.0014128921,0.0016297816,8.12356931989497E-4,0.03957695442464817,1.6399917179298953,5.555150941678429,76.57195177914764,76.57195177914764,0.2964823389543238,4.432587676416362,-0.16560128629231446,77.23624926058939,,7011767.382217798,-35.73324490643403,-35.73324490643403,38.1,NONE,0.0,0.0,0.0,NONE,-2.599498743203576E-11,-1.2410241983935218E-11,0.0,17.324,17.324,6.194,1.2054172,0,3647,4.321,12.0,1.202,99,24.7,OK,35,0,0,0,0,0,65,100,0.0,0,0.0,589232.0,2.69E-43,0.0,-1.05007105E-23,62,5.49322E-5,-5.4932443E-5,9.4E-44,False,False,0,None,0.0,1.0842022E-19,
148723083,38.652,9.136013037149125,62.68354105913436,15,531.58716,531.96356,0.09453607,-0.029168036,-0.9802274,0.9852074,0.1717081,-0.033667684,0.013876717,0.17552707,-35,-418,1449,1508.0,-0.0057281083,-0.014014747,5.6035724E-4,0.015150524,0.015140157162927513,0.0137558508895778,1.6226414952167945,5.542332525634345,81.16930679264803,81.16930679264806,0.5237361360814525,4.669086074995075,0.07670216788962705,77.2404620711966,0.07477610561258471,4.990450225063917,-105.33390349921306,-102.81399365712474,38.41,,,9.1360141,62.6835411,20190821,134053,2019-08-21T13:40:53Z,614.022,0.77,1.31,11.55,10,5,15,0.02,0.0,0.0,0,0,0,0,5,5,9.136013051300038,62.683540386688044,120,3563504,20,66,303,2407,3698,3969,3990,-1326,15874,24,2,15344,0,false,false,false,false,false,false,false,false,false,false,0,0,0,0,45,58,58,46,944,944,944,944,940,940,940,940,0.0,0.0,0.0,0.0,1722.6,1717.7,1717.1,1722.0,0.0,0.0,0.0,0.0,0,0,0,0,-45.0,9.136012431156932,62.68354025065112,0,531.7193,531.9545,0.09486946,-0.029498164,-0.9816707,0.9866852,0.3080784,-0.012929903,-0.010964595,0.30854452,-35,-418,1446,1505.0,-2.0929084E-4,2.6525138E-4,6.1483367E-4,7.0155645E-4,3.378771292459425E-4,0.027510677670915775,1.6330489714557221,5.546892200058581,76.5691543327575,76.56915433275753,0.2963647605037119,4.659901997055958,-0.11332605117036407,77.2670116870563,0.03507413229183569,7011767.450285581,-116.09283357371635,-113.57292373162802,38.43,NONE,0.0,0.0,0.0,NONE,1.7755342104799736E-11,-1.5668610202688403E-11,0.0,17.324,17.324,6.192,1.2056296,0,3647,4.321,12.0,1.204,99,24.7,OK,36,0,0,0,0,0,65,100,0.0,0,0.0,-6.024068E-31,8.8E-44,0.0,-1.05007105E-23,62,5.49322E-5,-5.4932443E-5,1.0621628E-32,False,False,0,None,1.9239813E29,1.0842106E-19,geoDeclination|252 degrees
152620286,39.665,9.136012534506902,62.68354107971911,15,531.7008,531.97107,0.094057955,-0.029338814,-0.9823825,0.987311,0.18448055,-0.019847762,-0.063568264,0.19613242,-38,-414,1455,1513.0,-0.0071153073,-0.014860725,-0.0041558435,0.016992344,0.016476308550433166,0.008947301312633084,1.610053197931898,5.541914820354377,81.18867568709375,81.18867568709373,0.5240019378811,4.884667498279966,0.0688864193747141,77.4153181668685,0.081448776252296,5.041704202587416,-102.12510621931148,-99.60519637722315,38.7,,,9.1360133,62.6835412,20190821,134054,2019-08-21T13:40:54Z,614.368,0.77,1.31,10.84,10,5,15,0.0,0.0,0.0,0,0,0,0,5,5,9.136013051300038,62.683540386688044,120,3563960,48,61,304,2229,3698,3912,3922,-1173,15688,26,212,15684,0,false,false,false,false,false,false,false,false,false,false,0,0,0,0,45,56,57,45,944,944,944,944,940,940,940,940,0.0,0.0,0.0,0.0,1722.6,1717.1,1717.1,1722.6,0.0,0.0,0.0,0.0,0,0,0,0,-45.0,9.136012298331673,62.683540450242894,0,531.7404,531.9544,0.094683,-0.02966528,-0.9800001,0.9850102,0.3048734,-0.00848034,0.038684946,0.30743492,-35,-414,1452,1510.0,0.0020306683,-0.001418667,-0.0019425458,0.00314797,0.0024771414545045447,0.020433572680439153,1.6350127853290664,5.536952507744998,76.57577364365187,76.57577364365187,0.25995820116915197,4.9581892466402735,-0.13423466596138833,77.12415055244927,0.03906688877431576,7011767.548761546,-58.42421848203131,-55.90430863994298,38.75,NONE,0.0,0.0,0.0,NONE,-7.085730468928862E-11,-1.9081740455245186E-11,0.0,17.323,17.323,6.191,1.2056296,0,3647,4.321,12.0,1.204,99,24.7,OK,36,0,0,0,0,0,65,100,0.0,0,0.0,-4.369019E23,8.8E-44,0.0,-1.05007105E-23,62,5.49322E-5,-5.4932443E-5,1.060188E-32,False,False,0,None,1.9152286E29,1.0842106E-19,geoInclination|7434 degrees
156536781,40.683,9.13601131138212,62.68354122838771,15,531.88574,531.934,0.09544674,-0.028502934,-0.9805531,0.98559976,0.20694777,0.083765,-0.07983844,0.23710364,-38,-421,1443,1503.0,0.0020589884,-0.014030861,0.0131635545,0.019348996,0.014181131312889254,0.04925038338535978,1.642642561841719,5.5613776082028945,81.19102525671515,81.19102525671514,0.5020466886639902,5.154241794929698,0.11296304495802192,77.69741562749775,0.12900487367354302,5.110003115909764,-97.60571629993406,-95.08580645784573,39.1,,,9.1360125,62.6835412,20190821,134056,2019-08-21T13:40:56Z,614.567,0.77,1.31,10.34,10,5,15,0.0,-0.01,-0.01,0,0,0,0,5,5,9.136013051300038,62.683540386688044,120,3563960,17,61,305,2229,3698,3914,3923,-1108,15688,26,0,15684,0,false,false,false,false,false,false,false,false,false,false,0,0,0,0,45,56,57,45,944,944,944,944,940,940,940,940,0.0,0.0,0.0,0.0,1722.6,1717.1,1717.1,1722.6,0.0,0.0,0.0,0.0,0,0,0,0,-45.0,9.136011577881185,62.683540623534334,0,532.0205,531.954,0.095676765,-0.028065484,-0.98125273,0.98630553,0.058394767,-1.3509301E-4,0.10603184,0.12104841,-38,-421,1443,1503.0,-3.5348805E-4,4.2875292E-4,-9.2487305E-4,0.0010789685,5.556823362657217E-4,0.040222125536654454,1.648139042662709,5.529746333716831,76.57156801276952,76.57156801276949,0.29571215355861646,5.195108788417907,-0.09612926802622478,77.79471673639443,0.07966456191560706,7011767.609998188,69.99255538494457,72.51246522703289,39.07,NONE,0.0,0.0,0.0,NONE,1.1085695570567564E-11,-5.303736716358861E-12,0.0,17.32,17.32,6.192,1.2061771,0,3646,4.321,12.0,1.212,99,24.7,OK,38,0,0,0,0,0,65,100,0.0,0,0.0,-6.6160467E31,8.8E-44,0.0,-1.05007105E-23,62,5.49322E-5,-5.4932443E-5,1.2482156E-32,False,False,0,None,2.7193094E29,1.0842106E-19,geoIntensity|5165832 nanoTesla
160460102,41.703,9.136010371754201,62.683541146232095,15,531.86725,531.935,0.09447744,-0.029126287,-0.98148507,0.98645186,0.2824967,-0.089953415,-0.027155071,0.2977136,-38,-414,1455,1513.0,-0.0019124021,-0.015511331,0.008441674,0.017762898,0.015628776987862247,0.03224016001513353,1.6319842331487484,5.553962646178272,81.19568932718514,81.19568932718516,0.4748142644180466,5.389880336314499,0.13526687223152828,77.39582826271106,0.16071272392941038,5.166653588799734,-92.27329535454118,-89.75338551245285,39.37,,,9.1360114,62.6835412,20190821,134057,2019-08-21T13:40:57Z,614.666,0.77,1.31,9.94,10,5,15,0.0,-0.01,0.0,0,0,0,0,5,5,9.136013051300038,62.683540386688044,120,3565416,16,61,306,2228,3698,3942,3957,-1166,15864,26,0,15728,0,false,false,false,false,false,false,false,false,false,false,0,0,0,0,45,58,58,45,943,945,944,944,940,940,940,940,0.0,0.0,0.0,0.0,1722.6,1717.1,1717.1,1722.0,0.0,0.0,0.0,0.0,0,0,0,0,-45.0,9.136010503207258,62.683540636439695,0,531.8329,531.954,0.09497369,-0.02909701,-0.9810248,0.9860407,0.33538327,-0.09613192,-0.061988384,0.3543527,-38,-418,1449,1508.0,0.0012391994,5.4652325E-4,-6.985443E-4,0.0015238986,0.001354364350244528,0.052445390707185596,1.617565439238709,5.525341957496826,76.57130474120484,76.57130474120481,0.3512859965963694,5.4407269827717,-0.14207714736853094,77.64246383578907,0.13295646236681613,7011767.66495298,-90.07446781839596,-87.55455797630763,39.33,NONE,0.0,0.0,0.0,NONE,-7.744719859294104E-11,1.9424726585409456E-11,0.0,17.32,17.32,6.192,1.2067546,0,3646,4.32,12.0,1.204,99,24.8,OK,39,0,0,0,0,0,65,100,0.0,0,0.0,-1.0182314E22,8.8E-44,0.0,-1.05007105E-23,62,5.49322E-5,-5.4932443E-5,1.5887892E-32,False,False,0,None,3.788967E29,1.0842106E-19,
164320411,42.706,9.136009323283846,62.683541088417044,15,532.0628,531.9124,0.093920514,-0.029240154,-0.9809808,0.9859003,0.32687005,0.013545676,0.09888016,0.34176716,-35,-418,1446,1505.0,-0.003250263,-0.016262362,0.01465048,0.022128379,0.01658398648019296,0.03712608645314579,1.6195079955071892,5.553369293793522,81.19647751175354,81.19647751175353,0.4460187200598069,5.5906332523127436,0.13804443223009347,77.23745620616509,0.20561369564614926,5.228024264182451,-128.53165891421838,-126.01174907213006,39.6,,,9.1360106,62.6835411,20190821,134058,2019-08-21T13:40:58Z,614.745,0.77,1.31,9.57,10,5,15,0.0,0.0,0.01,0,0,0,0,5,5,9.136013051300038,62.683540386688044,120,3565416,20,61,307,2228,3698,3942,3957,-1166,15864,26,2,15728,0,false,false,false,false,false,false,false,false,false,false,0,0,0,0,44,59,58,44,943,944,943,943,940,940,940,940,0.0,0.0,0.0,0.0,1722.0,1716.5,1716.5,1722.6,0.0,0.0,0.0,0.0,0,0,0,0,-45.0,9.136009492069137,62.68354049560188,0,531.7986,531.954,0.094616614,-0.02877359,-0.98184294,0.9868109,0.3091453,0.0585181,-0.064067975,0.3210917,-38,-418,1440,1499.0,-3.4652755E-4,-1.8298515E-4,7.6475495E-4,8.593108E-4,3.9187359173306694E-4,0.05335251916927874,1.6173541576296149,5.532040206136252,76.58021021906774,76.58021021906774,0.32287536931590044,5.640596877077585,-0.10954781818973597,77.719126027707,0.18202336163664934,7011767.761922322,-71.78063646414464,-69.26072662205631,39.63,NONE,0.0,0.0,0.0,NONE,-6.562549456599949E-12,-7.211074210569936E-12,0.0,17.321,17.321,6.192,1.2072046,0,3646,4.32,12.0,1.211,99,24.8,OK,40,0,0,0,0,0,65,100,0.0,0,0.0,-8.7505764E10,8.8E-44,0.0,-1.05007105E-23,62,5.49322E-5,-5.4932443E-5,1.9026932E-32,False,False,0,None,5.1896768E29,1.0842106E-19,
168364297,43.757,9.136008711751824,62.68354103564854,15,531.70874,531.8941,0.09394227,-0.02814256,-0.98238605,0.9872687,0.19761938,0.08737285,-0.07073235,0.22735544,-38,-418,1446,1505.0,-0.006926566,-0.016907971,0.010222911,0.020937162,0.018271749241977046,0.01193986831710014,1.6431139292926065,5.562948724563558,81.19773735076504,81.19773735076501,0.45997043830685314,5.911622387586151,0.14710762781368728,77.58189969499661,0.23289912506502575,5.2851328045114725,-91.349579199924,-88.82966935783567,39.97,,,9.1360097,62.6835411,20190821,134059,2019-08-21T13:40:59Z,614.806,0.77,1.31,9.27,10,5,15,0.01,-0.01,0.0,0,0,0,0,5,5,9.136013051300038,62.683540386688044,120,3565480,48,60,308,2204,3698,3927,3936,-1120,15732,27,212,15728,0,false,false,false,false,false,false,false,false,false,false,0,0,0,0,45,58,57,46,943,944,944,945,940,940,940,940,0.0,0.0,0.0,0.0,1722.6,1717.7,1716.5,1722.6,0.0,0.0,0.0,0.0,0,0,0,0,-45.0,9.136008650741571,62.68354052216877,0,531.9386,531.95355,0.09402996,-0.028057054,-0.98115736,0.98605204,0.36209837,-0.089136116,0.0146162715,0.37319446,-35,-418,1455,1514.0,-0.0021374158,2.8947028E-4,-0.0013631935,0.0025515947,0.0021569282816591546,0.03878805840512557,1.626455422367451,5.5413008100518315,76.57399083795507,76.57399083795508,0.33038176716705275,5.8691134375102925,-0.08949183108930844,77.18228996302248,0.22505596753588797,7011767.808878662,-98.51541095337711,-95.99550111128879,39.97,NONE,0.0,0.0,0.0,NONE,4.037790849906648E-11,-3.848137049797738E-12,0.0,17.319,17.319,6.192,1.2072046,0,3646,4.32,12.0,1.211,99,24.8,OK,40,0,0,0,0,0,65,100,0.0,0,0.0,-1.6012175E11,8.8E-44,0.0,-1.05007105E-23,62,5.49322E-5,-5.4932443E-5,2.1509952E-32,False,False,0,None,6.2975364E29,1.0842106E-19,
172223331,44.760,9.13600772618256,62.6835410442164,15,531.8144,531.89594,0.09401537,-0.029057577,-0.980143,0.98507035,0.2439147,-0.0537722,0.0582218,0.25646755,-38,-421,1437,1497.0,7.933454E-4,-0.0150850285,-0.0031902764,0.015439085,0.015105875570468044,0.035046930429030225,1.622923872207928,5.536489611879374,81.19816322596134,81.19816322596137,0.48339043052483316,6.153102720319058,0.20430012730554123,77.82058798177026,0.28139393338338575,5.335488696017123,-91.6666684614442,-89.14675861935588,40.25,,,9.1360089,62.683541,20190821,134100,2019-08-21T13:41:00Z,614.861,0.74,1.25,8.95,11,5,16,0.02,0.01,0.0,0,0,0,0,5,5,9.136013051300038,62.683540386688044,120,3565480,17,60,309,2204,3698,3927,3936,-1120,15732,27,0,15728,0,false,false,false,false,false,false,false,false,false,false,0,0,0,0,45,58,58,45,943,945,945,944,940,940,940,940,0.0,0.0,0.0,0.0,1722.6,1716.5,1717.1,1722.0,0.0,0.0,0.0,0.0,0,0,0,0,-45.0,9.136007891438846,62.68354037232139,0,531.66644,531.95337,0.09434881,-0.028671961,-0.98127574,0.986218,0.25677633,-0.026732977,0.04786924,0.26256466,-41,-421,1443,1503.0,0.0013963019,2.3766945E-4,8.005339E-4,0.0016269605,0.0014163847210500544,0.04063620262539143,1.6134123530942286,5.527372786079081,76.57689415944128,76.57689415944128,0.31577633968627145,6.171387821472664,-0.08167502275731035,78.13089172580757,0.2633016599998773,7011767.864724262,-110.94419657343181,-108.42428673134349,40.26,NONE,0.0,0.0,0.0,NONE,3.062523068422808E-11,5.588164237746252E-12,0.0,17.319,17.319,6.191,1.2074969,0,3645,4.32,12.0,1.203,99,24.8,OK,41,0,0,0,0,0,65,100,0.0,0,0.0,-500256.0,8.8E-44,0.0,-1.05007105E-23,62,5.49322E-5,-5.4932443E-5,2.3979431E-32,False,False,0,None,8.460353E29,1.0842106E-19,
176120752,45.773,9.13600735919778,62.68354089484431,16,531.965,531.9013,0.09499139,-0.029434163,-0.9808504,0.9858789,0.16960387,0.04906556,-0.064298175,0.18790199,-38,-421,1434,1495.0,-6.1393273E-4,-0.0058743074,-0.00707883,0.009219232,0.005906301763391445,0.01880540680917503,1.6140220389925497,5.534684120039884,81.1894417621944,81.1894417621944,0.47090176756779234,6.391208672318782,0.21737183791178297,77.85158371475795,0.2959010052596103,5.3911549057819705,-158.3088860055265,-155.78897616343815,40.55,,,9.1360084,62.6835409,20190821,134101,2019-08-21T13:41:01Z,614.919,0.74,1.25,8.7,11,5,16,0.01,-0.01,0.01,0,0,0,0,5,5,9.136013051300038,62.683540386688044,120,3579858,16,60,310,2204,3696,3933,3948,-1315,15709,22,0,15189,0,false,false,false,false,false,false,false,false,false,false,0,0,0,0,45,59,58,45,944,945,944,944,940,940,940,940,0.0,0.0,0.0,0.0,1722.6,1717.1,1717.1,1720.8,0.0,0.0,0.0,0.0,0,0,0,0,-45.0,9.136007599893546,62.68354026660308,0,531.8805,531.95386,0.09540343,-0.027937304,-0.9812673,0.9862899,0.31184146,0.007623258,-0.12996437,0.33792594,-44,-418,1446,1505.0,-0.0012928081,-3.5829176E-4,-4.9500394E-4,0.0014299492,0.0013415386133149335,0.017377355674942616,1.617229063179881,5.53939219484189,76.59102568072268,76.59102568072268,0.3169306866035432,6.3964673974057735,-0.08643782790384164,78.34633371495372,0.2784940505814913,7011767.911253343,153.36063202301096,155.8805418650993,40.52,NONE,0.0,0.0,0.0,NONE,8.155790608502567E-11,4.443761741026343E-11,0.0,17.318,17.318,6.19,1.207584,0,3645,4.32,12.0,1.208,99,24.8,OK,42,0,0,0,0,0,65,100,0.0,0,0.0,-3149760.0,8.8E-44,0.0,-1.05007105E-23,62,5.49322E-5,-5.4932443E-5,2.4669403E-32,False,False,0,None,9.068104E29,1.0842106E-19,
180052222,46.795,9.13600694060985,62.683540649506,16,531.751,531.8898,0.09563231,-0.029226497,-0.982171,0.98724854,0.14444709,0.07568759,-0.018976247,0.16417573,-38,-421,1440,1500.0,0.0054525635,-0.013569058,-9.820987E-4,0.014656545,0.014623603532172676,0.019285708637800634,1.6040110062001318,5.530485333342843,81.17036144536574,81.17036144536576,0.48644225368929556,6.647142153640919,0.23354732035544143,77.79232585610497,0.31318208151696414,5.433950297952922,-83.66318013586987,-81.14327029378154,40.86,,,9.136008,62.6835407,20190821,134102,2019-08-21T13:41:02Z,615.011,0.74,1.25,8.47,11,5,16,0.0,0.0,0.0,0,0,0,0,5,5,9.136013051300038,62.683540386688044,120,3579858,20,60,311,2204,3696,3933,3948,-1315,15709,22,2,15189,0,false,false,false,false,false,false,false,false,false,false,0,0,0,0,46,58,58,46,944,945,944,944,940,940,940,940,0.0,0.0,0.0,0.0,1720.8,1717.1,1717.1,1720.8,0.0,0.0,0.0,0.0,0,0,0,0,-45.0,9.136007110726366,62.68354018399931,0,531.7827,531.9536,0.09562056,-0.029637568,-0.98149663,0.9865887,0.28688815,0.018783357,0.02258168,0.28838786,-38,-421,1443,1503.0,-0.0011607063,0.001700113,-1.0749559E-4,0.0020613535,0.002058548813092814,0.023972211307658427,1.627672611444723,5.527122521586251,76.57728380345712,76.57728380345714,0.27699323659268354,6.590241218681971,-0.09572496765772863,77.78748078072958,0.3039716123767875,7011767.95638507,-42.6362722387123,-40.11636239662398,40.82,NONE,0.0,0.0,0.0,NONE,5.428686688288851E-11,-1.345174864415565E-11,0.0,17.318,17.318,6.19,1.2075126,0,3644,4.32,12.0,1.205,99,24.8,OK,43,0,0,0,0,0,65,100,0.0,0,0.0,-0.4086151,8.8E-44,0.0,-1.05007105E-23,62,5.49322E-5,-5.4932443E-5,2.8421205E-32,False,False,0,None,1.0742225E30,1.0842106E-19,
184000205,47.821,9.136006777521773,62.683540650992555,16,531.86725,531.9182,0.09485978,-0.027930964,-0.98142725,0.98639643,0.13060668,-0.04819374,-0.030984946,0.1426212,-38,-421,1443,1503.0,0.0033023842,-0.017070612,-0.010397724,0.02025893,0.017387108091215187,-0.0092748571103225,1.5909311555968282,5.538577844503209,81.14423154294572,81.1442315429457,0.44834975294318546,6.862918448918705,0.2089897198659199,77.72663458948116,0.321483817813271,5.463668705366792,-66.11063539447443,-63.5907255523861,41.2,,,9.1360077,62.6835407,20190821,134103,2019-08-21T13:41:03Z,615.094,0.74,1.25,8.27,11,5,16,0.0,0.0,0.0,0,0,0,0,5,5,9.136013051300038,62.683540386688044,120,3579858,20,60,311,2204,3696,3933,3948,-1315,15709,22,2,15189,0,false,false,false,false,false,false,false,false,false,false,0,0,0,0,45,58,58,45,943,945,944,944,940,940,940,940,0.0,0.0,0.0,0.0,1722.0,1717.7,1716.5,1722.0,0.0,0.0,0.0,0.0,0,0,0,0,-45.0,9.136006831511724,62.68354009986271,0,531.9016,531.9541,0.09534608,-0.02842775,-0.98171014,0.986739,0.16893029,0.07324574,0.020415636,0.18525437,-38,-421,1443,1503.0,-8.3272E-4,6.7125206E-5,-0.0031553733,0.0032640938,8.354211166534167E-4,0.01577640147598238,1.6493225126972024,5.555488909834808,76.54225508892104,76.54225508892102,0.2538306881153834,6.779857371280883,-0.04415857196072386,77.71968972568257,0.3189811084159264,7011768.00068988,-125.24586436010901,-122.72595451802069,41.17,NONE,0.0,0.0,0.0,NONE,-4.6557641903961127E-11,-3.2458199462579613E-12,0.0,17.318,17.318,6.19,1.2073854,0,3644,4.319,12.0,1.208,99,24.8,OK,44,0,0,0,0,0,65,100,0.0,0,0.0,-0.01727581,8.8E-44,0.0,-1.05007105E-23,62,5.49322E-5,-5.4932443E-5,3.0765423E-32,False,False,0,None,1.1788284E30,1.0842106E-19,
187948386,48.847,9.136006334312636,62.68354055762745,16,531.78796,531.9531,0.09451812,-0.029297642,-0.982233,0.98720497,0.32127976,-0.021163791,-0.053206854,0.3263427,-35,-421,1440,1500.0,0.0015210062,-0.017228467,-0.011149669,0.020577868,0.017295478140621264,0.006956231683122191,1.594934674426542,5.532686943471503,81.13586015853075,81.13586015853076,0.4262453116591973,7.129552470623385,0.24244893476875612,77.42510301668253,0.34328030672764964,5.4970005589327275,-149.88494554743835,-147.36503570535,41.52,,,9.1360074,62.6835406,20190821,134104,2019-08-21T13:41:04Z,615.172,0.74,1.25,8.08,11,5,16,-0.01,0.0,0.0,0,0,0,0,5,5,9.136013051300038,62.683540386688044,120,3580430,48,54,312,1977,3696,3864,3874,-1149,15500,26,212,15495,0,false,false,false,false,false,false,false,false,false,false,0,0,0,0,46,59,58,46,943,946,944,944,940,940,940,940,0.0,0.0,0.0,0.0,1722.6,1715.9,1716.5,1720.8,0.0,0.0,0.0,0.0,0,0,0,0,-45.0,9.136006450986805,62.6835400095581,0,531.8065,531.95435,0.09555669,-0.029289942,-0.9816858,0.9867604,0.2106082,0.033574834,-0.0330697,0.21581632,-38,-421,1452,1512.0,0.001041259,0.0010586969,-1.5034678E-4,0.0014925359,0.0014849442566168584,0.0198188348750183,1.6432520506031636,5.542897364488564,76.54467461711326,76.54467461711329,0.24523066600913251,6.999857563548737,-0.032346154691196574,77.65620358581718,0.3394006566302551,7011768.050737466,-66.16581176271211,-63.645901920623785,41.53,NONE,0.0,0.0,0.0,NONE,7.138595344174126E-11,2.8342365921665716E-11,0.0,17.317,17.317,6.187,1.207313,0,3644,4.319,12.0,1.209,99,24.8,OK,45,0,0,0,0,0,65,100,0.0,0,0.0,-5.871523E-5,8.8E-44,0.0,-1.05007105E-23,62,5.49322E-5,-5.4932443E-5,3.282E-32,False,False,0,None,1.2733374E30,1.0842106E-19,
191864707,49.865,9.136006169744649,62.6835405926961,16,532.0813,531.9178,0.09525985,-0.029305715,-0.9802192,0.98527306,0.37695372,-0.005684395,-0.12702134,0.39782012,-41,-418,1452,1511.0,0.010638439,-0.005993978,0.008676803,0.014979688,0.012210821516971287,-0.0031142878516373356,1.6263818247926887,5.526766204539195,81.14635033805487,81.14635033805484,0.41829986728683016,7.414502428031604,0.2258440143426049,77.96866112213502,0.35189759714491536,5.53598656125704,-77.43893369644105,-74.91902385435273,41.83,,,9.1360071,62.6835405,20190821,134105,2019-08-21T13:41:05Z,615.238,0.74,1.24,7.9,11,5,16,-0.01,0.0,0.0,0,0,0,0,5,5,9.136013051300038,62.683540386688044,120,3580430,17,54,313,1977,3696,3864,3874,-1149,15500,26,0,15495,0,false,false,false,false,false,false,false,false,false,false,0,0,0,0,45,58,59,46,944,945,944,944,940,940,940,940,0.0,0.0,0.0,0.0,1722.0,1717.1,1717.1,1722.6,0.0,0.0,0.0,0.0,0,0,0,0,-45.0,9.13600628865973,62.6835400434289,0,531.8778,531.95435,0.09533221,-0.029002517,-0.9793615,0.98441774,0.3589667,0.019961564,-0.06269596,0.36494702,-41,-418,1446,1505.0,2.476214E-4,0.0015649945,6.889114E-4,0.0017277508,0.001584463293172984,0.0073553459716064595,1.660763010688996,5.533256487794929,76.5764154164531,76.57641541645307,0.21603024295415946,7.272752565884081,-0.02861988108284756,78.03891454005293,0.34718769473268785,7011768.07840347,85.06886711279218,87.5887769548805,41.84,NONE,0.0,0.0,0.0,NONE,7.043802974871779E-11,5.086233317555518E-12,0.0,17.317,17.317,6.192,1.2074422,0,3643,4.319,12.0,1.212,99,24.8,OK,46,0,0,0,0,0,65,100,0.0,0,0.0,-0.0018664002,8.8E-44,0.0,-1.05007105E-23,62,5.49322E-5,-5.4932443E-5,3.4563116E-32,False,False,0,None,1.4288536E30,1.0842106E-19,
195817979,50.892,9.13600596015931,62.68354025075787,16,531.5792,531.88794,0.094222404,-0.029668845,-0.97927517,0.9842449,0.27344346,0.007962462,0.020895217,0.27435625,-41,-421,1434,1495.0,0.0031087077,-0.0051340098,0.015122831,0.016270284,0.006001843065633915,0.032440643624130405,1.645668829276342,5.502168804791882,81.15346162708146,81.15346162708147,0.4096150275847098,7.680552047987832,0.21582525109397502,78.32468967565634,0.36216147155283157,5.581014389387017,-111.43801894021126,-108.91810909812294,42.12,,,9.1360068,62.6835403,20190821,134106,2019-08-21T13:41:06Z,615.342,0.74,1.24,7.76,11,5,16,0.0,0.0,0.01,0,0,0,0,5,5,9.136013051300038,62.683540386688044,120,3580521,16,54,314,1977,3696,3871,3887,-1160,15587,26,0,15444,0,false,false,false,false,false,false,false,false,false,false,0,0,0,0,46,58,58,46,944,945,944,944,940,940,940,940,0.0,0.0,0.0,0.0,1722.6,1717.1,1716.5,1720.8,0.0,0.0,0.0,0.0,0,0,0,0,-45.0,9.136005946236825,62.683539623701385,0,531.7616,531.9544,0.09479222,-0.0285923,-0.97958964,0.9845806,0.39362967,-0.029850475,0.04130142,0.39691457,-41,-421,1434,1495.0,-0.0015019976,-9.488099E-7,-5.6449225E-4,0.0016045714,0.0015019979169077651,0.04700233603179856,1.6796283993174352,5.535626620626391,76.58853971130135,76.58853971130134,0.22214523345994522,7.548001701785601,-0.010952816515729265,78.25016213946095,0.3723506233906302,7011768.1470412575,-160.6074418939237,-158.08753205183535,42.13,NONE,0.0,0.0,0.0,NONE,-3.011480954226011E-11,-2.871044859597307E-11,0.0,17.315,17.315,6.188,1.2078508,0,3643,4.319,12.0,1.213,99,24.8,OK,47,0,0,0,0,0,65,100,0.0,0,0.0,-1.2528312E-12,8.8E-44,0.0,-5.9807744E7,62,5.49322E-5,-5.4932443E-5,3.7774755E-32,False,False,0,None,1.7154754E30,1.0842106E-19,
199777287,51.921,9.136005518564248,62.683540042026564,16,531.73517,531.91174,0.09573797,-0.029746465,-0.98075205,0.9858627,0.23211811,-0.013332413,0.06612406,0.24172084,-38,-421,1443,1503.0,0.0018289536,-0.0071742446,-0.0020646087,0.0076861866,0.007403705586537192,0.024033504283280008,1.6597904281340472,5.505572272550243,81.16814788488489,81.16814788488489,0.4232807152860793,7.940415648964663,0.16978717496917317,77.87450232243594,0.38628544743335314,5.637797479237917,-119.53750914051687,-117.01759929842855,42.4,,,9.1360065,62.68354,20190821,134107,2019-08-21T13:41:07Z,615.427,0.74,1.24,7.62,11,5,16,-0.01,0.0,0.0,0,0,0,0,5,5,9.136013051300038,62.683540386688044,120,3580521,20,54,315,1977,3696,3871,3887,-1160,15587,26,2,15444,0,false,false,false,false,false,false,false,false,false,false,0,0,0,0,45,59,59,46,944,945,944,944,940,940,940,940,0.0,0.0,0.0,0.0,1721.4,1715.9,1715.9,1720.8,0.0,0.0,0.0,0.0,0,0,0,0,-45.0,9.136005658731271,62.68353941512366,0,531.936,531.95435,0.09497629,-0.029225413,-0.98048013,0.9855029,0.36360776,-0.14497866,-0.15892765,0.42247772,-35,-421,1443,1503.0,-0.0011237197,0.0010072289,-0.0019424262,0.0024597307,0.0015090579989453126,0.02516070156299218,1.6618263095386656,5.544812802189838,76.60013631683013,76.60013631683012,0.2445625621462524,7.8476050963648065,-0.0552900934621393,77.40764836118564,0.3923919891727676,7011768.211571545,160.63804068704957,163.1579505291379,42.4,NONE,0.0,0.0,0.0,NONE,4.878161584797753E-11,-2.690349728470728E-11,0.0,17.315,17.315,6.187,1.2083659,0,3643,4.319,12.0,1.206,99,24.8,OK,48,0,0,0,0,0,65,100,0.0,0,0.0,-2.0205124E-16,8.8E-44,0.0,-5.9807744E7,62,5.49322E-5,-5.4932443E-5,4.03394E-32,False,False,0,None,1.9443396E30,1.0842106E-19,
203661004,52.931,9.13600505102557,62.68353963587452,18,531.7219,531.9007,0.09520043,-0.028484553,-0.98116475,0.98618394,0.34992996,0.08361915,-0.019731076,0.3603227,-32,-421,1437,1497.0,0.0051954007,-0.007939343,1.7557398E-4,0.009489794,0.00948816937436685,0.04111448533450349,1.644635799305467,5.518699291734468,81.1858397768446,81.1858397768446,0.4420997215177584,8.171196368481388,0.1838391345980544,77.1826629976721,0.4166864010261938,5.697606075553822,-102.89937953182141,-100.37946968973309,42.73,,,9.1360057,62.6835397,20190821,134108,2019-08-21T13:41:08Z,615.511,0.7,1.18,7.46,11,7,18,0.02,0.0,0.01,0,0,0,0,5,5,9.136013051300038,62.683540386688044,120,3580641,48,53,316,1929,3696,3856,3866,-1234,15452,26,212,15454,0,false,false,false,false,false,false,false,false,false,false,0,0,0,0,46,59,59,45,943,944,944,943,940,940,940,940,0.0,0.0,0.0,0.0,1722.0,1716.5,1716.5,1722.0,0.0,0.0,0.0,0.0,0,0,0,0,-45.0,9.136005072749832,62.68353925473053,0,531.87256,531.9543,0.09450356,-0.028469052,-0.98157495,0.98652464,0.20882899,0.010936737,-0.017828155,0.20987377,-32,-421,1437,1497.0,-0.0018344478,-4.202121E-4,-9.877954E-4,0.002125445,0.0018819609467286193,0.032611493138607464,1.6658832750553123,5.5635687046698665,76.59856010843384,76.59856010843384,0.22424545754506273,8.068788480918911,5.782857793245316E-4,77.06779974531698,0.42614129778608417,7011768.280921897,-30.23951593897579,-27.719606096887464,42.69,NONE,0.0,0.0,0.0,NONE,5.869835651220745E-11,-4.952385072498851E-12,0.0,17.314,17.314,6.186,1.208727,0,3642,4.318,12.0,1.21,99,24.8,OK,49,0,0,0,0,0,65,100,0.0,0,0.0,-5.0190937E-18,8.8E-44,0.0,-5.9807744E7,62,5.49322E-5,-5.4932443E-5,4.4644908E-32,False,False,0,None,2.3285265E30,1.0842106E-19,
207510649,53.931,9.13600398152557,62.68353920786681,18,531.9782,531.9048,0.09555522,-0.028773502,-0.9813437,0.98640466,0.2062397,0.002383836,-0.10002609,0.22922851,-41,-424,1443,1504.0,-0.0018495556,-0.01363723,-0.0019385727,0.013897947,0.013762081211476566,0.05861253956548977,1.6503433410252193,5.542570606755571,81.17991746489078,81.17991746489076,0.4134143097683714,8.4221163735684,0.21561363284835391,78.18778045508165,0.4810157103724529,5.791296263977814,-143.81226150192757,-141.29235165983923,42.98,,,9.1360048,62.6835392,20190821,134109,2019-08-21T13:41:09Z,615.563,0.7,1.18,7.34,11,7,18,0.0,-0.01,-0.01,0,0,0,0,5,5,9.136013051300038,62.683540386688044,120,3580641,17,53,317,1929,3696,3856,3866,-1234,15452,26,0,15454,0,false,false,false,false,false,false,false,false,false,false,0,0,0,0,46,58,59,47,944,945,944,944,940,940,940,940,0.0,0.0,0.0,0.0,1721.4,1717.1,1717.7,1722.0,0.0,0.0,0.0,0.0,0,0,0,0,-45.0,9.13600399205148,62.68353864909029,0,531.70874,531.9542,0.09592936,-0.029046156,-0.9814169,0.9865218,0.20522511,0.046295103,-0.02979852,0.21248186,-41,-424,1443,1504.0,-0.001072766,7.089739E-4,-5.330974E-5,0.0012869781,0.0012858736009101175,0.08571200836431724,1.6647070579146837,5.5623011222565655,76.57367245926385,76.57367245926383,0.2114565190926301,8.300605420825542,0.011615860767632304,78.14002179065136,0.5010273944260424,7011768.370144991,-139.07095990816634,-136.551050066078,42.99,NONE,0.0,0.0,0.0,NONE,-1.2468843191630924E-11,-2.0545705638610095E-11,0.0,17.313,17.313,6.189,1.2091011,0,3642,4.318,12.0,1.216,99,24.8,OK,50,0,0,0,0,0,65,100,0.0,0,0.0,-1.9210341E-25,8.8E-44,0.0,-5.9807744E7,62,5.49322E-5,-5.4932443E-5,5.9120425E-32,False,False,0,None,3.829258E30,1.0842106E-19,
211360515,54.932,9.136003114185115,62.68353864662407,18,531.8778,531.935,0.094412066,-0.029423919,-0.9816331,0.98660177,0.33331674,0.0774989,-0.08403646,0.35237515,-44,-424,1437,1498.0,-0.0043040235,-0.010575361,-0.008075196,0.013984694,0.01141765592895657,0.06504744429576853,1.6632715902529491,5.52788477952572,81.17335235030622,81.17335235030623,0.3964429664928591,8.67174441447288,0.22912233545487626,78.65681012110225,0.5427309827565828,5.871447218500609,-139.99366875425065,-137.4737589121623,43.32,,,9.136004,62.6835387,20190821,134110,2019-08-21T13:41:10Z,615.576,0.7,1.18,7.23,11,7,18,0.0,0.0,0.0,0,0,0,0,5,5,9.136013051300038,62.683540386688044,120,3581029,16,53,318,1928,3696,3866,3881,-1314,15554,26,0,15418,0,false,false,false,false,false,false,false,false,false,false,0,0,0,0,47,59,58,47,944,944,944,944,940,940,940,940,0.0,0.0,0.0,0.0,1722.0,1717.1,1716.5,1721.4,0.0,0.0,0.0,0.0,0,0,0,0,-45.0,9.136003061856092,62.6835379761355,0,531.66113,531.95435,0.09431767,-0.028691974,-0.98065,0.98559296,0.21413904,0.07162392,-0.025382718,0.2272219,-41,-424,1437,1498.0,5.659537E-4,-0.0019007217,-0.0014481674,0.0024556539,0.0019831910215446355,0.08658080876316882,1.6476758739991557,5.555725884229833,76.56990163977606,76.56990163977605,0.19593476201736226,8.51399383239822,-0.02347250585100572,78.21147953390063,0.575917703964952,7011768.464065478,-168.10790987686366,-165.58800003477532,43.32,NONE,0.0,0.0,0.0,NONE,2.2093914817093903E-11,5.722012482140453E-11,0.0,17.313,17.313,6.188,1.2097343,0,3642,4.318,12.0,1.214,99,24.8,OK,51,0,0,0,0,0,65,100,0.0,0,0.0,-3.172142E-32,8.8E-44,0.0,-5.9807744E7,62,5.49322E-5,-5.4932443E-5,7.826537E-32,False,False,0,None,6.004628E30,1.0842106E-19,
