Tick#,offsetTime,IMU_ATTI(0):Longitude,IMU_ATTI(0):Latitude,IMU_ATTI(0):numSats,IMU_ATTI(0):barometer:Raw,IMU_ATTI(0):barometer:Smooth,IMU_ATTI(0):accel:X,IMU_ATTI(0):accel:Y,IMU_ATTI(0):accel:Z,IMU_ATTI(0):accel:Composite,IMU_ATTI(0):gyro:X,IMU_ATTI(0):gyro:Y,IMU_ATTI(0):gyro:Z,IMU_ATTI(0):gyro:Composite,IMU_ATTI(0):mag:X,IMU_ATTI(0):mag:Y,IMU_ATTI(0):mag:Z,IMU_ATTI(0):mag:Mod,IMU_ATTI(0):velN,IMU_ATTI(0):velE,IMU_ATTI(0):velD,IMU_ATTI(0):velComposite,IMU_ATTI(0):velH,IMU_ATTI(0):GPS-H,IMU_ATTI(0):roll,IMU_ATTI(0):pitch,IMU_ATTI(0):yaw,IMU_ATTI(0):yaw360,IMU_ATTI(0):totalGyro:Z,IMU_ATTI(0):totalGyro:X,IMU_ATTI(0):totalGyro:Y,IMU_ATTI(0):magYaw,IMU_ATTI(0):distanceHP,IMU_ATTI(0):distanceTravelled,IMU_ATTI(0):directionOfTravel[mag],IMU_ATTI(0):directionOfTravel[true],IMU_ATTI(0):temperature,General:relativeHeight,General:absoluteHeight,GPS(0):Long,GPS(0):Lat,GPS(0):Date,GPS(0):Time,GPS:dateTimeStamp,GPS(0):heightMSL,GPS(0):hDOP,GPS(0):pDOP,GPS(0):sAcc,GPS(0):numGPS,GPS(0):numGLNAS,GPS(0):numSV,GPS(0):velN,GPS(0):velE,GPS(0):velD,RC:Aileron,RC:Elevator,RC:Rudder,RC:Throttle,Controller:navHealth,Controller:ctrl_level,HP:Longitude,HP:Latitude,HP:rthHeight,BatBlackBox:tick,BatBlackBox:id,BatBlackBox:rsoc,BatBlackBox:index,BatBlackBox:rm,BatBlackBox:fcc,BatBlackBox:cell_min,BatBlackBox:cell_max,BatBlackBox:current,BatBlackBox:voltage,BatBlackBox:temp,BatBlackBox:flag,BatBlackBox:reserve,BatBlackBox:user_data,OA:avoidObst,OA:emergBrake,OA:radiusLimit,OA:airportLimit,OA:groundForceLanding,OA:horizNearBoundary,OA:vertLowLimit,OA:vertAirportLimit,OA:roofLimit,OA:hitGroundLimit,Motor:Speed:RFront,Motor:Speed:LFront,Motor:Speed:LBack,Motor:Speed:RBack,Motor:EscTemp:RFront,Motor:EscTemp:LFront,Motor:EscTemp:LBack,Motor:EscTemp:RBack,Motor:PPMrecv:RFront,Motor:PPMrecv:LFront,Motor:PPMrecv:LBack,Motor:PPMrecv:RBack,Motor:PPMsend:RFront,Motor:PPMsend:LFront,Motor:PPMsend:LBack,Motor:PPMsend:RBack,Motor:V_out:RFront,Motor:V_out:LFront,Motor:V_out:LBack,Motor:V_out:RBack,Motor:Volts:RFront,Motor:Volts:LFront,Motor:Volts:LBack,Motor:Volts:RBack,Motor:Current:RFront,Motor:Current:LFront,Motor:Current:LBack,Motor:Current:RBack,Motor:Status:RFront,Motor:Status:LFront,Motor:Status:LBack,Motor:Status:RBack,Motor:thrustAngle,IMU_ATTI(1):Longitude,IMU_ATTI(1):Latitude,IMU_ATTI(1):numSats,IMU_ATTI(1):barometer:Raw,IMU_ATTI(1):barometer:Smooth,IMU_ATTI(1):accel:X,IMU_ATTI(1):accel:Y,IMU_ATTI(1):accel:Z,IMU_ATTI(1):accel:Composite,IMU_ATTI(1):gyro:X,IMU_ATTI(1):gyro:Y,IMU_ATTI(1):gyro:Z,IMU_ATTI(1):gyro:Composite,IMU_ATTI(1):mag:X,IMU_ATTI(1):mag:Y,IMU_ATTI(1):mag:Z,IMU_ATTI(1):mag:Mod,IMU_ATTI(1):velN,IMU_ATTI(1):velE,IMU_ATTI(1):velD,IMU_ATTI(1):velComposite,IMU_ATTI(1):velH,IMU_ATTI(1):GPS-H,IMU_ATTI(1):roll,IMU_ATTI(1):pitch,IMU_ATTI(1):yaw,IMU_ATTI(1):yaw360,IMU_ATTI(1):totalGyro:Z,IMU_ATTI(1):totalGyro:X,IMU_ATTI(1):totalGyro:Y,IMU_ATTI(1):magYaw,IMU_ATTI(1):distanceHP,IMU_ATTI(1):distanceTravelled,IMU_ATTI(1):directionOfTravel[mag],IMU_ATTI(1):directionOfTravel[true],IMU_ATTI(1):temperature,IMUEX(0):err,IMUEX(0):rtk_Longitude,IMUEX(0):rtk_Latitude,IMUEX(0):rtk_Alti,IMUEX(1):err,IMUEX(1):rtk_Longitude,IMUEX(1):rtk_Latitude,IMUEX(1):rtk_Alti,MotorCtrl:Status,MotorCtrl:PWM:RFront,MotorCtrl:PWM:LFront,MotorCtrl:PWM:LBack,MotorCtrl:PWM:RBack,BattInfo:Voltage,BattInfo:BatVoltage,BattInfo:AdVoltage,BattInfo:AvgCurrent,BattInfo:R_time,BattInfo:R_CAP_MAH,BattInfo:LowCellVoltage,BattInfo:LowCellVolThreshold,BattInfo:BatCurrent,BattInfo:Remaining%,BattInfo:Temp,BattInfo:status,battery_info:BatDynCnt,battery_info:Vol1Protect,battery_info:Vol2Protect,battery_info:Cap1Protect,battery_info:Cap2Protect,battery_info:Batpresent,battery_info:sopPercentage,battery_info:sopValue,battery_info:sopScale,battery_info:sopFlg,BattInfo:WindHeading:WindDir,battery_info:home_dir,BattInfo:Wind:rangeMin,BattInfo:Wind:rangeMax,battery_info:cap_speed,battery_info:against_wind,battery_info:emergency_land_cap,battery_info:intel_bat_land_cap,battery_info:intel_bat_gh_cap,BattInfo:Smart:SmartGh,BattInfo:Smart:SmartLand,BattInfo:GoHome:CntDown,BattInfo:GoHome:GhCmd,BattInfo:GoHome:CapLevel,BattInfo:GoHome:LandCapLv,Attribute|Value,ConvertDatV3,3.6.6-Tablet
270586984,.000,10.441385927356727,63.4120277347082,14,178.27995,178.46506,0.017982787,-0.015416116,-0.9857345,0.9860191,0.42116868,0.030387428,0.14679044,0.4470502,-293,202,1435,1478.0,0.010830392,0.0031641417,0.027371343,0.029605737,0.011283137469565371,-0.011283137469565371,0.8550569918875098,1.0635328693981847,-146.298035275815,213.701964724185,7.613885181871357,22.66711724710912,2.2655665395978284,-145.85716083925988,0.6411717278467027,6.1029372868600955,-45.52326882577014,-42.34827220885695,44.64,,,10.4413855,63.4120274,20190510,140218,2019-05-10T14:02:18Z,119.088,0.72,1.33,7.46,8,6,14,0.01,0.0,0.0,-9997,-9997,9981,-9996,5,5,10.441396663543934,63.412024547394495,50,354721,48,44,73,1544,3582,3823,3832,-1121,15338,36,212,15332,0,false,false,false,false,false,false,false,false,false,false,0,0,0,0,45,56,57,46,943,945,944,944,940,940,940,940,0.0,0.0,0.0,0.0,1674.1,1668.0,1668.0,1674.8,0.0,0.0,0.0,0.0,0,0,0,0,-45.0,10.441385938780115,63.41202712093639,0,178.25354,178.23941,0.018349696,-0.01514533,-0.98436016,0.98464763,0.26781964,-0.09436757,0.1442024,0.31847596,-290,202,1435,1477.0,4.4255747E-4,7.370198E-4,-0.0012548772,0.0015211088,8.596832776187185E-4,-8.596832776187185E-4,0.8563993365658996,1.384633323270375,-143.7111678766083,216.2888321233917,6.944404459788341,21.690138071579646,1.7251549352109032,-144.72119867712226,0.6056200300808509,7103791.534263366,165.90482817802476,169.07982479493796,44.66,NONE,0.0,0.0,0.0,NONE,7.287930605130726E-11,2.159259242315079E-11,0.0,,,,,,16.826,16.826,6.011,1.3030021,0,3149,4.2,12.0,1.293,88,23.2,OK,66,0,0,0,0,0,65,100,0.0,0,0.0,1.4341031E-35,9.0E-44,0.0,-5.9807744E7,62,3.8147118E-7,-3.814731E-7,6.9560186E-34,False,False,0,None,1.1676676E30,1.0842106E-19,Firmware Date| Oct 17 2018
274440953,1.002,10.441385512414968,63.41202782152258,14,178.2755,178.46378,0.015516759,-0.012982402,-0.98738974,0.987597,0.49257237,0.14384742,-0.110732175,0.5249583,-290,196,1411,1453.0,0.019859029,0.007537036,0.004168897,0.021646423,0.021241185287587075,0.0015172884851524827,0.8664069767030667,1.0766554566461037,-146.30930122350526,213.69069877649474,7.75075853828237,22.998516585467847,2.153134384492368,-146.45281238175411,0.6637253104053221,6.13789404573886,-50.9271213450144,-47.75212472810121,44.93,-0.37161256347656035,,10.441385,63.4120275,20190510,140219,2019-05-10T14:02:19Z,119.056,0.72,1.33,7.42,8,6,14,-0.01,0.01,0.0,0,0,0,0,5,5,10.441396663543934,63.412024547394495,50,354721,17,44,74,1544,3582,3824,3832,-1047,15338,36,0,15336,0,false,false,false,false,false,false,false,false,false,false,532,534,514,541,49,60,62,48,1349,1360,1355,1353,1342,1342,1342,1342,0.1,0.1,0.1,0.1,1641.7,1634.9,1636.7,1642.3,7.74,7.25,7.87,7.41,0,0,0,0,-113.74949449286675,10.441385380380941,63.41202737405114,0,178.24007,178.23271,0.020154335,-0.013988877,-0.9821814,0.98248774,0.13311695,0.1483197,0.03680754,0.20266636,-293,196,1408,1451.0,0.003694254,0.0023518212,0.009716589,0.010657893,0.004379335180358482,0.035109352363550825,0.8557767475509144,1.3697472818236553,-143.70518322469326,216.29481677530674,6.565204096663029,22.351100435284057,1.9387867933062686,-145.98160025015162,0.6435170481945718,7103791.592011683,-147.23561269365933,-144.06061607674613,44.96,NONE,0.0,0.0,0.0,NONE,1.0418656002888121E-10,1.1731821844165596E-10,3.0517578E-5,1,22.5,22.5,22.5,22.5,16.816,16.816,5.898,1.3065481,0,3148,4.2,12.0,1.575,88,23.2,OK,67,0,0,0,0,0,65,100,0.0,0,0.0,1.8622769E-35,9.0E-44,0.0,-5.9807744E7,62,3.8147118E-7,-3.814731E-7,7.3059633E-34,False,False,0,None,1.2715192E30,1.0842106E-19,ACType|MavicEnterprise
278328483,2.012,10.441385104632442,63.41202786738201,14,178.24007,178.46478,0.018057145,-0.012257032,-0.98319477,0.98343694,-2.6385417,1.2193457,1.6873773,3.3609445,-288,199,1441,1482.0,0.02616242,0.013640668,-0.002384622,0.029601123,0.029504915516127866,-0.008794076235141352,0.8466561795135109,1.059021219255234,-146.3656109062037,213.6343890937963,9.71394311890314,22.1632346158273,1.1553834953718096,-145.78063873443705,0.6835258019295343,6.174584473916882,,,45.26,-0.40704347167968535,,10.4413847,63.4120275,20190510,140220,2019-05-10T14:02:20Z,119.05,0.72,1.33,7.39,8,6,14,0.0,0.01,-0.01,0,0,0,0,5,5,10.441396663543934,63.412024547394495,50,358586,16,44,75,1558,3596,3857,3861,0,15435,27,1,16858,0,false,false,false,false,false,false,false,false,false,false,2041,2017,2081,2076,49,63,62,49,1209,1209,1205,1209,1200,1200,1206,1205,0.0,0.0,0.0,0.0,1668.7,1661.3,1661.3,1668.7,0.69,0.24,0.78,0.3,0,0,0,0,-10.864059922087733,10.441384990590368,63.41202731590916,0,178.24007,178.13214,0.014815581,-0.01900268,-0.98949724,0.9897906,1.5310627,-2.0768266,-2.1971447,3.3889241,-285,199,1438,1479.0,0.004151553,0.01586952,0.081694484,0.083325066,0.016403569062055794,0.0038348488358132607,0.8383794145498209,1.340848291848705,-143.78019658173233,216.21980341826767,5.9811650094335365,21.646304488487928,0.21254175627966515,-144.688959603275,0.6574607893710654,7103791.627076935,-114.99167429475983,-111.81667767784664,45.25,NONE,0.0,0.0,0.0,NONE,1.53288898128262E-9,2.0160337112144668E-10,3.9672852E-4,2,10.23,10.0,10.21,10.37,16.579,16.579,5.986,1.3967634,0,3147,4.2,12.0,5.162,88,23.2,OK,68,0,0,0,0,0,65,100,0.0,0,0.0,1.4784826E-36,9.0E-44,0.0,-5.9807744E7,62,3.8147118E-7,-3.814731E-7,7.4337395E-34,False,False,0,None,1.345989E30,1.0842106E-19,dateTime|2015-10-18 0:0:6 GMT
282180237,3.013,10.441384653124109,63.41202767921713,14,178.24007,178.4619,0.024370141,-0.01963064,-0.9710588,0.97156286,3.250006,5.5075836,1.0288211,6.477228,-293,199,1435,1478.0,0.0045751953,-0.004127626,0.0021052032,0.00651165,0.00616195654811811,0.024509068850142864,0.873830103802933,1.00723140725632,-146.40606153036697,213.59393846963303,9.716872745164723,22.07955263592226,1.4354656736235567,-146.51200781738294,0.6917766308983134,6.210980245778742,-120.75448924232916,-117.57949262541597,45.65,-0.40704347167968535,,10.4413842,63.4120273,20190510,140221,2019-05-10T14:02:21Z,119.052,0.72,1.33,7.36,8,6,14,-0.01,-0.01,-0.01,0,0,0,0,5,5,10.441396663543934,63.412024547394495,50,358587,18,44,76,1560,3602,3896,3900,3585,15583,27,1,15672,0,false,false,false,false,false,false,false,false,false,false,2107,2054,2085,2113,49,62,63,50,1208,1213,1206,1206,1201,1200,1211,1213,0.0,0.0,0.0,0.0,1667.4,1661.9,1661.3,1666.8,0.78,0.3,0.76,0.26,0,0,0,0,-65.44954761079259,10.441384595569291,63.412027147307775,0,178.24007,178.10704,0.021854294,-0.017889183,-0.9743418,0.97475106,0.32528695,-0.5775481,0.4911948,0.82501256,-293,199,1435,1478.0,0.0026071353,0.00631368,0.02367376,0.024639534,0.0068307914693399585,0.020306042980478535,0.8179164056398434,1.290882289078782,-143.77897015750676,216.22102984249324,5.7647257440263875,21.962012026805475,0.38254287977858525,-145.58473611591245,0.6665519425329859,7103791.6717247525,-126.3506126804207,-123.1756160635075,45.63,NONE,0.0,0.0,0.0,NONE,1.280099129388715E-9,2.971595907147992E-10,3.3569336E-4,2,10.38,10.0,11.87,12.34,16.739,16.739,5.984,1.6277407,0,3146,4.128,12.0,2.308,88,23.3,OK,69,0,0,0,0,0,65,100,0.0,0,0.0,4.2180474E-38,9.0E-44,0.0,-5.9807744E7,62,3.8147118E-7,-3.814731E-7,7.5377707E-34,False,False,0,None,1.406532E30,1.0842106E-19,geoDeclination|317 degrees
286174088,4.051,10.441384132136115,63.41202755173908,14,178.24007,178.46115,0.022950646,-0.012013419,-0.973627,0.9739715,-0.58585846,4.6786866,1.1751057,4.8594456,-293,199,1435,1478.0,0.0016951276,-0.0106125465,0.003803593,0.011400304,0.010747073969478584,0.017721660198070525,0.8787444804081913,0.9890427238483276,-146.4079802605452,213.5920197394548,9.76008088828203,22.562713893020046,1.5994129272842748,-146.5753941658099,0.7074968832774904,6.250004292048113,,,45.91,-0.40704347167968535,,10.4413838,63.4120272,20190510,140222,2019-05-10T14:02:22Z,119.052,0.72,1.33,7.34,8,6,14,0.01,0.01,-0.01,0,0,0,0,5,5,10.441396663543934,63.412024547394495,50,358588,114,44,77,1561,3602,3897,3901,3596,15606,27,3544,15606,0,false,false,false,false,false,false,false,false,false,false,2068,2044,2077,2091,50,62,63,50,1213,1207,1214,1210,1201,1205,1201,1200,0.0,0.0,0.0,0.0,1667.4,1661.3,1661.3,1666.2,0.65,0.28,0.84,0.44,0,0,0,0,-34.159694545669424,10.441384128050878,63.412026899664006,0,178.24007,178.11066,0.011829718,-0.0127262045,-0.99462396,0.9947757,2.7886786,-0.18690205,-4.1184907,4.977311,-293,199,1432,1475.0,-0.007922139,-0.0073258188,0.0027911118,0.011145323,0.010790176515405453,0.02394109451998093,0.8620966125752175,1.3425052279787295,-143.8412226749624,216.1587773250376,5.835745921892284,22.441105167255355,0.6394062370216895,-145.61754357709987,0.6764746867465801,7103791.740473558,-169.58981953328495,-166.41482291637175,45.89,NONE,0.0,0.0,0.0,NONE,-4.885700408276684E-10,-3.52391784681956E-10,0.0,2,10.37,10.0,11.22,11.63,16.764,16.764,5.989,1.879208,0,3146,4.183,12.0,1.878,88,23.3,OK,70,0,0,0,0,0,65,100,0.0,0,0.0,-1.6061072E38,8.8E-44,0.0,-5.9807744E7,62,3.8147118E-7,-3.814731E-7,7.6626082E-34,False,False,0,None,1.479261E30,1.0842106E-19,geoInclination|7478 degrees
290059788,5.061,10.441383982471143,63.41202751544595,14,178.24007,178.45796,0.021356085,-0.010204207,-0.9778158,0.97810227,-1.2349638,2.9625921,1.953572,3.7574635,-285,199,1438,1479.0,0.016093565,-0.0012957617,0.0037992662,0.01658663,0.016145644776463575,-0.007757011582098867,0.8665329622264288,1.0201617785568857,-146.43553147381667,213.56446852618333,10.1824859115614,22.33452498832118,1.9051758872548157,-145.64780355062646,0.7121923112508848,6.284433187024141,12.688908828934323,15.863905445847516,46.18,-0.40704347167968535,,10.4413836,63.4120272,20190510,140223,2019-05-10T14:02:23Z,119.056,0.72,1.33,7.33,8,6,14,0.01,0.01,0.0,0,0,0,0,5,5,10.441396663543934,63.412024547394495,50,361359,114,99,78,3602,3602,4381,4391,372,17591,31,3596,17575,0,false,false,false,false,false,false,false,false,false,false,2092,2023,2069,2069,51,61,63,51,1214,1209,1211,1210,1200,1202,1202,1201,0.0,0.0,0.0,0.0,1667.4,1661.9,1660.0,1666.2,0.7,0.31,0.79,0.34,0,0,0,0,-71.56505117707798,10.441383867594237,63.41202700387649,0,178.24007,178.04547,0.012621706,-0.015308031,-0.9903992,0.99059784,3.097671,-2.319954,-6.0863576,7.212593,-285,199,1438,1479.0,0.03515721,0.005543918,0.06233112,0.071776964,0.03559163656409542,-0.018374860995727788,0.9238434493784214,1.4069801308935148,-143.8095550946087,216.1904449053913,5.610001479110442,23.45951100266928,0.11092325973526414,-144.8362431170364,0.6929325928598118,7103791.779815708,-93.2162781768481,-90.04128155993492,46.2,NONE,0.0,0.0,0.0,NONE,3.6710978728263464E-11,6.869807683115367E-10,1.5258789E-4,2,10.25,10.0,10.82,11.18,16.764,16.764,5.986,2.0489254,0,3145,4.184,12.0,1.873,87,23.3,OK,71,0,0,0,0,0,65,100,0.0,0,0.0,-9.269061E36,8.8E-44,0.0,-5.9807744E7,62,3.8147118E-7,-3.814731E-7,7.81898E-34,False,False,0,None,1.5368252E30,1.0842106E-19,geoIntensity|5185100 nanoTesla
294010875,6.088,10.44138351647806,63.41202761036204,14,178.24007,178.45319,0.015859855,-0.024357744,-0.98729795,0.98772573,-1.4753703,-0.34680563,8.810732,8.940133,-288,199,1435,1477.0,0.0071021332,0.008620821,0.004133246,0.011909768,0.011169550196763382,0.013643740487886037,0.9038458472966622,1.0348537319732798,-146.4820989651246,213.5179010348754,10.379583643862318,22.832495156903097,1.629161458208838,-146.0557336483557,0.7376354657129452,6.312596112562399,-24.4132214501054,-21.23822483319221,46.48,-0.40704347167968535,,10.4413833,63.4120273,20190510,140224,2019-05-10T14:02:24Z,119.068,0.72,1.33,7.3,8,6,14,-0.01,0.0,0.0,0,0,0,0,5,5,10.441396663543934,63.412024547394495,50,361891,19,100,79,3610,3610,4385,4393,124,17550,31,1,17539,0,false,false,false,false,false,false,false,false,false,false,1997,1978,2043,2069,50,63,64,49,1207,1208,1206,1212,1201,1200,1202,1201,0.0,0.0,0.0,0.0,1668.0,1660.0,1661.3,1665.6,0.86,0.42,0.8,0.33,0,0,0,0,-18.183653155713046,10.441383627445807,63.41202721452745,0,178.24007,177.98268,0.020884022,-0.005128958,-0.97592896,0.9761659,3.6021235,-0.08377659,-7.2574635,8.102659,-290,199,1435,1477.0,0.052445203,0.017435983,0.043115024,0.07009578,0.05526764783764871,-0.02965947601439977,0.9783813263663896,1.4280699910692216,-143.7297546762944,216.2702453237056,5.623018186871679,24.53378045174382,-0.23269823840551482,-145.52261025232346,0.7133479726223076,7103791.834326189,-24.91314027040505,-21.73814365349186,46.48,NONE,0.0,0.0,0.0,NONE,1.7986137170636584E-9,2.2764834556992854E-9,5.187988E-4,2,10.0,10.29,10.15,10.44,16.76,16.76,5.984,2.1438215,0,3145,4.184,12.0,1.877,87,23.3,OK,72,0,0,0,0,0,65,100,0.0,0,0.0,1.135388E-39,9.0E-44,0.0,-5.9807744E7,62,3.8147118E-7,-3.814731E-7,8.385098E-34,False,False,0,None,1.701626E30,1.0842106E-19,mcID(SN)|298DG13001W644
297865174,7.089,10.441383408992085,63.412027648638414,14,178.24007,178.45323,0.012953143,-0.019129764,-0.9908492,0.9911185,-2.9197915,-1.5314807,6.6960487,7.4637585,-288,199,1438,1479.0,0.0016613022,-0.005738405,0.004655751,0.007573984,0.005974045197336438,8.50185719019945E-4,0.8952476159917223,1.0186153568294103,-146.54690474616663,213.45309525383337,10.57283933651485,23.858668206490474,1.8899494609095893,-146.0663705378622,0.7443467551371562,6.3436747589050215,-99.56517495143689,-96.3901783345237,46.79,-0.40704347167968535,,10.441383,63.4120274,20190510,140225,2019-05-10T14:02:25Z,119.069,0.72,1.33,7.25,8,6,14,0.0,0.02,0.0,0,0,0,0,5,5,10.441396663543934,63.412024547394495,50,361892,114,100,80,3610,3610,4384,4392,3,17533,31,3602,17548,0,false,false,false,false,false,false,false,false,false,false,2033,1998,2064,2069,51,63,63,50,1208,1209,1205,1208,1202,1200,1209,1208,0.0,0.0,0.0,0.0,1666.8,1661.3,1660.0,1666.8,0.77,0.41,0.82,0.34,0,0,0,0,-21.412969474871772,10.441383271863145,63.41202729606852,0,178.24007,177.99773,0.017904267,-0.010710146,-0.9828809,0.9831023,1.3109603,-3.7916462,-2.3301778,4.6394963,-288,199,1438,1479.0,0.007985099,-0.010109088,-2.6874128E-4,0.012885174,0.01288237104265325,0.006967660562496538,0.947723945767489,1.366831394172213,-143.77305913042835,216.22694086957165,5.6837439194682,25.486499741218392,0.06175290962836466,-145.35708019929143,0.7332127054560624,7103791.88345444,-43.57331834377938,-40.398321726866186,46.8,NONE,0.0,0.0,0.0,NONE,-4.740277190028264E-10,3.8316186368875974E-10,3.0517578E-5,2,10.58,10.0,11.16,11.49,16.756,16.756,5.982,2.184052,0,3144,4.183,12.0,1.921,87,23.3,OK,73,0,0,0,0,0,65,100,0.0,0,0.0,2.097867E-39,9.0E-44,0.0,-5.9807744E7,62,3.8147118E-7,-3.814731E-7,8.789703E-34,False,False,0,None,1.819501E30,1.0842106E-19,mcVer|v3.4.1.6
301764286,8.103,10.441383166048345,63.41202773189099,14,178.24007,178.45184,0.020743467,-0.017282188,-0.97848624,0.97885865,4.4657717,0.2946876,-1.1410286,4.6186476,-282,199,1432,1473.0,-7.3319307E-4,-0.0022421256,0.015678227,0.0158547,0.0023589613747489117,0.01266795749503039,0.9026173751499272,0.9837317508595661,-146.61869337086344,213.38130662913656,10.700940283951073,24.906583283037712,1.647570363803258,-145.56594725585788,0.7593548869494733,6.386863853797043,-113.53707349002528,-110.36207687311209,47.09,-0.40704347167968535,,10.4413826,63.4120274,20190510,140226,2019-05-10T14:02:26Z,119.058,0.72,1.33,7.21,8,6,14,0.0,-0.01,-0.01,-9817,-9797,9927,-9946,5,5,10.441396663543934,63.412024547394495,50,949175,48,100,81,3542,3611,4357,4365,0,17422,20,212,5,0,false,false,false,false,false,false,false,false,false,false,2082,2048,2103,2073,52,63,64,51,1215,1212,1209,1210,1210,1200,1206,1206,0.0,0.0,0.0,0.0,1666.2,1661.3,1659.4,1666.8,0.78,0.32,0.76,0.38,0,0,0,0,-4.96974072811031,10.441383113818222,63.4120272015495,0,178.24007,177.96773,0.019578446,-0.018011272,-0.97842115,0.9787828,3.8518643,-1.6516824,-2.2865462,4.7742233,-282,199,1435,1475.0,0.010532926,0.0041173743,0.028958205,0.031088147,0.011309080362556585,0.0016451801131360713,0.9354465980522424,1.3691118597032732,-143.8196006673239,216.1803993326761,5.622437395664314,26.397207667028994,0.0623503791818512,-144.65935073355055,0.7360930471098744,7103791.915264172,-103.60397461734479,-100.4289780004316,47.1,NONE,0.0,0.0,0.0,NONE,3.369036138677331E-10,2.875219864736755E-10,1.2207031E-4,2,11.64,10.0,11.2,11.01,16.757,16.757,5.981,2.1875572,0,3144,4.182,12.0,1.907,87,23.3,OK,74,0,0,0,0,0,65,100,0.0,0,0.0,-3.503762E37,8.8E-44,0.0,-5.9807744E7,62,3.8147118E-7,-3.814731E-7,8.8426E-34,False,False,0,None,1.8349366E30,1.0842106E-19,
305659598,9.115,10.441382283308892,63.41202762847848,14,178.16898,178.44612,0.009181326,-0.018157562,-0.99704975,0.99725735,0.9777655,-4.405142,-1.6667845,4.8103504,-288,199,1438,1479.0,0.015736263,-0.0046896283,0.006774805,0.0177629,0.01642018791207593,0.02843659694732443,0.8658065282332866,1.0111292818694817,-146.64975792744576,213.35024207255424,10.713884277277119,25.97402561205359,1.6757485278618374,-145.9744939844358,0.7934481984119305,6.436771966947956,-149.29575721764022,-146.120760600727,47.43,-0.47813416992187285,,10.441382,63.4120273,20190510,140228,2019-05-10T14:02:28Z,119.045,0.72,1.33,7.16,8,6,14,-0.01,0.0,-0.02,-10000,-10000,9998,-10000,5,5,10.441396663543934,63.412024547394495,50,949175,48,100,82,3542,3611,4357,4365,0,17422,20,212,5,0,false,false,false,false,false,false,false,false,false,false,0,0,0,0,47,58,58,47,944,945,944,944,940,940,940,940,0.0,0.0,0.0,0.0,1671.7,1666.2,1665.6,1672.3,4.72,4.63,4.82,4.3,0,0,0,0,-45.0,10.44138240439913,63.41202707401966,0,178.24007,177.78688,0.009411644,-0.018739955,-0.99620396,0.9964247,-1.3890009,-3.0467057,2.4500446,4.149031,-288,199,1438,1479.0,0.073116295,0.015176588,0.14683197,0.16472994,0.07467477076982647,-0.03709229274966461,0.9624387805691043,1.496374111366486,-143.7767572292687,216.2232427707313,5.715052193662847,26.529247446493066,-0.2730930374554149,-145.06485244621686,0.7632345014872277,7103791.965260354,-107.73307262541805,-104.55807600850486,47.41,NONE,0.0,0.0,0.0,NONE,1.1693680894710803E-9,2.2503816205451584E-9,5.187988E-4,2,11.96,10.0,11.35,10.87,16.75,16.75,5.98,2.1681304,0,3143,4.183,12.0,1.936,87,23.3,OK,75,0,0,0,0,0,65,100,0.0,0,0.0,-6.0179177E34,8.8E-44,0.0,-5.9807744E7,62,3.8147118E-7,-3.814731E-7,9.342185E-34,False,False,0,None,1.9804333E30,1.0842106E-19,
309547820,10.126,10.44138173543415,63.41202763535764,14,178.69138,178.5572,0.018959297,-0.01395771,-0.98468095,0.98496234,0.30022183,0.08317527,0.033542667,0.3133311,-288,190,1435,1475.0,0.01573615,-0.0027274229,-0.009616781,0.01864263,0.015970761203625276,0.011022138112905998,0.8496288777649383,1.0020100357471515,-146.6781174551242,213.3218825448758,10.704288282531817,26.404626559346863,1.5403633583254488,-147.30365019250326,0.8184471995809106,6.479160787705572,,,47.74,0.40164173242186507,,10.4413814,63.4120273,20190510,140229,2019-05-10T14:02:29Z,119.044,0.72,1.33,7.12,8,6,14,0.01,0.0,-0.01,-10000,-9998,9998,-9998,5,5,10.441396663543934,63.412024547394495,50,949175,48,100,83,3542,3611,4357,4365,0,17422,20,212,5,0,false,false,false,false,false,false,false,false,false,false,0,0,0,0,47,59,60,47,1124,944,1125,1126,1121,1121,1121,1121,0.0,0.0,0.0,0.0,1671.1,1665.0,1665.0,1669.9,0.0,0.0,0.02,0.0,0,0,0,0,-45.0,10.441381769191688,63.41202709807585,0,178.50984,177.88419,0.017153522,-0.014843535,-0.98300844,0.98327017,0.40017825,-0.075027406,0.15865417,0.4369701,-285,190,1435,1475.0,0.023451237,0.0013046208,0.0057201916,0.024174018,0.02348749842870541,0.007907624875403942,0.9696456241605422,1.4538253469211464,-143.82052511966447,216.17947488033553,5.811303964660158,26.87670784493337,-0.2745599530000756,-146.29832918372347,0.7936650063801532,7103791.998288811,-98.7689142544927,-95.59391763757951,47.71,NONE,0.0,0.0,0.0,NONE,1.677788986979409E-10,1.050767051526912E-9,3.0517578E-5,1,0.2,0.2,0.2,0.2,16.758,16.758,6.001,2.1345527,0,3143,4.183,12.0,1.842,87,23.3,OK,76,0,0,0,0,0,65,100,0.0,0,0.0,-7.8676735E33,8.8E-44,0.0,1.05007105E-23,63,3.8147118E-7,-3.814731E-7,9.963552E-34,False,False,0,None,2.1613273E30,1.0842106E-19,
313406756,11.129,10.441381311142743,63.41202740887976,14,178.69138,178.6025,0.01647228,-0.014225767,-0.9854675,0.9857078,-0.179416,0.47024253,0.43104726,0.6626612,-285,196,1429,1470.0,0.006532582,-0.0029772895,-0.0071019623,0.010098354,0.007179058317370655,0.02558979553207671,0.8534018257342213,1.0198228158799854,-146.70058101873352,213.29941898126648,10.651503561627148,26.78642484316967,1.5631629372861628,-146.04881444190517,0.8276578535716157,6.518426049906099,-116.51100257197142,-113.33600595505823,48.02,0.40164173242186507,,10.4413809,63.4120271,20190510,140230,2019-05-10T14:02:30Z,119.059,0.72,1.33,7.09,8,6,14,0.0,0.0,0.01,0,0,0,0,5,5,10.441396663543934,63.412024547394495,50,949175,48,100,84,3542,3611,4357,4365,0,17422,20,212,5,0,false,false,false,false,false,false,false,false,false,false,1108,592,760,948,51,63,64,51,1299,1309,1306,1303,1292,1292,1292,1292,0.1,0.1,0.1,0.1,1647.8,1633.1,1633.7,1644.7,6.55,7.1,7.63,6.8,0,0,0,0,-89.34893961977053,10.44138129561893,63.412026938054076,0,178.69138,177.92159,0.016693482,-0.012762981,-0.98127455,0.9814995,0.20146845,-0.05595061,-0.021397188,0.21018526,-285,199,1432,1473.0,0.0012791933,-0.0037716113,-0.0025738394,0.0047419444,0.003982635749109562,0.025462582180880534,0.9607835611202059,1.427377970842438,-143.84782345663933,216.15217654336067,5.467907590788341,27.41880720622435,-0.3028226103318887,-144.92373953132127,0.8097059327474665,7103792.0422936315,-129.9789035037625,-126.80390688684929,47.97,NONE,0.0,0.0,0.0,NONE,-3.1073489069133035E-10,1.9703555298943565E-10,0.0,1,20.93,20.93,20.93,20.93,16.615,16.615,5.892,2.1077914,0,3142,4.182,12.0,2.658,87,23.3,OK,77,0,0,0,0,0,65,100,0.0,0,0.0,-2.9165867E31,8.8E-44,0.0,1.05007105E-23,63,3.8147118E-7,-3.814731E-7,1.0276233E-33,False,False,0,None,2.2524319E30,1.0842106E-19,
317278879,12.135,10.44138111135896,63.4120273178074,14,178.69138,178.59348,0.015504952,-0.017318055,-0.9876289,0.9879024,-0.9685323,-1.56963,-1.1537052,2.1755066,-288,196,1438,1479.0,0.008709796,0.006100642,0.0056705233,0.012051274,0.010633831787750469,0.003468570568510923,0.8293724858552093,1.0098571402152465,-146.76732825676316,213.23267174323684,12.138140145147881,27.71915573853497,0.39123592526437484,-146.29149510617688,0.8330475477637178,6.553719232912637,,,48.33,0.40164173242186507,,10.4413808,63.412027,20190510,140231,2019-05-10T14:02:31Z,119.08,0.72,1.33,7.08,8,6,14,-0.01,0.0,0.0,0,0,0,0,5,5,10.441396663543934,63.412024547394495,50,949177,114,99,85,3542,3611,4357,4365,0,17422,20,3610,4,0,false,false,false,false,false,false,false,false,false,false,2035,1997,2061,2056,52,63,63,51,1204,1206,1206,1207,1204,1200,1205,1208,0.0,0.0,0.0,0.0,1665.0,1659.4,1659.4,1664.4,0.77,0.33,0.78,0.37,0,0,0,0,-21.217969576778614,10.441381165801953,63.41202674510582,0,178.69138,177.78691,0.01745727,-0.016820405,-0.98249906,0.9827981,-1.878165,-2.6193132,5.3372645,6.2349577,-285,199,1441,1482.0,0.05222153,0.01598379,0.109410346,0.12228325,0.054612907133764384,-0.03234772050031286,0.9789551599568139,1.3776446597242136,-143.83481894957455,216.16518105042545,6.637695779961553,26.089957246110437,-0.7960361645427207,-145.12898141514466,0.8090745914019836,7103792.1124750255,163.30924222204047,166.48423883895367,48.32,NONE,0.0,0.0,0.0,NONE,1.2151259608170933E-9,1.7201792967239127E-9,3.9672852E-4,2,10.52,10.09,10.14,10.0,16.547,16.547,5.975,2.1584263,0,3141,4.19,12.0,4.649,87,23.3,OK,78,0,0,0,0,0,65,100,0.0,0,0.0,-2.8068743E30,8.8E-44,0.0,1.05007105E-23,63,3.8147118E-7,-3.814731E-7,1.0427637E-33,False,False,0,None,2.2964948E30,1.0842106E-19,
321273511,13.173,10.441381153316641,63.41202700398965,14,178.69138,178.5915,0.016402349,-0.013388447,-0.984724,0.98495156,2.5840538,0.8419994,-0.8513893,2.8480098,-285,199,1438,1479.0,-0.0099730035,0.0040194197,0.00988048,0.014602754,0.010752512767733024,0.022919036180860296,0.8406884273809994,1.0387636911525546,-146.75928772218396,213.24071227781604,12.248976343481525,27.748154790490496,0.04045271599803148,-145.50174822391855,0.8188153884461558,6.601202093544074,-168.44461923981305,-165.26962262289985,48.61,0.40164173242186507,,10.4413807,63.4120267,20190510,140232,2019-05-10T14:02:32Z,119.131,0.72,1.33,7.07,8,6,14,-0.01,-0.01,0.0,9998,-9998,-9998,-9997,5,5,10.441396663543934,63.412024547394495,50,966692,181,99,86,3540,3613,4356,4365,0,17420,19,58118,5,0,false,false,false,false,false,false,false,false,false,false,2022,2256,2080,2097,52,65,65,52,1204,1233,1206,1211,1206,1221,1200,1208,0.0,0.0,0.0,0.0,1664.4,1658.8,1658.2,1664.4,0.82,0.52,0.7,0.28,0,0,0,0,114.95904818779576,10.441381240908418,63.412026519291615,0,178.69138,177.83711,0.017920448,-0.013140764,-0.98195976,0.9822112,-3.787804,0.8203672,4.022851,5.5860353,-282,202,1438,1479.0,-0.0011524854,0.0044303797,0.0066099977,0.008040433,0.004577825462900659,0.01987450030397028,0.955409040595964,1.3462988739998933,-143.8629962275009,216.1370037724991,6.483142938199261,26.728184066780074,-1.6075647849666908,-144.3390195996104,0.7982531088231846,7103792.174914753,51.098688986707614,54.273685603620805,48.61,NONE,0.0,0.0,0.0,NONE,5.263651638576179E-10,-6.746326085746059E-11,3.0517578E-5,2,10.89,13.13,10.0,10.64,16.685,16.685,5.974,2.2949386,0,3140,4.141,12.0,1.858,87,23.3,OK,79,0,0,0,0,0,65,100,0.0,0,0.0,-1.8455953E26,8.8E-44,0.0,1.05007105E-23,63,3.8147118E-7,-3.814731E-7,1.0179372E-33,False,False,0,None,2.2241914E30,1.0842106E-19,
325130368,14.176,10.441381336841566,63.41202690572038,14,178.44907,178.5935,0.015866363,-0.010269894,-0.9836653,0.98384684,0.27252024,-0.9428391,-0.23342626,1.0088115,-293,199,1438,1480.0,5.8074645E-4,0.018244468,0.006151954,0.019262513,0.018253707881756173,-0.004045923806885163,0.8363364434426149,0.9740504761911603,-146.76416916542078,213.23583083457922,12.273481332935788,27.97287289979902,-0.8786683037292796,-146.45611389899116,0.806592322804058,6.640984505230474,102.25949266157718,105.43448927849037,48.92,0.15933216210936507,,10.4413809,63.4120266,20190510,140233,2019-05-10T14:02:33Z,119.195,0.72,1.33,7.07,8,6,14,-0.01,0.0,-0.01,10000,-10000,-9998,-10000,5,5,10.441396663543934,63.412024547394495,50,1153648,16,98,87,3520,3611,4297,4319,-1390,17117,19,0,16624,0,false,false,false,false,false,false,false,false,false,false,0,0,0,0,49,59,60,48,943,946,945,943,940,940,940,940,0.0,0.0,0.0,0.0,1668.7,1663.1,1663.7,1669.9,0.76,1.16,1.01,0.94,0,0,0,0,-45.0,10.441381396165207,63.41202633334039,0,178.47284,177.82986,0.018073304,-0.0129501745,-0.98086196,0.9811139,0.2384257,1.2788184,-0.44656986,1.3753719,-290,199,1438,1480.0,-0.011549231,0.0039647515,-1.22436E-4,0.012211428,0.01221081436663199,0.00981016394247578,0.9646389845586586,1.3308213503162796,-143.87884950922245,216.12115049077755,6.681630551793068,26.6804502957949,-1.4210982887495833,-145.72690394945437,0.7853448370448864,7103792.24304328,-19.11247197446686,-15.937475357553668,48.94,NONE,0.0,0.0,0.0,NONE,5.706276885204261E-10,-4.5805412464707166E-10,-3.0517578E-5,2,10.49,13.14,10.0,10.44,16.737,16.737,5.978,2.4050894,0,3140,4.124,12.0,1.94,87,23.3,OK,80,0,0,0,0,0,65,100,0.0,0,0.0,-6.534722E24,8.8E-44,0.0,1.05007105E-23,63,3.8147118E-7,-3.814731E-7,9.692483E-34,False,False,0,None,2.0824086E30,1.0842106E-19,
329028107,15.189,10.441381542846088,63.41202671435969,14,178.72122,178.62271,0.017602658,-0.01506403,-0.98458356,0.9848561,0.28823867,0.19958968,-0.047051392,0.3537392,-285,199,1444,1485.0,0.0035142638,0.013381145,-0.014277192,0.019880727,0.013834923035305912,0.00948130649192293,0.823542213460057,1.006334505878653,-146.77451086460937,213.22548913539063,12.35120953748322,28.329383519661075,-0.9144179305648307,-145.523588629621,0.7901574371036674,6.685792608073155,150.12538301513558,153.3003796320488,49.19,0.43148792382811507,,10.441381,63.4120265,20190510,140234,2019-05-10T14:02:34Z,119.247,0.72,1.33,7.07,8,6,14,0.0,0.0,-0.01,0,0,0,0,5,5,10.441396663543934,63.412024547394495,50,1153648,20,98,88,3520,3611,4297,4319,-1390,17117,19,2,16624,0,false,false,false,false,false,false,false,false,false,false,0,0,0,0,47,60,60,46,943,946,944,944,940,940,940,940,0.0,0.0,0.0,0.0,1669.3,1664.4,1664.4,1669.9,0.0,0.0,0.0,0.0,0,0,0,0,-45.0,10.441381458144418,63.4120262760765,0,178.7133,177.7329,0.017369403,-0.014329715,-0.9831582,0.983416,0.4324239,0.06640377,0.10836783,0.4507144,-288,199,1441,1482.0,0.0020095152,-0.007578744,0.08192886,0.08230318,0.007840632101860513,-8.562261486969166E-4,0.995568187015536,1.264874511437371,-143.90208637081545,216.09791362918455,6.73554120439448,27.00801309185614,-1.369717715575522,-145.81198178005653,0.7807689402091305,7103792.2912938995,-23.96939717724551,-20.79440056033232,49.19,NONE,0.0,0.0,0.0,NONE,-7.357149515499082E-10,1.0534441895827261E-10,3.9672852E-4,2,10.49,13.14,10.0,10.44,16.764,16.764,5.996,2.428913,0,3139,4.179,12.0,1.551,87,23.3,OK,81,0,0,0,0,0,65,100,0.0,0,0.0,-3.4193623E24,8.8E-44,0.0,1.05007105E-23,63,3.8147118E-7,-3.814731E-7,9.622423E-34,False,False,0,None,2.0620212E30,1.0842106E-19,
332885230,16.191,10.44138155574335,63.41202682310056,14,178.68423,178.83255,0.016696328,-0.014480197,-0.9819532,0.9822019,0.414631,0.17890064,0.117752835,0.4666798,-288,199,1438,1479.0,-0.005986553,0.005224477,-0.06718929,0.06765748,0.007945689333430256,0.004133187697468439,0.8225680523478851,0.9906852378639005,-146.77613790468126,213.22386209531874,12.403593955591212,28.650527131913073,-0.8711614052607077,-145.86430303229457,0.793319825894834,6.705777810859535,83.4229185709875,86.5979151879007,49.5,0.39450061914061507,,10.4413812,63.4120265,20190510,140235,2019-05-10T14:02:35Z,119.3,0.72,1.33,7.06,8,6,14,0.01,0.01,-0.01,-9776,-9782,9598,-4968,5,5,10.441396663543934,63.412024547394495,50,1153959,48,95,89,3407,3611,4272,4283,-1155,17109,22,212,17094,0,false,false,false,false,false,false,false,false,false,false,0,0,0,0,49,60,59,48,944,945,944,944,940,940,940,940,0.0,0.0,0.0,0.0,1669.3,1664.4,1664.4,1669.9,0.0,0.0,0.0,0.0,0,0,0,0,-45.0,10.44138156964458,63.41202633546489,0,178.79521,177.7713,0.0176063,-0.014517906,-0.98289615,0.98316103,0.21713823,-0.076484054,0.13789093,0.26835188,-285,199,1435,1476.0,-3.9121255E-4,9.004683E-6,5.434417E-4,6.696695E-4,3.913161821863791E-4,0.008213226119128983,0.9914378102964222,1.3070227643255588,-143.94035119668214,216.05964880331786,6.819132503588379,27.368229612718746,-1.3296612481484593,-145.3669925367588,0.7770552370140769,7103792.323453051,-89.98809017264679,-86.8130935557336,49.45,NONE,0.0,0.0,0.0,NONE,3.887924530887995E-11,-1.0695068645314183E-10,-3.0517578E-5,2,10.49,13.14,10.0,10.44,16.781,16.781,5.995,2.3766787,0,3138,4.178,12.0,1.312,87,23.3,OK,82,0,0,0,0,0,65,100,0.0,0,0.0,-6.044393E25,8.8E-44,0.0,1.05007105E-23,63,3.8147118E-7,-3.814731E-7,9.571642E-34,False,False,0,None,2.0472047E30,1.0842106E-19,
336831501,17.217,10.44138168909803,63.41202660935681,14,178.73233,178.86783,0.01699467,-0.017118476,-0.9862818,0.98657674,0.39256832,0.19328357,0.25770134,0.50781727,-285,199,1435,1476.0,0.0044553406,0.010382385,-0.030522224,0.03254612,0.011297963202226048,0.012762113854828507,0.8377741667292546,1.0310626958482159,-146.79705380414975,213.20294619585025,12.796190833654784,28.833304372035723,-0.8582022949166357,-145.5097998127798,0.7797158129926086,6.7427397696419895,-93.61021017638171,-90.43521355946852,49.78,0.5558323222656156,,10.4413811,63.4120263,20190510,140236,2019-05-10T14:02:36Z,119.335,0.72,1.33,7.04,8,6,14,-0.01,0.0,0.01,0,0,0,0,5,5,10.441396663543934,63.412024547394495,50,1153959,17,95,90,3407,3611,4272,4283,-1086,17109,22,0,17098,0,false,false,false,false,false,false,false,false,false,false,469,465,465,455,51,63,63,51,1209,1219,1215,1212,1202,1202,1202,1202,0.1,0.1,0.1,0.1,1639.8,1633.7,1633.1,1638.0,7.62,7.14,7.81,7.32,0,0,0,0,156.80140948635182,10.441381528684001,63.412026216494695,0,178.73233,177.77104,0.017524878,-0.013828145,-0.98269624,0.98294973,0.584199,0.16457333,-0.21292832,0.643204,-282,196,1432,1472.0,0.001162205,0.0023799178,-0.0069163893,0.0074061574,0.0026485334362074324,0.01040215598094664,1.0084280905756902,1.3037773834792272,-143.98714108404957,216.01285891595043,6.202961547048312,27.902777776688808,-1.54958349329101,-145.58625752400067,0.7757552240607966,7103792.37056861,,,49.77,NONE,0.0,0.0,0.0,NONE,2.177237729682933E-10,5.5951673278203446E-11,-3.0517578E-5,1,14.37,14.37,14.37,14.37,16.713,16.713,5.885,2.277491,0,3138,4.188,12.0,2.061,87,23.3,OK,83,0,0,0,0,0,65,100,0.0,0,0.0,-2.396601E24,8.8E-44,0.0,1.05007105E-23,63,3.8147118E-7,-3.814731E-7,9.566705E-34,False,False,0,None,2.0457733E30,1.0842106E-19,
340680747,18.217,10.441381576106698,63.41202657174026,14,178.73233,178.8583,0.017507402,-0.018848505,-0.9847812,0.98511714,0.47449586,-1.2235025,0.37995493,1.3661883,-285,199,1438,1479.0,-0.00572623,0.0056323814,-0.020395009,0.021919623,0.008032025136132256,-0.0010264713920463747,0.8438481703373889,0.9981139663117791,-146.83475484959808,213.16524515040192,13.522530264866308,29.073189956858208,-0.8805432644164679,-145.6193505489725,0.7838809183527806,6.7793873528185395,3.8229145508124645,6.997911167725657,50.09,0.5558323222656156,,10.4413811,63.4120262,20190510,140237,2019-05-10T14:02:37Z,119.359,0.72,1.33,7.03,8,6,14,0.0,0.01,-0.01,0,0,0,0,5,5,10.441396663543934,63.412024547394495,50,1153970,16,95,91,3409,3613,4289,4303,-532,17139,22,0,16524,0,false,false,false,false,false,false,false,false,false,false,2060,2023,2064,2074,52,65,64,52,1204,1207,1211,1215,1204,1204,1200,1200,0.0,0.0,0.0,0.0,1664.4,1658.8,1658.8,1662.5,0.59,0.28,0.78,0.37,0,0,0,0,-40.51539399045538,10.441381375361615,63.41202610571676,0,178.73233,177.767,0.014571066,-0.017822485,-0.99006754,0.9903351,-0.84427536,-2.4332566,-0.38260457,2.603829,-285,199,1435,1476.0,0.004259673,0.008830099,-0.008326592,0.012862643,0.009803849527965104,0.004680197529734984,0.9797450221681863,1.3031611602945399,-144.0302796906496,215.9697203093504,5.100829087407566,28.28675021426372,-0.26729453653403235,-145.3322936826975,0.7803389050495203,7103792.402585866,-84.53701867289843,-81.36202205598524,50.07,NONE,0.0,0.0,0.0,NONE,3.899887343841887E-10,2.8645115028145205E-11,-6.1035156E-5,2,10.7,10.47,10.0,10.03,16.642,16.642,5.975,2.2424765,0,3136,4.19,12.0,5.1,87,23.4,OK,84,0,0,0,0,0,65,100,0.0,0,0.0,-1.1963405E23,8.8E-44,0.0,1.05007105E-23,63,3.8147118E-7,-3.814731E-7,9.53238E-34,False,False,0,None,2.0357924E30,1.0842106E-19,
344542917,19.221,10.44138123807539,63.41202646020619,15,178.73233,178.85532,0.013328226,-0.012969763,-0.991507,0.9916814,-0.08017634,-4.162676,0.36271897,4.179218,-282,199,1438,1478.0,0.00670407,0.014318719,-0.016775593,0.023051916,0.015810448056890608,0.005011593287656341,0.8327088740405739,1.0212001643650601,-146.87254761552737,213.12745238447263,13.589231272070046,29.47699116914704,-0.9139802950052519,-145.2056072110881,0.7966093828844476,6.817980217824714,-34.29783498641793,-31.12283836950474,50.48,0.5558323222656156,,10.4413808,63.4120262,20190510,140238,2019-05-10T14:02:38Z,119.364,0.67,1.23,7.01,8,7,15,-0.01,0.0,0.0,10000,-10000,-9998,-10000,5,5,10.441396663543934,63.412024547394495,50,1153970,20,95,92,3409,3613,4258,4281,-1266,17139,22,2,16524,0,false,false,false,false,false,false,false,false,false,false,2070,2305,2044,2084,52,65,64,52,1204,1242,1206,1213,1203,1227,1200,1204,0.0,0.0,0.0,0.0,1664.4,1658.2,1659.4,1662.5,0.68,0.46,0.8,0.38,0,0,0,0,141.70983680775691,10.441381294496747,63.41202601015792,0,178.73233,177.63324,0.021359427,-0.015319868,-0.9783395,0.97869253,0.8782314,1.9611076,-1.5788202,2.6664407,-285,199,1438,1479.0,0.042237233,0.056472916,0.07624487,0.10385785,0.07052073505574134,-0.059201049319559766,0.8880696181987671,1.3712837516454948,-144.06054459758468,215.93945540241532,4.917873001378584,29.132588267915335,-0.8582472060762115,-144.79612180218643,0.781984403346114,7103792.443560466,,,50.5,NONE,0.0,0.0,0.0,NONE,5.1550888917943475E-9,1.6881878374746424E-9,3.3569336E-4,2,10.8,13.89,10.0,10.59,16.605,16.605,5.973,2.3245957,0,3136,4.143,12.0,1.916,87,23.4,OK,85,0,0,0,0,0,65,100,0.0,0,0.0,-5.716761E21,8.8E-44,0.0,1.05007105E-23,63,3.8147118E-7,-3.814731E-7,9.753843E-34,False,False,0,None,2.1002813E30,1.0842106E-19,
348427709,20.230,10.441380945716263,63.412026536785504,15,178.70801,178.85214,0.01705903,-0.014704937,-0.98422664,0.9844843,0.34973893,-0.008287964,0.13742208,0.37586012,-282,196,1432,1472.0,0.0071335025,5.2836054E-4,-0.010175951,0.012438488,0.00715304284037709,0.009544596943542125,0.836225881816545,1.028353394242374,-146.93840504325462,213.06159495674538,13.059574665793832,30.608928991555786,-1.2696467633200241,-145.65296538111792,0.8129162511621199,6.848117378425707,83.8430583529226,87.01805496983579,50.83,0.5315098124999906,,10.4413806,63.4120262,20190510,140239,2019-05-10T14:02:39Z,119.376,0.67,1.23,7.0,8,7,15,-0.01,0.01,0.01,0,0,0,0,5,5,10.441396663543934,63.412024547394495,50,1154055,48,94,93,3377,3613,4262,4273,-1137,17060,23,212,17057,0,false,false,false,false,false,false,false,false,false,false,0,0,0,0,49,60,59,49,943,946,945,944,940,940,940,940,0.0,0.0,0.0,0.0,1668.0,1663.1,1663.1,1666.8,0.0,0.0,0.0,0.0,0,0,0,0,-45.0,10.441380923581324,63.41202601574435,0,178.5574,177.66585,0.018356223,-0.015338681,-0.9844937,0.98478425,0.44009376,-0.15746382,0.10252615,0.47852793,-279,196,1432,1472.0,0.012182743,0.01582551,5.0404173E-4,0.019977989,0.019971629584118415,-0.0016779368257467259,0.8805302071697764,1.3616673413243712,-144.11474580327163,215.88525419672837,5.19213516698972,29.08841702073843,-0.43199760568885415,-144.60267833647953,0.800176003570858,7103792.483784874,-97.26018524242717,-94.08518862551398,50.82,NONE,0.0,0.0,0.0,NONE,2.8507459121797562E-9,8.33653174382897E-10,3.0517578E-5,2,10.0,13.36,10.69,10.82,16.729,16.729,5.984,2.4079823,0,3135,4.123,12.0,1.896,87,23.4,OK,86,0,0,0,0,0,65,100,0.0,0,0.0,-6.416008E21,8.8E-44,0.0,2.5102509E-8,63,3.8147118E-7,-3.814731E-7,9.931578E-34,False,False,0,None,2.1520427E30,1.0842106E-19,
352378721,21.257,10.441380735622802,63.41202651372225,15,178.47284,178.71713,0.017649122,-0.014429127,-0.9828095,0.98307383,0.37275022,-0.016628353,0.05659765,0.3773891,-285,199,1441,1482.0,-0.002994601,-0.010726323,0.010743661,0.015474104,0.011136500867532309,-6.522377395666214E-4,0.8258866456678986,1.0063903360657196,-146.96341704973182,213.03658295026818,13.181649028777485,30.962980799197886,-1.2533394312566912,-145.53124978405836,0.8222968559735885,6.870407972348374,-98.11107306282808,-94.93607644591489,51.07,0.29634135546874063,,10.4413803,63.4120262,20190510,140240,2019-05-10T14:02:40Z,119.39,0.67,1.23,6.98,8,7,15,0.0,0.01,0.0,0,0,0,0,5,5,10.441396663543934,63.412024547394495,50,1154055,17,94,94,3377,3613,4262,4273,-1137,17060,23,0,17057,0,false,false,false,false,false,false,false,false,false,false,0,0,0,0,48,61,60,49,943,945,944,944,940,940,940,940,0.0,0.0,0.0,0.0,1669.3,1661.9,1663.1,1668.0,0.0,0.0,0.0,0.0,0,0,0,0,-45.0,10.441380529058472,63.412026003119,0,178.51512,177.6488,0.017768372,-0.0134188095,-0.9858232,0.9860746,0.27567253,-0.02084875,-0.027421903,0.2778164,-285,202,1441,1482.0,-0.0022124203,-0.005469592,-5.3158496E-5,0.0059003443,0.005900104840462707,0.013269784926268367,0.8772793549472854,1.344390388031732,-144.15574085878833,215.84425914121167,5.264419139367054,29.417545865005188,-0.3991289837884535,-144.3723483398977,0.8191286179880122,7103792.511614289,-93.30642250084452,-90.13142588393133,51.08,NONE,0.0,0.0,0.0,NONE,-4.399336177580457E-10,-1.4617040281230145E-10,0.0,2,10.0,13.36,10.69,10.82,16.755,16.755,5.989,2.4094477,0,3135,4.173,12.0,1.334,87,23.4,OK,87,0,0,0,0,0,65,100,0.0,0,0.0,-1.1586321E21,8.8E-44,0.0,2.5102509E-8,63,3.8147118E-7,-3.814731E-7,1.0477478E-33,False,False,0,None,2.3110793E30,1.0842106E-19,
356292056,22.274,10.441380497448694,63.412026506144805,15,178.27573,178.64038,0.018177796,-0.014675027,-0.9833656,0.98364305,0.22658403,0.07804573,0.021095112,0.24057528,-282,196,1447,1487.0,-0.0012546999,-0.009549948,0.02416274,0.0260118,0.009632018815915808,0.002051951880685335,0.8235144503636489,1.0081467165219031,-146.9791760476779,213.0208239523221,13.229797098027783,31.221879788907014,-1.2041786890435429,-145.66276680676935,0.8335089133065873,6.886233499229993,,,51.32,0.22036731835936507,,10.4413801,63.4120262,20190510,140241,2019-05-10T14:02:41Z,119.407,0.67,1.23,6.96,8,7,15,0.0,0.0,-0.01,0,0,0,0,5,5,10.441396663543934,63.412024547394495,50,1154404,16,94,95,3376,3612,4258,4281,-1369,17141,23,0,16508,0,false,false,false,false,false,false,false,false,false,false,501,458,461,492,54,65,65,54,1400,1208,1205,1404,1392,1392,1392,1392,0.1,0.1,0.1,0.1,1638.0,1632.5,1631.2,1637.3,7.59,7.08,7.69,7.27,0,0,0,0,-94.63546342690267,10.441380369808442,63.412026014723764,0,178.44725,177.64325,0.01820187,-0.015534091,-0.98395795,0.9842489,0.5758574,-0.24618553,0.23983355,0.670626,-285,196,1441,1481.0,0.0059585497,-0.0024734004,0.00598144,0.008797707,0.006451513355986029,0.0014436718170978751,0.9528776913147267,1.3492127303952823,-144.0999812442638,215.9000187557362,5.3795515988200195,29.731001980110033,-0.37235347346087877,-145.568757273142,0.8271528840952911,7103792.540130313,-88.3817982744767,-85.2068016575635,51.29,NONE,0.0,0.0,0.0,NONE,-1.9170458812239397E-10,6.799868558616406E-11,0.0,1,31.56,31.56,31.56,31.56,16.645,16.645,5.875,2.365706,0,3134,4.176,12.0,2.849,87,23.4,OK,88,0,0,0,0,0,65,100,0.0,0,0.0,-1.14647235E21,8.8E-44,0.0,2.5102509E-8,63,3.8147118E-7,-3.814731E-7,1.0639696E-33,False,False,0,None,2.3582758E30,1.0842106E-19,
360187598,23.287,10.441380656015305,63.41202652215536,15,178.27573,178.65038,0.01995231,-0.014773654,-0.9831044,0.9834178,0.22007935,2.4914963,2.6081448,3.613642,-282,199,1441,1481.0,0.003841966,5.5370724E-4,7.433002E-4,0.003952188,0.003881661247912678,0.0041087982717170745,0.8258869018735703,1.043631510813687,-146.9601873987147,213.0398126012853,15.395838135437224,31.330349389663713,-1.662637025588605,-145.1211698536456,0.8263654637082929,6.9024140959129845,88.06187227171533,91.23686888862852,51.64,0.22036731835936507,,10.4413803,63.4120262,20190510,140242,2019-05-10T14:02:42Z,119.437,0.67,1.23,6.96,8,7,15,0.01,-0.01,0.0,0,0,0,0,5,5,10.441396663543934,63.412024547394495,50,1154404,20,94,96,3376,3612,4258,4281,-1369,17141,23,2,16508,0,false,false,false,false,false,false,false,false,false,false,2012,1990,2068,2051,54,66,66,54,1209,1207,1208,1205,1202,1200,1204,1206,0.0,0.0,0.0,0.0,1661.3,1656.4,1657.0,1661.9,0.77,0.34,0.74,0.34,0,0,0,0,-2.4470486423235798,10.441380649565847,63.41202603035813,0,178.27573,177.613,0.02026951,-0.015067272,-0.98044115,0.9807664,0.8878676,2.550087,0.9292816,2.855664,-285,199,1438,1479.0,0.021019112,0.0019886738,0.009854464,0.023299536,0.021112979544681526,-0.0072543076068246545,0.9563553218554623,1.4137458371614793,-144.05981714233025,215.94018285766975,7.4354773416402375,28.74714468815348,0.12005094580768098,-144.9431967314316,0.8138586502936643,7103792.565220006,,,51.58,NONE,0.0,0.0,0.0,NONE,1.8811573602164076E-10,9.145020133395148E-10,9.1552734E-5,2,10.34,10.0,10.12,10.38,16.58,16.58,5.969,2.3783445,0,3133,4.188,12.0,4.457,87,23.4,OK,89,0,0,0,0,0,65,100,0.0,0,0.0,-3.4074595E21,8.8E-44,0.0,2.5102509E-8,63,3.8147118E-7,-3.814731E-7,1.0361809E-33,False,False,0,None,2.2773454E30,1.0842106E-19,
364068257,24.295,10.441381065941592,63.41202650655059,15,178.27573,178.65517,0.017101567,-0.014945729,-0.98424846,0.9845105,3.2763782,-2.2844698,-3.2522297,5.150772,-288,196,1447,1488.0,-0.011057195,0.0054526306,-0.0050705154,0.013330524,0.012328533829940617,0.007972304488116784,0.860647861387864,1.0040315060343534,-147.03085837040302,212.96914162959698,15.52726974124205,31.727805828604346,-2.0353449062354714,-146.42964809683983,0.8062454517872062,6.923152964130855,98.69414543011608,101.86914204702927,52.01,0.22036731835936507,,10.4413805,63.4120262,20190510,140243,2019-05-10T14:02:43Z,119.456,0.67,1.23,6.96,8,7,15,-0.01,0.01,0.0,0,0,0,9676,5,5,10.441396663543934,63.412024547394495,50,1154627,48,92,97,3290,3612,4240,4252,-1182,16997,24,212,17002,0,false,false,false,false,false,false,false,false,false,false,3044,2863,2857,2962,53,66,66,53,1317,1319,1291,1323,1326,1330,1305,1309,0.0,0.0,0.0,0.0,1647.2,1641.1,1641.7,1646.6,2.98,2.35,2.55,2.28,0,0,0,0,-107.10272896905238,10.441380948769046,63.41202601783324,0,178.27573,177.6198,0.016453184,-0.015129734,-0.9842331,0.9844869,-1.3943366,1.2290508,7.4088316,7.6384244,-285,199,1444,1485.0,0.0041878945,0.002633893,-0.009622428,0.010819749,0.004947307562184398,0.00988130491623083,0.9587973514781508,1.3866076767995827,-144.09979055047899,215.90020944952101,7.917337464806776,28.634939874529994,0.2654817534201953,-145.02639163953356,0.7989963827375778,7103792.590471862,80.22047181293469,83.39546842984788,51.99,NONE,0.0,0.0,0.0,NONE,8.732876756035238E-11,3.838980927605534E-10,-4.5776367E-5,2,23.59,20.54,17.7,20.78,16.62,16.62,5.958,2.4695473,0,3132,4.127,12.0,1.888,87,23.4,OK,90,0,0,0,0,0,65,100,0.0,0,0.0,-4.6146404E21,8.8E-44,0.0,2.5102509E-8,63,3.8147118E-7,-3.814731E-7,1.0048657E-33,False,False,0,None,2.1862021E30,1.0842106E-19,
367954748,25.305,10.441380030728267,63.41202660936098,15,178.27573,178.6566,-0.039361093,0.029114556,-1.0453087,1.0464547,15.8813305,0.17778492,-2.9247115,16.14937,-230,112,1447,1469.0,0.02717683,-0.06582468,-0.07867389,0.10611809,0.07121424472178799,-0.018967716599692534,-1.9426266784173911,-1.2224380504032535,-149.63798008107057,210.36201991892943,12.887284479236223,24.71871454503543,-4.783325258704247,-148.30577830059192,0.858943137966761,6.998081553767347,-53.0150190231953,-49.84002240628211,52.27,0.22036731835936507,,10.4413794,63.4120263,20190510,140244,2019-05-10T14:02:44Z,119.489,0.67,1.23,6.96,8,7,15,0.03,-0.11,0.0,0,0,0,0,5,5,10.441396663543934,63.412024547394495,50,1154627,17,92,98,3290,3612,4240,4252,-1182,16997,24,0,17002,0,false,true,false,false,false,false,true,false,false,false,5527,5140,4468,4336,52,64,64,51,1552,1483,1398,1460,1533,1446,1443,1444,0.0,0.0,0.0,0.0,1625.1,1619.0,1619.0,1623.2,5.29,3.45,2.65,2.82,0,0,0,0,-172.2060152402677,10.441380228300451,63.412026279895294,0,178.27573,177.6199,-0.032463346,0.013800495,-1.0865276,1.0871,-6.108388,3.3327918,-8.322311,10.848077,-233,118,1450,1473.0,0.08162007,-0.07074659,-0.060119346,0.123617366,0.10801350059500525,-0.06227083242917963,-2.1158232874876424,-0.4998102260358102,-146.46206419957326,213.53793580042674,7.181895182604968,31.610572657814213,-1.8766535667304252,-145.08040060632862,0.8403238853000476,7103792.6848570155,-53.342103610545976,-50.167106993632785,52.26,NONE,0.0,0.0,0.0,NONE,-8.873739278472772E-9,2.943754131211677E-9,2.4414062E-4,2,50.33,45.58,38.29,37.81,16.623,16.623,5.836,2.5954967,0,3132,4.121,12.0,5.004,87,23.4,OK,91,0,0,0,0,0,65,100,0.0,0,0.0,4.336886E-29,9.0E-44,0.0,2.5102509E-8,63,3.8147118E-7,-3.814731E-7,2.5397885E-34,False,False,0,None,1.9175014E29,1.0842106E-19,
371803587,26.306,10.441378880093932,63.412027366352326,15,178.50537,178.79872,-0.040624995,0.050439186,-0.97635317,0.9784988,-1.0289237,0.7109057,5.0768948,5.2286644,-132,104,1462,1471.0,0.05682832,-0.06536342,-0.22026673,0.2366839,0.08661313412811718,0.015162457898624665,-2.8070148463699613,-4.597926467064712,-149.5468370866519,210.4531629133481,15.072300667654813,24.163189118351053,-13.08044013382345,-144.74311827287994,0.17823257948363952,7.116729274806014,-13.418452368462013,-10.24345575154882,52.56,0.45001209374999007,,10.4413785,63.412027,20190510,140245,2019-05-10T14:02:45Z,119.718,0.67,1.23,6.95,8,7,15,0.11,0.01,-0.22,0,0,0,0,5,5,10.441380896050175,63.41202604154276,50,1154662,16,92,99,3290,3612,4263,4275,-531,17049,24,0,16416,0,false,false,false,false,false,false,true,false,false,false,5803,4938,4717,5131,51,64,64,52,1562,1470,1444,1493,1547,1485,1461,1467,0.0,0.0,0.0,0.0,1619.6,1614.1,1614.1,1619.0,4.98,2.3,3.12,3.29,0,0,0,0,-124.92281152843213,10.441378879419707,63.412026837521545,0,178.27573,177.8223,-0.06374926,0.053088434,-1.0359777,1.039294,7.6167846,8.728851,3.548732,12.116178,-135,95,1465,1474.0,0.13567099,-0.04359026,-0.27992794,0.31411204,0.14250167992086837,-0.051143987156160545,-2.6467513531806413,-4.52056475594322,-146.42257074215942,213.57742925784058,5.173155390272217,32.15583790084435,-5.892023469271383,-146.92388065960012,0.13381531717497017,7103792.813751139,-18.718691606696726,-15.543694989783535,52.55,NONE,0.0,0.0,0.0,NONE,-7.889346606500592E-9,4.026914156772994E-9,-0.0014648438,2,49.47,50.14,43.29,41.17,16.435,16.435,5.811,2.8471239,0,3130,4.174,12.0,6.993,87,23.4,OK,92,0,0,0,0,0,65,100,0.0,0,0.0,2.3834446E-27,9.0E-44,0.0,2.5102509E-8,63,4.4777698E-7,-4.1462235E-7,3.136587E-34,False,False,0,None,2.786574E29,1.2176183E-19,
375724735,27.325,10.44137835487105,63.412027318539586,15,179.06258,178.96318,-0.03713707,0.051571567,-0.9752463,0.9773148,4.5360622,6.3010583,13.418527,15.502776,-201,104,1450,1467.0,-4.778033E-4,-0.017622337,0.016818777,0.024364859,0.01762881272484737,0.008545857419302753,-3.057601465105274,-2.1337967894826204,-149.1483668245574,210.8516331754426,12.614559224161539,25.853840018527265,-6.319172866106563,-144.55745807597978,0.1901500402737971,7.181430790593432,-103.17487222103387,-99.99987560412067,52.83,1.0072172939453026,,10.4413779,63.4120271,20190510,140246,2019-05-10T14:02:46Z,119.882,0.67,1.23,6.94,8,7,15,0.0,0.02,-0.17,0,0,0,0,5,5,10.441380896050175,63.41202604154276,50,1154662,20,92,100,3290,3612,4263,4275,-531,17049,24,2,16416,0,false,false,false,false,false,false,true,false,false,false,5475,5326,4598,5148,51,65,65,51,1527,1518,1461,1495,1516,1518,1460,1487,0.0,0.0,0.0,0.0,1615.9,1611.6,1609.8,1616.5,4.24,3.49,3.4,3.24,0,0,0,0,-146.47316787143916,10.44137804511731,63.41202682801132,0,179.30013,178.07712,-0.032400757,0.053271715,-0.9685087,0.9705137,-7.6951995,-7.539634,-5.429949,12.064266,-198,98,1453,1469.0,0.011865204,-0.0060505015,-0.057550848,0.059071917,0.013318845471123483,0.02743790546949891,-2.960350228950136,-1.7100011150685015,-146.17513980323338,213.82486019676662,9.097253059970264,30.215165405658713,-5.860262437280489,-144.3487836765297,0.1666699785359232,7103792.909989727,-124.07947580010949,-120.9044791831963,52.83,NONE,0.0,0.0,0.0,NONE,-1.431055258895985E-9,1.1136791875929978E-10,-6.713867E-4,2,51.13,48.33,39.43,48.82,16.329,16.329,5.809,3.3058898,0,3128,4.098,12.0,7.206,87,23.4,OK,93,0,0,0,0,0,65,100,0.0,0,0.0,1.0002046E-33,9.0E-44,0.0,2.5102509E-8,63,5.882466E-7,-4.5701208E-7,3.451972E-34,False,False,0,None,3.3226117E29,1.388216E-19,
379618126,28.337,10.441378990113662,63.412027079359326,15,178.95679,178.95494,-0.05923352,0.03200903,-0.97274435,0.97507167,7.131477,-2.8166094,1.8086221,7.8779674,-190,141,1456,1475.0,0.012451235,0.1242095,0.016586756,0.12592916,0.12483202182719486,-0.08400333814529251,-0.9897577961115963,-2.879485184499239,-149.46544878855195,210.53455121144805,13.969717080327081,29.567062406403593,-7.104441226830694,-147.69790525740723,0.14938015217726416,7.248415085458582,81.73234617099178,84.90734278790497,53.07,0.9014281093749901,,10.4413784,63.4120268,20190510,140247,2019-05-10T14:02:47Z,119.895,0.67,1.23,6.92,8,7,15,-0.01,0.09,-0.07,0,0,0,0,5,5,10.441380896050175,63.41202604154276,50,1154935,48,89,101,3186,3612,4213,4225,-1161,16892,26,212,16887,0,false,false,false,false,false,false,true,false,false,false,5162,4938,4940,5027,52,64,64,52,1515,1477,1478,1499,1512,1467,1456,1496,0.0,0.0,0.0,0.0,1619.0,1612.2,1610.4,1615.9,3.94,2.92,4.04,3.53,0,0,0,0,-113.15410622172226,10.441378959279959,63.41202658579106,0,179.01486,178.11198,-0.06392068,0.0307488,-0.97977227,0.9823365,-3.4755425,-7.629697,-8.428896,11.888564,-187,141,1459,1477.0,0.023263207,0.09389312,-0.029724676,0.101196095,0.09673207241337745,-0.044482080636288744,-0.5456685622520693,-2.618718196045808,-146.55149890055142,213.44850109944858,5.912291004101174,29.528689064279995,-6.141765654630114,-148.5651221674574,0.11381184567684946,7103792.994575009,87.58936038959078,90.76435700650397,53.1,NONE,0.0,0.0,0.0,NONE,9.524517467837047E-9,9.238718381566791E-10,-1.5258789E-4,2,47.23,44.29,45.2,45.35,16.312,16.312,5.81,3.907143,0,3126,4.072,12.0,7.106,87,23.4,OK,94,0,0,0,0,0,65,100,0.0,0,0.0,9.010164E-35,9.0E-44,0.0,2.5102509E-8,63,6.179762E-7,-4.6444083E-7,3.2408533E-34,False,False,0,None,2.9384635E29,1.4181268E-19,
383467918,29.337,10.441379302446144,63.41202758951633,15,178.77277,178.9529,-0.046900924,0.04842436,-1.0037308,1.005992,-7.3736196,-0.031401366,-0.7563903,7.4123797,-161,133,1487,1501.0,-0.0016161231,0.0060367957,0.0083177015,0.010403793,0.0062493805699432,0.05253664432323256,-1.6236582137168516,-4.303559863371358,-149.67778207328453,210.32221792671547,14.704587886081104,28.69346445608305,-8.39594295213232,-147.2127902671308,0.18951967454657412,7.323320060927182,-39.26604338557359,-36.0910467686604,53.39,0.7174071132812401,,10.4413791,63.4120272,20190510,140248,2019-05-10T14:02:48Z,119.878,0.67,1.23,6.91,8,7,15,0.03,0.03,-0.01,0,0,0,0,5,5,10.441380896050175,63.41202604154276,50,1154935,17,89,102,3186,3612,4213,4225,-1161,16892,26,0,16887,0,false,false,false,false,false,false,true,false,false,false,5647,4993,4903,4924,52,65,65,52,1557,1501,1481,1448,1539,1508,1483,1441,0.0,0.0,0.0,0.0,1611.6,1606.7,1606.7,1611.0,5.39,3.16,3.48,2.54,0,0,0,0,-140.29856506989995,10.441379358221473,63.4120270187913,0,178.93895,178.08556,-0.05066921,0.050515022,-1.0033647,1.0059124,-8.353068,7.47347,3.454982,11.728744,-155,133,1478,1492.0,0.0026726234,-0.034043513,4.3340633E-4,0.03415101,0.03414825970047722,0.017903875322730363,-1.8773488950889046,-3.9797193825830757,-146.80734247587773,213.19265752412227,6.194954776941494,28.956132688151932,-8.06080653943505,-144.77582169484174,0.1329119088115385,7103793.071158003,-82.14417729878579,-78.9691806818726,53.41,NONE,0.0,0.0,0.0,NONE,2.118918816552883E-9,2.2032643440909326E-10,-1.2207031E-4,2,53.81,46.24,42.36,43.01,16.292,16.292,5.797,4.5501747,0,3124,4.071,12.0,7.028,87,23.4,OK,95,0,0,0,0,0,65,100,0.0,0,0.0,5.6746972E-18,9.0E-44,0.0,2.5102509E-8,63,6.012415E-7,-4.6025716E-7,3.289989E-34,False,False,0,None,3.0099835E29,1.4012524E-19,
387321635,30.339,10.441378860646948,63.412027243344255,15,178.61446,178.91745,-0.037698645,0.024852198,-0.98036796,0.9814072,1.930129,5.427704,3.5243855,6.75327,-213,130,1468,1489.0,-0.039573915,0.028135363,-0.020756625,0.05280654,0.04855608498487201,-0.004295617491788292,-1.3828384444324207,-1.6267506760953026,-149.31140343395464,210.68859656604536,16.018670532525856,30.21378770885645,-2.5175933169279063,-146.9804968098389,0.16768793754968223,7.376178620100815,-150.26602812709115,-147.09103151017794,53.76,0.5590971767578026,,10.4413781,63.4120269,20190510,140249,2019-05-10T14:02:49Z,119.825,0.67,1.23,6.9,8,7,15,-0.04,-0.01,-0.01,0,0,0,0,5,5,10.441380896050175,63.41202604154276,50,1316154,16,89,103,3177,3620,4233,4246,-602,16963,22,0,16256,0,false,false,false,false,false,false,true,false,false,false,5387,5172,4889,4985,52,65,65,53,1525,1504,1473,1485,1517,1504,1474,1478,0.0,0.0,0.0,0.0,1611.6,1607.9,1607.9,1612.2,4.26,3.24,3.41,3.34,0,0,0,0,-155.58125788220826,10.441378509606436,63.41202670645103,0,178.59601,178.05374,-0.037435185,0.026811693,-0.9812178,0.98229766,0.9583111,-6.393636,-4.601669,7.935509,-216,133,1459,1480.0,-0.049626797,0.0059787664,-0.0027600399,0.050061785,0.049985643370897205,0.004608910556172283,-1.236378148220657,-1.5715165308046175,-146.45784486597339,213.54215513402661,7.095898212067901,28.81746697057227,-6.4411867239607075,-147.2680345926719,0.13990023430158743,7103793.136872329,-126.29808036682077,-123.12308374990758,53.77,NONE,0.0,0.0,0.0,NONE,4.6027043613632187E-10,-2.2003195324944714E-9,-3.0517578E-5,2,51.28,46.28,43.18,46.82,16.289,16.289,5.798,4.5501747,0,3124,4.067,12.0,7.028,87,23.4,OK,95,0,0,0,0,0,65,100,0.0,0,0.0,9.8337155E-33,9.0E-44,0.0,-1.05007105E-23,63,5.778711E-7,-4.5441456E-7,3.2956313E-34,False,False,0,None,3.0182526E29,1.3777604E-19,
