Tick#,offsetTime,IMU_ATTI(0):Longitude,IMU_ATTI(0):Latitude,IMU_ATTI(0):numSats,IMU_ATTI(0):barometer:Raw,IMU_ATTI(0):barometer:Smooth,IMU_ATTI(0):accel:X,IMU_ATTI(0):accel:Y,IMU_ATTI(0):accel:Z,IMU_ATTI(0):accel:Composite,IMU_ATTI(0):gyro:X,IMU_ATTI(0):gyro:Y,IMU_ATTI(0):gyro:Z,IMU_ATTI(0):gyro:Composite,IMU_ATTI(0):mag:X,IMU_ATTI(0):mag:Y,IMU_ATTI(0):mag:Z,IMU_ATTI(0):mag:Mod,IMU_ATTI(0):velN,IMU_ATTI(0):velE,IMU_ATTI(0):velD,IMU_ATTI(0):velComposite,IMU_ATTI(0):velH,IMU_ATTI(0):GPS-H,IMU_ATTI(0):roll,IMU_ATTI(0):pitch,IMU_ATTI(0):yaw,IMU_ATTI(0):yaw360,IMU_ATTI(0):totalGyro:Z,IMU_ATTI(0):totalGyro:X,IMU_ATTI(0):totalGyro:Y,IMU_ATTI(0):magYaw,IMU_ATTI(0):distanceHP,IMU_ATTI(0):distanceTravelled,IMU_ATTI(0):directionOfTravel[mag],IMU_ATTI(0):directionOfTravel[true],IMU_ATTI(0):temperature,General:relativeHeight,General:absoluteHeight,GPS(0):Long,GPS(0):Lat,GPS(0):Date,GPS(0):Time,GPS:dateTimeStamp,GPS(0):heightMSL,GPS(0):hDOP,GPS(0):pDOP,GPS(0):sAcc,GPS(0):numGPS,GPS(0):numGLNAS,GPS(0):numSV,GPS(0):velN,GPS(0):velE,GPS(0):velD,RC:Aileron,RC:Elevator,RC:Rudder,RC:Throttle,Controller:navHealth,Controller:ctrl_level,HP:Longitude,HP:Latitude,HP:rthHeight,BatBlackBox:tick,BatBlackBox:id,BatBlackBox:rsoc,BatBlackBox:index,BatBlackBox:rm,BatBlackBox:fcc,BatBlackBox:cell_min,BatBlackBox:cell_max,BatBlackBox:current,BatBlackBox:voltage,BatBlackBox:temp,BatBlackBox:flag,BatBlackBox:reserve,BatBlackBox:user_data,OA:avoidObst,OA:emergBrake,OA:radiusLimit,OA:airportLimit,OA:groundForceLanding,OA:horizNearBoundary,OA:vertLowLimit,OA:vertAirportLimit,OA:roofLimit,OA:hitGroundLimit,Motor:Speed:RFront,Motor:Speed:LFront,Motor:Speed:LBack,Motor:Speed:RBack,Motor:EscTemp:RFront,Motor:EscTemp:LFront,Motor:EscTemp:LBack,Motor:EscTemp:RBack,Motor:PPMrecv:RFront,Motor:PPMrecv:LFront,Motor:PPMrecv:LBack,Motor:PPMrecv:RBack,Motor:PPMsend:RFront,Motor:PPMsend:LFront,Motor:PPMsend:LBack,Motor:PPMsend:RBack,Motor:V_out:RFront,Motor:V_out:LFront,Motor:V_out:LBack,Motor:V_out:RBack,Motor:Volts:RFront,Motor:Volts:LFront,Motor:Volts:LBack,Motor:Volts:RBack,Motor:Current:RFront,Motor:Current:LFront,Motor:Current:LBack,Motor:Current:RBack,Motor:Status:RFront,Motor:Status:LFront,Motor:Status:LBack,Motor:Status:RBack,Motor:thrustAngle,IMU_ATTI(1):Longitude,IMU_ATTI(1):Latitude,IMU_ATTI(1):numSats,IMU_ATTI(1):barometer:Raw,IMU_ATTI(1):barometer:Smooth,IMU_ATTI(1):accel:X,IMU_ATTI(1):accel:Y,IMU_ATTI(1):accel:Z,IMU_ATTI(1):accel:Composite,IMU_ATTI(1):gyro:X,IMU_ATTI(1):gyro:Y,IMU_ATTI(1):gyro:Z,IMU_ATTI(1):gyro:Composite,IMU_ATTI(1):mag:X,IMU_ATTI(1):mag:Y,IMU_ATTI(1):mag:Z,IMU_ATTI(1):mag:Mod,IMU_ATTI(1):velN,IMU_ATTI(1):velE,IMU_ATTI(1):velD,IMU_ATTI(1):velComposite,IMU_ATTI(1):velH,IMU_ATTI(1):GPS-H,IMU_ATTI(1):roll,IMU_ATTI(1):pitch,IMU_ATTI(1):yaw,IMU_ATTI(1):yaw360,IMU_ATTI(1):totalGyro:Z,IMU_ATTI(1):totalGyro:X,IMU_ATTI(1):totalGyro:Y,IMU_ATTI(1):magYaw,IMU_ATTI(1):distanceHP,IMU_ATTI(1):distanceTravelled,IMU_ATTI(1):directionOfTravel[mag],IMU_ATTI(1):directionOfTravel[true],IMU_ATTI(1):temperature,IMUEX(0):err,IMUEX(0):rtk_Longitude,IMUEX(0):rtk_Latitude,IMUEX(0):rtk_Alti,IMUEX(1):err,IMUEX(1):rtk_Longitude,IMUEX(1):rtk_Latitude,IMUEX(1):rtk_Alti,MotorCtrl:Status,MotorCtrl:PWM:RFront,MotorCtrl:PWM:LFront,MotorCtrl:PWM:LBack,MotorCtrl:PWM:RBack,BattInfo:Voltage,BattInfo:BatVoltage,BattInfo:AdVoltage,BattInfo:AvgCurrent,BattInfo:R_time,BattInfo:R_CAP_MAH,BattInfo:LowCellVoltage,BattInfo:LowCellVolThreshold,BattInfo:BatCurrent,BattInfo:Remaining%,BattInfo:Temp,BattInfo:status,battery_info:BatDynCnt,battery_info:Vol1Protect,battery_info:Vol2Protect,battery_info:Cap1Protect,battery_info:Cap2Protect,battery_info:Batpresent,battery_info:sopPercentage,battery_info:sopValue,battery_info:sopScale,battery_info:sopFlg,BattInfo:WindHeading:WindDir,battery_info:home_dir,BattInfo:Wind:rangeMin,BattInfo:Wind:rangeMax,battery_info:cap_speed,battery_info:against_wind,battery_info:emergency_land_cap,battery_info:intel_bat_land_cap,battery_info:intel_bat_gh_cap,BattInfo:Smart:SmartGh,BattInfo:Smart:SmartLand,BattInfo:GoHome:CntDown,BattInfo:GoHome:GhCmd,BattInfo:GoHome:CapLevel,BattInfo:GoHome:LandCapLv,Attribute|Value,ConvertDatV3,3.6.6-Tablet
173837527,.000,9.295036050749028,62.64872256677843,10,543.1209,543.22156,0.08599571,-0.009580785,-0.97860986,0.9824278,0.25524902,0.18174936,-0.056747753,0.31844184,188,-384,1455,1516.0,-0.017962584,-0.026795805,-0.0010330796,0.03227595,0.03225941139826282,-0.03225941139826282,0.5922624859769783,5.119038538159466,55.981321885764125,55.981321885764146,3.406341028128473,14.548729862491848,0.35714235381862325,51.560081151134284,0.317429530609653,24.37392957057365,-134.56125373690537,-131.96695979268586,34.24,,,9.295037,62.6487228,20190822,84538,2019-08-22T08:45:38Z,590.527,0.96,2.1,14.51,6,4,10,-0.01,-0.01,0.01,-9840,-9623,9679,-9823,4,4,9.295041106916143,62.64872422597086,120,10095730,114,100,369,3404,3432,4269,4293,-2891,17416,23,3437,17027,0,false,false,false,false,false,false,false,false,false,false,0,0,0,0,42,51,52,42,944,944,944,945,940,940,940,940,0.0,0.0,0.0,0.0,1723.2,1717.1,1717.1,1723.2,0.0,0.0,0.0,0.0,0,0,0,0,-45.0,9.295035920620965,62.64872188158626,0,543.14465,542.7872,0.0862179,-0.010044087,-0.97782415,0.98166925,0.27861226,0.22145952,0.16876045,0.3938898,191,-384,1458,1519.0,5.968525E-4,-2.0427408E-4,0.0014314695,0.0015643099,6.308413460341882E-4,-6.308413460341882E-4,0.47269356861988404,5.482934477690103,51.852333467557216,51.85233346755723,2.8536753815025504,12.615393279739322,0.614938329353986,50.269932903522886,0.3716963656675064,7009420.947562995,171.0122807784737,173.6065747226932,34.24,NONE,0.0,0.0,0.0,NONE,-6.001308616527262E-11,1.632945818242693E-11,0.0,,,,,,17.331,17.331,6.194,1.2167065,0,3394,4.332,12.0,1.226,100,20.7,OK,42,0,0,0,0,0,65,100,0.0,0,0.0,1.0496E7,8.8E-44,0.0,-5.9807744E7,62,3.8653802E-13,-3.8653984E-13,2.8558157E-38,False,False,0,None,2.0701839E30,1.0842106E-19,Firmware Date| Oct 17 2018
177691668,1.002,9.29503392229702,62.64872142924679,10,543.2258,543.22736,0.08500266,-0.008894162,-0.9794777,0.9831994,0.42315376,-0.10051992,0.023054836,0.43553975,191,-387,1464,1526.0,-0.03415277,-0.04078803,-0.0030304017,0.05328469,0.05319844797767726,0.11332549372271977,0.5484613949003158,5.062588352326866,55.989419670965816,55.989419670965844,3.615320153263779,14.740475490952244,0.43364822338559844,51.487363178438144,0.48107500295443417,24.619020256652387,-139.44232553747688,-136.84803159325736,34.48,0.08911107812502905,,9.295035,62.6487219,20190822,84539,2019-08-22T08:45:39Z,590.621,0.96,2.1,14.06,6,4,10,0.01,-0.01,0.0,0,0,0,0,4,4,9.295041106916143,62.64872422597086,120,10096069,48,96,370,3278,3432,4297,4307,-1126,17203,26,212,17203,0,false,false,false,false,false,false,false,false,false,false,520,528,501,539,47,55,55,46,1350,1359,1356,1355,1342,1342,1342,1342,0.1,0.1,0.1,0.1,1678.5,1674.8,1674.1,1680.3,8.06,7.54,8.11,7.75,0,0,0,0,-104.93141717813756,9.29503412887556,62.64872101020904,0,543.2258,542.7783,0.084712476,-0.009476759,-0.9785972,0.98230267,0.09740076,0.027792381,-0.13515492,0.16889694,188,-387,1449,1511.0,-0.0030524975,-0.009927439,0.007704182,0.012931597,0.010386134182504886,0.1226845368790582,0.4562202031677194,5.468469965802262,51.812838649924174,51.812838649924174,3.1845352128874884,12.885567758972044,0.6632608468279853,50.808310256061496,0.504924275099912,7009421.082220003,-143.77262687680138,-141.17833293258187,34.52,NONE,0.0,0.0,0.0,NONE,-5.695416523790928E-10,-3.2525068346653894E-11,0.0,1,22.5,22.5,22.5,22.5,17.318,17.318,6.038,1.218081,0,3393,4.332,12.0,1.246,100,20.7,OK,43,0,0,0,0,0,65,100,0.0,0,0.0,337384.0,8.8E-44,0.0,-5.9807744E7,62,3.8653802E-13,-3.8653984E-13,4.563095E-38,False,False,0,None,5.053426E30,1.0842106E-19,ACType|MavicEnterprise
181590778,2.015,9.295032471768959,62.648720839085655,10,543.2258,543.2245,0.08696199,-0.009483289,-0.9763479,0.98025894,-0.658506,-0.09996747,0.1451428,0.68168175,188,-378,1470,1529.0,0.001563793,-0.012750885,7.362703E-4,0.012867503,0.012846421090904872,0.08483250032020845,0.5165453104474659,5.025612281960819,55.76569169757188,55.76569169757187,4.153962826404905,15.393503225647983,1.2164149062954277,51.09481266240357,0.5800393933617958,24.72972997436317,-86.17311312976672,-83.5788191855472,34.86,0.08911107812502905,,9.2950336,62.6487213,20190822,84540,2019-08-22T08:45:40Z,590.705,0.96,2.1,13.63,6,4,10,-0.03,-0.01,0.01,0,0,0,4289,4,4,9.295041106916143,62.64872422597086,120,10096069,17,96,371,3278,3432,4297,4307,-1126,17203,26,0,17203,0,false,false,false,false,false,false,false,false,false,false,2101,2066,2165,2169,45,57,57,46,1206,1205,1209,1212,1200,1200,1213,1214,0.0,0.0,0.0,0.0,1714.6,1709.1,1709.7,1715.3,0.66,0.24,0.82,0.35,0,0,0,0,-13.144867617550744,9.295032958999071,62.6487206916599,0,543.2258,542.72906,0.08518712,-0.009212176,-0.97781223,0.98155916,-1.0120165,-1.0477384,0.9029179,1.7138244,188,-378,1470,1529.0,-0.0090496,-0.029198982,0.02214709,0.037748765,0.030569196914909016,0.03798917287750912,0.4379542858034566,5.499618894049987,51.68704275948528,51.68704275948528,1.1554055996448012,13.289385087158191,-0.33863960289751643,49.90180084106072,0.5724678631382805,7009421.193572128,-122.0143930950759,-119.42009915085639,34.85,NONE,0.0,0.0,0.0,NONE,-2.4867557575836883E-9,-4.961076836213478E-10,1.2207031E-4,2,13.42,13.2,17.46,17.75,17.0,17.0,6.166,1.2996509,0,3392,4.256,12.0,5.172,100,20.8,OK,44,0,0,0,0,0,65,100,0.0,0,0.0,1.63299983E10,8.8E-44,0.0,-5.9807744E7,62,3.8653802E-13,-3.8653984E-13,6.0812693E-38,False,False,0,None,8.38333E30,1.0842106E-19,dateTime|2015-10-18 0:0:6 GMT
185629999,3.065,9.295031370412019,62.64872084312746,10,543.69775,543.55145,-0.00848993,-0.0058162455,-1.2721993,1.2722409,7.959554,4.488324,6.0562186,10.962543,282,-393,1428,1507.0,-0.013451425,0.023169538,-1.298751,1.2990273,0.026791198726366802,0.02680867037238404,0.31975424652464773,0.9238656287932591,57.1231217983238,57.12312179832378,6.540151025651446,15.969276975122208,-4.730197612284954,52.74520854091316,0.6236320681864443,24.849590846344427,-100.18304977465444,-97.58875583043492,35.21,0.561034906250029,,9.295032,62.6487209,20190822,84541,2019-08-22T08:45:41Z,591.001,0.96,2.1,13.24,6,4,10,-0.07,0.02,-0.25,0,0,0,10000,4,4,9.295041106916143,62.64872422597086,120,10096081,16,96,372,3281,3436,4313,4320,-606,17257,26,0,16534,0,false,false,false,false,false,false,true,false,false,false,6542,6706,5596,5752,42,55,55,41,1651,1663,1549,1563,1651,1660,1531,1550,0.0,0.0,0.0,0.0,1620.8,1615.9,1614.7,1620.8,6.42,5.91,4.85,4.3,0,0,0,0,179.7587560382035,9.295031488472823,62.64872038399202,0,543.6449,543.0291,-0.010063189,0.0021439316,-1.2584463,1.2584884,-7.855125,1.068479,-0.5293857,7.945117,288,-396,1419,1501.0,0.018818727,0.034820728,-1.2070131,1.207662,0.03958064735364696,0.03905424705071376,0.19743874627631522,1.4227121185146034,53.068524292390805,53.068524292390805,2.9844947145415315,14.040404537945541,-3.39114935553282,51.13175533202451,0.6511279110609365,7009421.298866425,-138.32020094468575,-135.72590700046624,35.2,NONE,0.0,0.0,0.0,NONE,3.959406838214725E-9,2.886900971816877E-9,-0.0033569336,2,64.74,66.3,52.83,54.88,17.06,17.06,5.864,1.5275826,0,3391,4.221,12.0,2.353,100,20.8,OK,45,0,0,0,0,0,65,100,0.0,0,0.0,-1.8393188E-19,8.8E-44,0.0,-5.9807744E7,62,4.8780424E-13,-4.2890873E-13,5.471122E-39,False,False,0,None,2.1497119E29,1.2734364E-19,geoDeclination|259 degrees
189539441,4.081,9.295029680415979,62.64872056341289,10,546.7496,546.38245,-0.00288111,4.7379173E-4,-1.0222951,1.0222993,2.643812,-1.4707103,3.692472,4.7735815,343,-424,1401,1503.0,-0.1418953,0.05546687,-4.1135254,4.116346,0.1523510674406521,-0.06203056014327363,-0.9931363629872805,-1.2005040040770603,57.06251172132446,57.06251172132448,0.7762550195936118,8.75536182062816,-5.064578303431212,51.89518038871986,0.11100881747593644,25.01466123284214,-0.9103415748577839,1.6839523693617293,35.45,3.612853753906279,,9.2950316,62.6487213,20190822,84542,2019-08-22T08:45:42Z,593.445,0.96,2.1,12.97,6,4,10,-0.04,0.09,-1.79,0,0,905,10000,4,4,9.295031835783606,62.64872043685715,120,10096081,20,96,373,3281,3436,4313,4320,-606,17257,26,2,16534,0,false,false,false,false,false,false,true,false,false,false,6267,6445,5413,5545,43,54,55,43,1604,1615,1499,1528,1592,1603,1492,1515,0.0,0.0,0.0,0.0,1637.3,1630.6,1631.2,1638.0,5.15,4.59,3.68,3.55,0,0,0,0,178.49771843889437,9.295030610033894,62.64872052619133,0,547.4313,546.4063,-0.0056898277,-0.013153581,-0.98011404,0.9802188,0.20757799,-3.1082332,1.299175,3.3752124,340,-424,1416,1516.0,-0.023263805,0.030199647,-4.250213,4.2503843,0.038121165892330174,0.008709038642484505,-1.4107229973513302,-0.7397808162648353,53.1004079085518,53.1004079085518,-2.2343337069500055,6.245285957341684,-2.9712419104983305,50.422520066342074,0.06340397646418112,7009421.52064387,-8.713261516605623,-6.1189675723861106,35.44,NONE,0.0,0.0,0.0,NONE,1.2075442796400683E-10,-3.799675922236135E-9,-0.030761719,2,59.43,60.4,46.7,49.92,16.503,16.503,5.84,1.9471954,0,3390,4.273,12.0,9.847,100,20.8,OK,46,0,0,0,0,0,65,100,0.0,0,0.0,-3681.875,8.8E-44,0.0,-5.9807744E7,62,1.111955E-11,-2.0266156E-12,2.1145934E-38,False,False,0,None,1.17525E30,5.4680283E-19,geoInclination|7433 degrees
193420088,5.089,9.295031193886246,62.64872360544153,10,551.2807,550.3457,7.367616E-4,-0.0073864493,-0.98937744,0.9894053,10.349921,10.126016,9.4269285,17.27785,291,-390,1428,1508.0,0.06995788,0.044646844,-3.8580132,3.8589058,0.08299063897593667,0.26104611085542545,0.8554642289453062,0.6787036768811925,57.38159257694531,57.38159257694531,0.6904694989945661,10.755454312532954,-2.206000666048515,53.186642983862264,0.3538533323040081,25.381123847659794,-20.358310195589585,-17.764016251370073,35.69,8.143981683593779,,9.2950318,62.6487234,20190822,84543,2019-08-22T08:45:43Z,597.48,0.96,2.1,12.7,6,4,10,0.23,0.05,-3.07,0,0,-1583,10000,4,4,9.295031835783606,62.64872043685715,120,10096697,48,89,374,3041,3436,4231,4241,-1090,16929,30,212,16925,0,false,false,false,false,false,false,true,false,false,false,6223,6416,5401,5444,44,55,54,45,1596,1623,1517,1516,1588,1616,1511,1508,0.0,0.0,0.0,0.0,1631.8,1626.4,1627.0,1633.1,5.28,4.84,3.98,3.47,0,0,0,0,175.22050008119467,9.295030960961233,62.648723396661424,0,551.6876,550.3591,-0.0016739403,-0.010007356,-0.9892319,0.9892839,-1.7820569,-7.246506,-7.7031198,10.725,288,-387,1431,1510.0,0.18836099,-0.015191196,-3.9056885,3.9102576,0.18897258141419937,0.12799808764184667,0.8927172122424964,1.152153140891845,53.119131307164,53.119131307164025,-0.33695413924708906,10.687344079636985,-5.531718283838599,52.27478068669985,0.33213593385273227,7009421.8548575565,-10.90087691570343,-8.306582971483916,35.71,NONE,0.0,0.0,0.0,NONE,-7.545436991769841E-10,4.011821903879496E-9,-0.00982666,2,59.18,61.64,48.88,49.06,16.486,16.486,5.878,2.720974,0,3386,4.072,12.0,10.87,100,20.8,OK,47,0,0,0,0,0,65,100,0.0,0,0.0,3.921692,9.0E-44,0.0,1.4206529E23,63,7.340617E-10,-1.6562867E-11,1.4061811E-37,False,False,0,None,3.862868E31,3.7914522E-18,geoIntensity|5165644 nanoTesla
197275647,6.091,9.295029501499021,62.648725919113595,10,555.3762,553.95044,-4.449963E-4,-0.0073822495,-1.0065376,1.0065647,6.5945106,9.441974,9.6304455,15.012792,276,-356,1437,1505.0,-0.21307148,0.018002637,-3.90909,3.9149342,0.21383066605830583,0.057024567914619434,1.8532269858949255,1.1668341528261383,57.22653591477652,57.22653591477649,2.859624187003229,14.256929186368481,-1.6833625348094947,52.83575947017301,0.6211541822918851,25.663005712357563,4.515676066155111,7.109970010374624,36.05,12.239501703125029,,9.2950307,62.6487265,20190822,84544,2019-08-22T08:45:44Z,601.472,0.96,2.1,12.46,6,4,10,0.12,-0.08,-3.62,0,0,0,10000,4,4,9.295031835783606,62.64872043685715,120,10096697,17,89,375,3041,3436,4231,4241,-1090,16929,30,0,16925,0,false,false,false,false,false,false,false,false,false,false,6339,6531,5503,5533,44,56,56,44,1617,1641,1528,1520,1604,1625,1523,1526,0.0,0.0,0.0,0.0,1625.7,1619.0,1620.2,1627.6,5.49,5.12,4.06,3.34,0,0,0,0,174.95207847037216,9.295029996204136,62.6487260431606,0,555.4025,553.90155,-0.0011305783,-0.005755826,-1.0102357,1.0102527,-11.662125,-12.057357,-9.709129,19.381748,276,-353,1446,1513.0,-0.022907378,-0.046196774,-3.833088,3.8334348,0.05156442663899278,0.24620359598184013,1.7065813831683618,1.1441165984644677,52.80832260030865,52.80832260030866,-1.5618515502911778,9.503029624583021,-6.121452851624276,52.42675170152869,0.6304367548016753,7009422.161989406,-24.009442369400887,-21.415148425181375,36.03,NONE,0.0,0.0,0.0,NONE,-1.7930157250791353E-9,8.164046643447397E-10,-0.0095825195,2,61.78,63.85,50.07,50.8,16.468,16.468,5.841,3.81958,0,3384,4.114,12.0,9.289,100,20.9,OK,48,0,0,0,0,0,65,100,0.0,0,0.0,1.576477,9.0E-44,0.0,1.4206529E23,63,2.80329E-8,-1.0422998E-10,1.000393E-36,False,False,0,None,1.5751747E33,2.1883204E-17,
201174804,7.105,9.295026660767856,62.64872705351659,10,560.2024,558.21716,-9.809837E-4,-0.0018364312,-1.0107756,1.0107777,-2.1593652,-3.5561385,-2.06203,4.643377,288,-381,1407,1485.0,-0.20159848,-0.006369683,-4.0470095,4.0520325,0.20169908457249486,-0.011952709455382765,0.8762548528079332,0.4864047003361671,57.290405702308504,57.290405702308476,4.102213880602479,14.156740732025472,-2.2735039673136908,53.31013038903811,0.7817985665287676,25.891380157059128,-101.73964454271918,-99.14535059849966,36.37,17.06567357812503,,9.2950278,62.6487273,20190822,84545,2019-08-22T08:45:45Z,605.75,0.96,2.1,12.25,6,4,10,-0.01,-0.13,-4.0,0,0,0,10000,4,4,9.295031835783606,62.64872043685715,120,10151074,16,89,376,3050,3426,4248,4256,-615,16953,22,0,17007,0,false,false,false,false,false,false,false,false,false,false,6393,6634,5560,5594,44,56,56,44,1620,1642,1534,1542,1612,1636,1525,1531,0.0,0.0,0.0,0.0,1622.6,1618.4,1618.4,1623.9,5.4,5.2,4.19,3.6,0,0,0,0,173.69338524245978,9.295026834437564,62.648726847523825,0,559.95404,557.7459,0.0016720782,-0.0053428975,-1.0056419,1.0056576,-2.702102,8.543209,0.7931715,8.995381,285,-378,1416,1493.0,-0.073080346,-0.024704428,-3.9293132,3.9300704,0.07714302007752023,0.10505786097436022,0.9669155372072017,0.6393522008050719,52.83366931417393,52.8336693141739,-2.5581141956902766,7.4367182052358975,-6.628799932627178,53.19143544478943,0.757242538527082,7009422.372825142,-49.08005359968523,-46.48575965546571,36.33,NONE,0.0,0.0,0.0,NONE,-1.1261168929639307E-9,-1.712782159745457E-9,-0.00982666,2,60.73,64.62,51.76,51.13,16.415,16.415,5.834,5.0075326,0,3381,4.099,12.0,9.898,99,20.9,OK,49,0,0,0,0,0,65,100,0.0,0,0.0,6.103073E-8,9.0E-44,0.0,1.4206529E23,63,1.5644473E-6,-7.777638E-10,3.8711657E-36,False,False,0,None,1.9504706E34,1.4139438E-16,
205079742,8.120,9.295023295132204,62.64872745837097,10,564.5826,562.257,0.0010857091,-0.0073504015,-0.99272555,0.9927533,-8.106198,-3.78026,2.0676584,9.180198,261,-414,1410,1492.0,-0.16299726,-0.047772,-4.128377,4.13187,0.169853679082495,0.005279873375092253,0.4865100341595679,0.34930436587509056,62.99901797160001,62.99901797159998,8.236691493649344,13.061674966709134,-2.1356133220722464,57.672112985896284,0.894404672055137,26.075563749645667,-77.94880965837923,-75.35451571415972,36.64,21.44586156640628,,9.2950241,62.6487276,20190822,84546,2019-08-22T08:45:46Z,611.119,0.96,2.1,12.03,6,4,10,-0.08,-0.13,-4.34,0,0,4142,10000,4,4,9.295031835783606,62.64872043685715,120,10151074,20,89,377,3050,3426,4248,4256,-615,16953,22,2,17007,0,false,false,false,false,false,false,false,false,false,false,6368,6584,5546,5603,45,56,55,46,1614,1641,1531,1541,1609,1635,1530,1527,0.0,0.0,0.0,0.0,1619.6,1614.1,1614.1,1619.0,5.34,5.01,4.12,3.66,0,0,0,0,174.96033122478664,9.295023416586117,62.64872724069139,0,564.8072,561.68115,0.0013757427,-0.0096278,-0.9986983,0.9987456,9.809219,-0.3226957,14.04445,17.133928,264,-411,1413,1495.0,-0.08693688,-0.0032125057,-3.9721677,3.9731202,0.08699621646871249,0.09036603181423679,0.7079871825740046,0.43131880245459875,58.26441001253791,58.264410012537894,4.527102780971312,9.662049952679519,-6.665135839147039,57.34317452590432,0.8702719358364133,7009422.556677745,-68.96875703628754,-66.37446309206803,36.63,NONE,0.0,0.0,0.0,NONE,-9.383574596102744E-10,-6.140260454135538E-9,-0.029663086,2,61.18,64.42,50.63,51.15,16.377,16.377,5.825,6.1528964,0,3378,4.08,12.0,10.039,99,21.0,OK,50,0,0,0,0,0,65,100,0.0,0,0.0,1.9151781E-14,9.0E-44,0.0,1.4206529E23,63,9.468384E-5,-6.0561276E-9,1.3934112E-35,False,False,0,None,2.2977942E35,9.248855E-16,
209123631,9.171,9.295018685174309,62.64872726082036,10,569.69806,566.5708,0.0014354053,-0.014221491,-0.99742526,0.99752766,0.4001524,8.821276,4.813781,10.057212,241,-421,1446,1525.0,-0.09159885,-0.09509175,-4.2625165,4.2645607,0.13203329925526838,0.09302651047951188,0.5368022570125309,-0.17822397440915594,67.47197812637103,67.47197812637103,13.183710916309334,13.534061968936774,-2.4541435671795626,61.44061515192213,1.0134730268395395,26.32355228338334,-89.62446755112568,-87.03017360690616,36.97,26.56134008203128,,9.2950193,62.6487276,20190822,84547,2019-08-22T08:45:47Z,615.733,0.96,2.1,11.87,6,4,10,0.0,-0.21,-4.53,0,0,1451,10000,4,4,9.295031835783606,62.64872043685715,120,10151076,114,89,378,3049,3426,4163,4187,-2833,17001,22,3432,16603,0,false,false,false,false,false,false,false,false,false,false,6402,6625,5576,5622,44,57,57,45,1620,1652,1539,1541,1614,1640,1529,1535,0.0,0.0,0.0,0.0,1615.3,1609.8,1612.2,1616.5,5.4,5.09,4.18,3.58,0,0,0,0,174.47245984834382,9.295017949802206,62.648727065478624,0,569.74036,566.0211,-6.997738E-4,-0.008846076,-0.9972058,0.99724525,-1.1742423,-3.9931455,0.8525643,4.2486377,235,-421,1422,1501.0,-0.052531898,-0.010452213,-3.9705954,3.9709566,0.05356163819044268,0.21282113365284216,0.7594727947488925,-0.057767193313340966,63.01129060601729,63.01129060601727,8.835969605977045,8.951281910066106,-7.233008717191678,62.028443500314886,1.0229992215854793,7009422.855934641,-67.93349923232884,-65.33920528810933,37.0,NONE,0.0,0.0,0.0,NONE,-2.080495118088835E-9,-3.777026994751742E-9,-0.029846191,2,61.73,65.47,51.65,51.62,16.357,16.357,5.823,7.1953425,0,3376,4.08,12.0,9.965,99,21.0,OK,51,0,0,0,0,0,65,100,0.0,0,0.0,2.0583388E-23,9.0E-44,0.0,1.4206529E23,63,0.005837679,-4.760137E-8,4.9496044E-35,False,False,0,None,2.5071492E36,6.4807376E-15,
213005258,10.180,9.295013333028818,62.648727933782574,10,574.4231,571.08344,3.9440324E-4,-0.0066278973,-0.9964749,0.99649704,4.8330135,5.1827536,6.520306,9.629816,226,-454,1419,1506.0,0.032198004,-0.101223424,-4.415657,4.4169345,0.10622096260967091,0.17478572534420506,-0.4618153088986063,-0.20358582826101082,69.63889499260056,69.63889499260057,16.19354270716655,13.820245355884767,-2.2953932307820515,63.469168034234485,1.2603381689873936,26.61139111925072,-68.7930423896497,-66.19874844543018,37.24,31.28637670312503,,9.2950142,62.6487281,20190822,84549,2019-08-22T08:45:49Z,620.486,0.96,2.1,11.74,6,4,10,0.08,-0.22,-4.68,0,0,2362,10000,4,4,9.295031835783606,62.64872043685715,120,10151461,48,85,379,2909,3426,4177,4188,-1124,16715,26,212,16714,0,false,false,false,false,false,false,false,false,false,false,6442,6673,5606,5667,46,58,58,46,1628,1661,1541,1542,1620,1651,1534,1537,0.0,0.0,0.0,0.0,1612.9,1607.9,1607.3,1614.1,5.46,5.26,4.16,3.58,0,0,0,0,174.72705304106657,9.295012656198558,62.64872752384139,0,574.7931,569.94415,9.290385E-4,-0.004435763,-1.0004061,1.0004164,-11.513051,-10.712091,-5.744694,16.742186,226,-454,1428,1515.0,-0.023577418,0.008266645,-3.9595227,3.9596016,0.024984636326345237,0.2478099631898414,-0.09757607486007387,-0.17865835520674292,65.19989333046897,65.19989333046897,11.310444032256159,7.101995599962608,-6.837134246175036,63.86694328663396,1.257417170516106,7009423.137888178,-74.46915717247144,-71.87486322825193,37.26,NONE,0.0,0.0,0.0,NONE,4.785005370519237E-10,-1.0078714782370131E-9,-0.0099487305,2,62.68,66.65,51.86,51.42,16.332,16.332,5.81,8.090028,0,3373,4.076,12.0,10.071,99,21.0,OK,52,0,0,0,0,0,65,100,0.0,0,0.0,2.1663245E-29,9.0E-44,0.0,1.4206529E23,63,0.789032,-5.431395E-7,3.546952E-34,False,False,0,None,9.835768E37,6.4860017E-14,
216859456,11.181,9.295007216198554,62.64872993908801,10,578.2687,575.26935,-7.874926E-4,-0.005730408,-0.8950463,0.895065,15.502306,8.26197,14.342315,22.677822,215,-448,1431,1514.0,0.17222902,-0.10818534,-2.7062542,2.7138863,0.20338855664462482,0.1798571139976867,0.20600693081280455,0.2630405839765327,69.91036964348753,69.91036964348751,16.736025548951186,14.818861214103082,-0.5955517691243886,63.944088805423334,1.642672018534422,26.99683052533171,-55.04305520863703,-52.44876126441751,37.57,35.13195775781253,,9.2950086,62.64873,20190822,84549,2019-08-22T08:45:49Z,624.849,0.96,2.1,11.62,6,4,10,0.45,-0.24,-4.3,0,0,0,7164,4,4,9.295031835783606,62.64872043685715,120,10151461,17,85,380,2909,3426,4177,4188,-1124,16715,26,0,16714,0,false,false,false,false,false,false,false,false,false,false,5802,5960,4936,5024,45,57,57,45,1574,1601,1488,1498,1570,1597,1491,1487,0.0,0.0,0.0,0.0,1622.0,1615.3,1617.1,1622.6,5.44,5.16,4.2,3.68,0,0,0,0,177.7754222981326,9.295007026922049,62.648729601435875,0,578.17365,573.1637,-2.721569E-4,-0.010137223,-0.95964843,0.95970196,16.39912,12.474176,13.844068,24.823265,212,-445,1428,1510.0,0.08559368,0.023408782,-2.0462277,2.0481508,0.08873696270068158,0.27952608469718176,0.7271323227652084,0.38228677891142593,65.30545822433203,65.30545822433203,12.960797273081242,9.163085233279991,-5.537853077396743,64.43916928523316,1.6263020933581303,7009423.516398748,-21.630589265235276,-19.036295321015764,37.58,NONE,0.0,0.0,0.0,NONE,9.475324625888989E-10,1.5375049168165442E-9,-0.0053710938,2,56.64,60.4,46.74,46.06,16.31,16.31,5.893,8.821345,0,3370,4.073,12.0,10.096,99,21.1,OK,53,0,0,0,0,0,65,100,0.0,0,0.0,2.2051127E-29,9.0E-44,0.0,1.4206529E23,63,22.514648,-2.9632508E-6,2.1898642E-33,False,False,0,None,-1.1683197E-38,3.18837E-13,
220758645,12.195,9.295000055809947,62.64873217712047,10,583.1529,579.452,0.008879912,-0.00999811,-1.0288835,1.0289704,-9.56739,-12.538809,-8.551892,17.941336,186,-384,1458,1519.0,-0.016403034,-0.17026661,-4.662725,4.6658616,0.17105489925520379,0.2655353615164548,2.491209735423861,1.021180288153224,69.9792559892438,69.97925598924382,16.48070216773302,16.116691363766783,1.297743620261964,64.66523260410257,2.083316356029819,27.44848915618675,-80.65681325461014,-78.06251931039063,37.88,40.01617406640628,,9.2950018,62.6487323,20190822,84550,2019-08-22T08:45:50Z,628.61,0.96,2.1,11.5,6,4,10,0.15,-0.41,-4.12,0,0,0,9805,4,4,9.295031835783606,62.64872043685715,120,10151464,16,85,381,2914,3431,4188,4197,-638,16771,26,0,16078,0,false,false,false,false,false,false,false,false,false,false,6629,6871,5746,5828,46,58,57,46,1645,1663,1551,1562,1646,1663,1537,1547,0.0,0.0,0.0,0.0,1607.9,1599.3,1601.8,1607.9,5.68,5.16,4.26,3.78,0,0,0,0,175.25113033872816,9.295000548730627,62.64873174693329,0,582.93365,576.07654,0.006936406,-0.010442097,-1.0423819,1.0424572,-7.247418,-8.413898,-12.008427,16.356071,188,-387,1452,1514.0,-0.009947162,-0.013453073,-3.8422737,3.8423102,0.01673114479117674,0.38586131086041997,2.836837022930036,0.9130745439011435,65.34786399549536,65.34786399549535,12.557101862345359,10.897770374355746,-0.7380838174768266,65.30557671677786,2.033830540929756,7009423.93039989,-73.69402472326503,-71.09973077904552,37.86,NONE,0.0,0.0,0.0,NONE,-2.4937358902117687E-10,1.2076376645420544E-9,-0.008605957,2,65.02,67.47,51.53,53.19,16.309,16.309,5.761,9.346382,0,3368,4.067,12.0,7.811,99,21.1,OK,54,0,0,0,0,0,65,100,0.0,0,0.0,8.496047E-30,9.0E-44,0.0,1.4206529E23,63,461.4297,-1.3360815E-5,1.2176854E-32,False,False,0,None,-6.5177374E-38,1.3281669E-12,
224702270,13.220,9.29499171873045,62.64873136341382,10,587.93866,584.49054,0.0098544555,-0.011841472,-0.72931266,0.7294754,-4.157144,0.16059867,-3.112637,5.1957817,235,-381,1443,1510.0,-0.2689501,-0.031106317,-4.742912,4.750633,0.27074296831473277,0.15409391723806792,2.1612862919232985,-0.49906492176816397,69.98691633583415,69.98691633583417,15.828850861048604,15.51013333258525,-0.31268640428232636,62.91255242381798,2.3825628900430584,27.898707506297352,-129.6676461402117,-127.0733521959922,38.21,44.80194066796878,,9.2949931,62.6487319,20190822,84552,2019-08-22T08:45:52Z,633.598,0.96,2.1,11.41,6,4,10,-0.2,-0.4,-4.66,0,0,0,7368,4,4,9.295031835783606,62.64872043685715,120,10151464,20,85,382,2914,3431,4188,4197,-638,16771,26,2,16078,0,false,false,false,false,false,false,false,false,false,false,5717,5952,4996,5042,47,59,59,46,1513,1542,1440,1450,1503,1527,1445,1444,0.0,0.0,0.0,0.0,1649.6,1638.6,1638.6,1647.8,3.02,2.56,2.01,1.65,0,0,0,0,173.39005610637,9.294991674270921,62.64873109225262,0,587.85944,580.40436,0.01187053,-0.0066349804,-0.7897193,0.7898364,2.0223,-7.418933,-0.847066,7.736135,232,-384,1437,1505.0,-0.18860456,0.051023584,-4.025616,4.030355,0.1953844700773907,0.25263098469626244,2.4261584071424696,-0.7176747395364019,65.4305877308694,65.43058773086943,12.214064743229134,11.589401033643915,-2.073646343218579,64.27012548633826,2.369295901343348,7009424.402182906,-114.7979769458828,-112.20368300166328,38.21,NONE,0.0,0.0,0.0,NONE,2.2589267489774236E-9,-3.930825737310996E-9,-0.010192871,2,49.7,51.88,39.31,40.32,16.266,16.266,5.804,9.66995,0,3365,4.057,12.0,11.012,99,21.2,OK,55,0,0,0,0,0,65,100,0.0,0,0.0,2.5434024E-35,9.0E-44,0.0,1.4206529E23,63,43118.0,-1.2303986E-4,7.676826E-32,False,False,0,None,-3.3920014E-37,1.0988378E-11,
228638000,14.242,9.29498737999947,62.64872945510203,10,591.7613,588.2848,0.006275313,-0.025831047,-0.99423474,0.99459004,-7.360116,0.6564052,-5.455662,9.18512,235,-399,1434,1506.0,-0.25652432,0.25030062,-3.3255136,3.3447714,0.3584063786346686,-0.05841759339423386,1.3237143998171594,-0.6330740301170514,69.86485828704315,69.86485828704315,15.402617433159874,13.508822951914686,-2.0037175806266068,63.09251851715758,2.482682069258288,28.221102815078268,-176.9853946154895,-174.39110067126998,38.51,48.62457250390628,,9.2949882,62.6487297,20190822,84553,2019-08-22T08:45:53Z,637.71,0.96,2.1,11.32,6,4,10,-0.17,-0.11,-4.26,0,0,0,7957,4,4,9.295031835783606,62.64872043685715,120,10153276,48,17,383,592,3631,3683,3688,-1164,14749,42,212,14743,0,false,false,false,false,false,false,false,false,false,false,6124,6416,5351,5233,46,58,58,47,1596,1635,1517,1506,1591,1615,1507,1509,0.0,0.0,0.0,0.0,1617.1,1609.8,1608.5,1617.7,5.01,5.06,3.98,2.79,0,0,0,0,168.16154441385416,9.294986949273035,62.64872894543291,0,591.6081,583.68915,0.0076475283,-0.020560764,-0.98822445,0.9884679,-3.1018121,-0.19763419,-3.0420995,4.3490996,241,-405,1434,1509.0,-0.15861633,0.22308111,-2.6038985,2.618246,0.27372307170300547,0.05817482157348869,1.577990339430271,-0.7432864905340296,65.42294630860094,65.42294630860096,13.550368683430477,14.312463401336865,-2.557016059104833,63.39769127165815,2.4806649741734157,7009424.76435431,-168.45919066131418,-165.86489671709467,38.5,NONE,0.0,0.0,0.0,NONE,8.089482393622458E-9,-3.827761627529512E-9,-0.0064697266,2,58.68,63.43,48.99,46.26,16.464,16.464,5.82,9.864258,0,3359,4.059,12.0,8.187,99,21.3,OK,56,0,0,0,0,0,65,100,0.0,0,0.0,-8.413549E35,8.8E-44,0.0,1.4206529E23,63,1295872.0,-7.1676465E-4,1.8797155E-31,False,False,0,None,-8.027341E-37,5.279444E-11,mcID(SN)|298DG13001W644
232547537,15.258,9.29499067740015,62.6487239748565,10,594.79926,591.6533,0.0043075094,-0.022638101,-0.8441902,0.8445046,2.7601542,-7.900119,-6.0281,10.313501,282,195,1461,1500.0,-1.372375,0.91808325,-2.1349266,2.698926,1.6511480816583615,-1.028916803400056,23.376437412658582,-3.705677408513899,70.52759940241775,70.52759940241776,15.273916461641308,35.4840775319005,-5.047214804699032,64.66141569540623,2.139182060245895,28.862948372344842,152.88707658890064,155.48137053312016,38.8,51.66253637109378,,9.2949894,62.6487257,20190822,84553,2019-08-22T08:45:53Z,641.234,0.96,2.1,11.24,6,4,10,-0.72,0.25,-3.79,7436,3092,0,5200,4,4,9.295031835783606,62.64872043685715,120,10153276,17,17,384,592,3631,3683,3688,-1088,14751,42,0,14743,0,false,false,false,false,false,false,false,false,false,false,5690,5917,4863,4901,47,58,59,46,1568,1594,1488,1488,1558,1597,1487,1478,0.0,0.0,0.0,0.0,1622.0,1613.5,1612.2,1622.0,5.1,4.77,3.84,3.34,0,0,0,0,174.1447752540725,9.294991454388583,62.64872259081786,0,595.29156,586.17474,0.007915332,-0.024632957,-0.92203933,0.92240226,10.525524,-9.309988,3.9049149,14.584612,279,217,1458,1500.0,-1.361736,1.0649047,-1.2190446,2.1152818,1.7286836186901964,-0.9972977951459219,23.66953679913802,-3.923178670001548,66.29936602893474,66.29936602893474,13.165703621014142,36.174356253311565,-6.026132663833275,64.90811897826784,2.076858008128839,7009425.52366223,150.1548024609749,152.74909640519442,38.8,NONE,0.0,0.0,0.0,NONE,3.5533337272773305E-8,-1.8936020453052014E-8,-0.004333496,2,54.85,58.83,45.27,44.7,16.468,16.468,5.883,9.92949,0,3357,4.044,12.0,9.114,99,21.3,OK,57,0,0,0,0,0,65,100,0.0,0,0.0,-1.3375972E19,8.8E-44,0.0,3.474554E-12,64,1.4782208E7,-0.002404467,1.4012122E-31,False,False,0,None,-6.0658493E-37,1.7056669E-10,mcVer|v3.4.1.6
236428059,16.267,9.295017179196885,62.648695328434854,10,597.6758,593.88916,0.0057359356,-0.111938454,-1.035696,1.0417434,3.2718656,-12.907273,7.826615,15.445346,381,229,1434,1501.0,-4.6093407,2.2586112,-1.9233714,5.4814873,5.132966525526233,-1.7011034561153942,23.615945714693023,-7.905098447758155,79.63864212837699,79.638642128377,17.432816709575125,35.39627269599418,-7.091475982897437,63.21723269888119,2.8905937516736415,32.33338077572301,153.48352122629603,156.07781517051555,39.12,54.53906225000003,,9.2950118,62.6487018,20190822,84554,2019-08-22T08:45:54Z,643.581,0.96,2.1,11.15,6,4,10,-3.86,1.8,-2.92,9579,6132,0,5228,4,4,9.295031835783606,62.64872043685715,120,10157955,16,17,385,583,3622,3728,3738,0,14929,28,1,17550,0,false,false,false,false,false,false,false,false,false,false,6287,6763,5719,5415,47,59,60,47,1619,1666,1546,1518,1609,1668,1553,1508,0.0,0.0,0.0,0.0,1606.1,1597.5,1596.9,1607.3,5.4,5.24,4.38,3.42,0,0,0,0,157.84885401295372,9.295023544752395,62.64869270332639,0,597.59644,587.59424,0.0017613652,-0.10725377,-1.0298066,1.0353782,-1.5041524,-17.428463,0.6590608,17.505661,393,226,1437,1506.0,-4.298443,3.4821289,-1.1910572,5.6586614,5.531892211183911,-1.8575232718239554,23.074130276165647,-8.597648542397636,67.13111312102104,67.13111312102103,8.94900041552371,31.84447192789706,-15.098480287804607,63.42610230917579,3.1127813333466565,7009429.2421320435,145.29104500725697,147.88533895147648,39.13,NONE,0.0,0.0,0.0,NONE,5.022204583804328E-7,-2.862849816020081E-7,-0.0087890625,2,62.29,68.07,52.52,49.27,16.322,16.322,5.782,9.870872,0,3355,4.102,12.0,8.301,99,21.3,OK,58,0,0,0,0,0,65,100,0.0,0,0.0,-1.4176818E-37,8.7E-44,0.0,3.474554E-12,64,6.1171712E7,-0.004927905,7.562436E-31,False,False,0,None,-2.9345574E-36,3.3299055E-10,
240283471,17.269,9.295088509518466,62.64864606716041,10,598.2031,595.9082,-0.066144004,-0.15329374,-0.9663465,0.9806628,-11.769492,8.066719,0.503802,14.27749,819,-448,1224,1539.0,-5.04821,5.107424,-1.6440411,7.3670263,7.181239843402848,-0.6153588974307977,-2.7075854059540045,-24.485233108857553,75.53434299161756,75.53434299161756,17.847074065619257,4.679072631449072,-25.78386546148437,59.466759899083115,8.761746872774296,38.94414535628981,134.32754746866138,136.9218414128809,39.41,55.06640600000003,,9.2950744,62.6486541,20190822,84555,2019-08-22T08:45:55Z,645.734,0.96,2.1,11.08,6,4,10,-5.66,4.23,-2.45,0,10000,0,4744,4,4,9.295031835783606,62.64872043685715,120,10157956,18,17,386,584,3620,3778,3796,3578,15129,27,1,15239,0,false,false,false,false,false,false,false,false,false,false,4978,6022,5051,4821,47,59,59,48,1488,1543,1469,1454,1477,1555,1464,1447,0.0,0.0,0.0,0.0,1636.7,1627.6,1628.2,1635.5,3.94,3.12,4.06,2.31,0,0,0,0,131.52168827414175,9.295095764164598,62.64864270230014,0,598.7767,590.2341,-0.07161656,-0.16709894,-0.9430761,0.9604392,-17.215195,11.451884,-6.56033,21.692083,816,-473,1212,1535.0,-4.936828,5.3327947,-1.3988991,7.400533,7.267115942455697,-0.6077729384303847,-2.948955079257371,-24.070099473325616,73.5763843766063,73.57638437660631,15.898116973503098,7.79679622569375,-29.136376099142726,59.50658464443574,9.240125679859542,7009435.962773392,131.6314436241162,134.22573756833572,39.41,NONE,0.0,0.0,0.0,NONE,8.18137112333937E-7,-3.319492177631676E-7,-0.010620117,2,45.44,56.96,44.72,37.7,16.308,16.308,5.848,9.758154,0,3352,4.075,12.0,10.027,99,21.4,OK,59,0,0,0,0,0,65,100,0.0,0,0.0,-4.665647E-15,2.66E-43,0.0,3.474554E-12,64,8.8234394E8,-0.018308764,4.6047527E-24,False,False,0,None,-6.302991E-30,1.1353692E-9,
244182641,18.282,9.295226900492981,62.648612333806234,10,600.06134,597.3864,-0.11973121,-0.11075473,-0.93757653,0.9516575,1.9680464,10.642107,-1.600972,10.940327,822,-473,1203,1531.0,-2.0238523,7.67682,-0.7148629,7.971234,7.939114624164649,-0.04122955812310192,-2.655015200552928,-24.23635984587527,72.74730835444176,72.74730835444177,15.320181255326856,3.1892940395335008,-26.370551036655307,59.32104342206156,15.614199694113786,47.0449885863016,103.04658396321804,105.64087790743756,39.77,56.92462133203128,,9.2951906,62.6486177,20190822,84556,2019-08-22T08:45:56Z,647.395,0.96,2.1,11.06,6,4,10,-2.9,6.86,-1.95,0,10000,-3797,4114,4,4,9.295031835783606,62.64872043685715,120,10157957,114,17,387,585,3620,3780,3797,3589,15154,28,3418,15154,0,false,false,false,false,false,false,false,false,false,false,5104,5546,5398,4970,46,59,60,47,1494,1532,1523,1477,1490,1527,1504,1473,0.0,0.0,0.0,0.0,1633.7,1625.1,1623.9,1631.8,3.45,3.35,4.08,2.88,0,0,0,0,107.95947609047414,9.295222106281495,62.648611325965355,0,600.0138,592.7779,-0.12254345,-0.11574489,-0.9383769,0.95339656,6.860054,-11.348059,0.79936767,13.284493,819,-473,1206,1532.0,-2.4042997,7.747009,-0.98656243,8.171297,8.111522588642325,-0.8712160690568078,-2.1027309407907806,-24.221765859781385,75.4920205077602,75.49202050776023,12.743157299066356,6.699957815900779,-27.254464371437948,60.203875149348875,15.546329618808663,7009443.378844156,105.45565638822768,108.0499503324472,39.76,NONE,0.0,0.0,0.0,NONE,3.764163734517907E-7,-5.4917947324984534E-8,-0.0025024414,2,45.34,50.21,47.91,43.85,16.35,16.35,5.867,9.624777,0,3350,4.06,12.0,7.636,99,21.5,OK,60,0,0,0,0,0,65,100,0.0,0,0.0,3.846546E-16,2.68E-43,0.0,3.474554E-12,64,1.36105165E10,-0.07139065,2.5661821E-17,False,False,0,None,-1.361536E-23,3.9654258E-9,
248087743,19.297,9.295395363791254,62.64860509771763,10,600.19904,598.1782,-0.1746585,-0.08110909,-0.9925886,1.0110966,-6.735913,1.2986294,-10.21138,12.301676,851,-479,1185,1535.0,0.4483142,9.579262,-0.38763463,9.597578,9.58974668993652,-1.0728054959874953,-4.03084972469573,-23.80147164187843,66.74275808757159,66.74275808757159,13.509186382253713,1.5741415741532458,-24.31353814668074,53.871520736446506,22.569897778121515,55.72274796686721,85.39630614183646,87.99060008605598,39.98,57.06231664453128,,9.2953867,62.6486054,20190822,84558,2019-08-22T08:45:58Z,648.437,0.96,2.1,11.06,6,4,10,0.05,9.29,-1.22,-1553,10000,-3196,4003,4,4,9.295031835783606,62.64872043685715,120,10162106,114,99,388,3638,3638,4383,4397,325,17600,31,3622,17553,0,false,false,false,false,false,false,false,false,false,false,5225,5540,5655,5626,49,61,61,49,1502,1535,1538,1538,1499,1536,1537,1521,0.0,0.0,0.0,0.0,1627.6,1622.6,1623.2,1627.6,3.86,3.46,4.09,4.02,0,0,0,0,33.69006752597977,9.29539105493077,62.64860402794961,0,600.3091,594.3462,-0.17180796,-0.074063234,-0.9980368,1.0154215,10.502604,2.9764493,9.017628,14.15915,846,-476,1188,1534.0,-0.09668538,9.964206,-0.68999463,9.988535,9.964674544084781,-1.422775211509613,-3.374790442494311,-23.949887193152417,69.46154616274043,69.46154616274043,5.750021496322875,1.9482956399965068,-27.507844346311348,55.32233840769956,22.457461039580718,7009452.0849928865,87.06077929914247,89.65507324336198,40.0,NONE,0.0,0.0,0.0,NONE,1.398271781310212E-6,-3.798255001096873E-8,-0.005493164,2,47.6,51.13,51.51,51.4,16.454,16.454,5.848,9.426242,0,3348,4.053,12.0,7.574,98,21.5,OK,61,0,0,0,0,0,65,100,0.0,0,0.0,2.6658628E28,2.68E-43,0.0,3.474554E-12,64,7.1871496E10,-0.1716166,4.96206E-12,False,False,0,None,-1.2414327E-18,9.067038E-9,
252131789,20.348,9.295597705122335,62.648619920088464,10,600.2676,598.56287,-0.21801405,-0.07588022,-0.9994783,1.0257899,6.4703436,7.1272144,2.172311,9.868205,863,-476,1182,1538.0,2.7595835,10.880288,-0.19716655,11.226524,11.22479272323937,-1.265221244402948,-4.21653822137692,-22.63470347961241,61.78594527531944,61.78594527531942,11.181189740801491,0.6878623490200735,-21.326452837600506,49.65603718243733,30.994554553161265,66.20812540478799,73.51472606640696,76.10902001062648,40.17,57.13085912500003,,9.2955871,62.648619,20190822,84559,2019-08-22T08:45:59Z,649.018,0.95,2.1,11.07,6,4,10,2.39,10.72,-0.84,-1005,10000,-3141,3792,4,4,9.295031835783606,62.64872043685715,120,10162635,19,100,389,3632,3632,4385,4397,90,17587,30,1,17580,0,false,false,false,false,false,false,false,false,false,false,5144,5459,5808,5845,48,61,61,49,1493,1527,1551,1570,1492,1517,1536,1548,0.0,0.0,0.0,0.0,1628.2,1623.2,1622.6,1627.0,3.34,3.4,4.4,4.13,0,0,0,0,14.829479592336725,9.295613494413988,62.648621452791566,0,600.36896,595.9803,-0.21868159,-0.07492134,-0.9928743,1.0194284,-8.503072,-0.44606024,-17.960516,19.876654,860,-476,1185,1539.0,2.2215116,11.385918,-0.6652373,11.619672,11.600613518637239,-0.6323160279714255,-3.4283063200352197,-22.178817866782687,63.62787139829055,63.62787139829055,0.17917450765351495,-0.13717952414369716,-25.404211621934774,50.01228381777232,31.688658250176637,7009463.6365183825,71.72215223579806,74.31644618001758,40.22,NONE,0.0,0.0,0.0,NONE,5.522537062268787E-7,4.485263343240282E-8,-0.0015869141,2,45.39,48.96,53.12,54.7,16.425,16.425,5.832,9.158871,0,3345,4.103,12.0,7.948,98,21.6,OK,62,0,0,0,0,0,65,100,0.0,0,0.0,-1.6347722E-25,2.68E-43,0.0,3.474554E-12,64,3.55878306E11,-0.37433824,7.238461E-12,False,False,0,None,-1.7646873E-18,1.8924426E-8,
256007947,21.356,9.29581683172555,62.648653581706434,10,600.0548,598.7469,-0.24392693,-0.056948375,-0.9601277,0.99226445,-5.04672,9.302509,-0.5542925,10.597797,813,-430,1233,1538.0,4.489241,11.409082,-0.08768362,12.260838,12.26052404382054,-0.5432646632493352,-2.761367811144683,-19.775892568187892,60.273637340081045,60.27363734008105,11.739439926360998,3.165449173376054,-17.987530052298,47.31390618274963,40.78704092297496,78.01929745653516,66.0273650308159,68.62165897503542,40.49,56.91809057031253,,9.2958054,62.6486518,20190822,84600,2019-08-22T08:46:00Z,649.428,0.95,2.1,11.08,6,4,10,4.27,11.3,-0.58,0,9889,-2002,3777,4,4,9.295031835783606,62.64872043685715,120,10162636,114,100,390,3632,3632,4384,4397,0,17539,30,3638,17559,0,false,false,false,false,false,false,false,false,false,false,4853,5122,5625,5793,47,60,61,48,1455,1486,1545,1562,1468,1489,1518,1540,0.0,0.0,0.0,0.0,1633.7,1626.4,1625.1,1633.1,2.91,2.87,4.45,4.22,0,0,0,0,4.003777816477395,9.295833091129184,62.648656324559056,0,600.3365,596.88367,-0.24720056,-0.06349445,-0.9631451,0.99638754,-2.349808,-1.994036,-1.0950428,3.2706108,813,-430,1233,1538.0,3.7377338,11.814086,-0.5084192,12.401684,12.391258579521708,-0.608431138431742,-2.0047298628718773,-19.694755347442367,61.88775395172114,61.88775395172115,-3.4679303727421633,0.4209094798822244,-23.303517675261574,48.247020502672804,41.55064764584685,7009475.514378921,65.46799330672063,68.06228725094014,40.5,NONE,0.0,0.0,0.0,NONE,5.729123562124832E-7,7.420899713910532E-8,-0.0014648438,2,41.17,44.35,52.31,54.62,16.429,16.429,5.856,8.879514,0,3343,4.095,12.0,7.794,98,21.6,OK,63,0,0,0,0,0,65,100,0.0,0,0.0,-1.12970966E-10,2.68E-43,0.0,3.474554E-12,64,1.06266886E12,-0.6582529,1.4350579E-11,False,False,0,None,-3.3610267E-18,3.09085E-8,
259858034,22.356,9.296040981325227,62.648700225169215,10,600.21277,598.7851,-0.27583852,-0.12415843,-1.4481663,1.4794214,-14.194298,20.266386,-8.307429,26.10015,878,-372,1185,1521.0,6.0860004,11.4103565,-0.41425627,12.938596,12.93196201198767,-0.36862074083196106,-5.3172378214616005,-17.71898704408709,39.5116101136671,39.511610113667075,-9.247998278882259,-10.194826354184539,-12.944302265773796,29.174225988300634,51.604124676260774,90.59472160068267,60.04199499366563,62.63628893788515,40.83,57.07604955468753,,9.2960298,62.6486979,20190822,84601,2019-08-22T08:46:01Z,649.673,0.95,2.1,11.09,6,4,10,5.71,11.46,-0.37,0,9718,0,9355,4,4,9.295031835783606,62.64872043685715,120,10164553,48,100,391,3632,3632,4378,4390,0,17507,29,212,1,0,false,false,false,false,false,false,false,false,false,false,6029,6235,6711,6470,49,60,60,48,1608,1642,1684,1650,1602,1630,1661,1645,0.0,0.0,0.0,0.0,1584.6,1579.7,1579.7,1584.6,5.27,5.7,7.0,5.66,0,0,0,0,25.98734040552108,9.296057550876897,62.64870392395665,0,599.91583,596.9005,-0.28297952,-0.13020813,-1.4775988,1.510076,0.040619988,23.571846,-0.79941046,23.585432,863,-387,1200,1527.0,5.4386272,11.705243,-0.9168019,12.939548,12.907027916174437,-0.2851133844385192,-5.00488651450376,-16.054478127104503,40.68789413325119,40.68789413325118,-23.18282481744087,-9.894046694623547,-20.963317374007502,29.848317794681307,52.4338221556501,7009488.149955885,59.805189625084765,62.39948356930428,40.84,NONE,0.0,0.0,0.0,NONE,5.782084699355907E-7,1.138576541745236E-7,-0.0010375977,2,58.82,64.13,69.54,65.23,16.417,16.417,5.733,8.608967,0,3341,4.092,12.0,7.432,98,21.6,OK,64,0,0,0,0,0,65,100,0.0,0,0.0,-1374.3125,2.68E-43,0.0,3.474554E-12,64,1.20413435E12,-0.6987955,5.2615922E-11,False,False,0,None,-1.1494025E-17,3.317132E-8,
263707533,23.357,9.296252507561992,62.64876323289828,10,601.2669,600.69525,-0.14314686,-0.13628812,-0.7226386,0.7491809,-32.56482,36.75435,-54.48347,73.34711,609,-298,1347,1508.0,7.021409,10.033255,-1.0987439,12.295269,12.246076305808947,0.6267613783113362,-9.037583537067338,-1.20186420003384,13.876453501985894,13.876453501985907,-32.54849847404235,-17.215950190039578,6.087384064025806,8.116169038546785,62.542834868360444,103.48306936968434,51.02571275906871,53.620006703288226,41.16,58.13018773828128,,9.2962421,62.6487603,20190822,84602,2019-08-22T08:46:02Z,651.491,0.95,2.1,11.05,6,4,10,7.24,10.35,-1.27,0,5428,-9998,3004,4,4,9.295031835783606,62.64872043685715,120,10164553,48,100,392,3632,3632,4378,4390,0,17507,29,212,1,0,false,false,false,false,false,false,false,false,false,false,3432,3557,3719,3972,50,62,61,49,1319,1370,1383,1382,1326,1365,1388,1370,0.0,0.0,0.0,0.0,1663.7,1660.0,1659.4,1663.7,2.06,2.31,2.58,1.6,0,0,0,0,-10.333573355059343,9.29626655490401,62.64876776164458,0,601.2579,598.46954,-0.11996351,-0.13572855,-0.7972678,0.81758755,-41.32761,23.288857,-53.7179,71.66558,577,-329,1362,1515.0,6.444387,10.025076,-0.8299332,11.946591,11.917729328142471,0.898067621000374,-10.795439554212694,0.26058687186344626,11.394680096681814,11.394680096681839,-48.700964251797366,-17.230318537802468,-2.582449882482429,6.655585997365104,63.29829604945561,7009500.978868188,51.29066630472562,53.884960248945134,41.19,NONE,0.0,0.0,0.0,NONE,5.29658535810581E-7,1.4511114179763707E-7,-0.0043945312,2,29.31,36.5,33.48,27.77,16.506,16.506,5.974,8.400086,1430,3338,4.102,12.0,10.017,98,21.6,OK,65,0,0,0,0,0,65,100,0.0,0,0.0,-1.71617498E12,2.68E-43,0.0,3.474554E-12,64,6.3674232E12,-1.573891,1.038001E-10,False,False,0,None,-2.1787381E-17,7.239806E-8,
267556453,24.357,9.29640926362377,62.648822731193754,10,604.05115,601.2365,-0.015858566,-0.09112232,-1.1531289,1.1568323,3.6737077,4.267757,0.58023524,5.6609674,396,-504,1389,1529.0,5.47159,5.928223,-0.4458889,8.079662,8.067349180662404,2.3170169760857178,-26.40005639259446,4.056723134475606,-24.903857571117427,335.09614242888256,-71.6168934468131,-26.559319656277797,23.03395237351618,-18.421370175771067,71.28316997895536,113.87865403592485,44.693070871629644,47.28736481584916,41.51,60.91442846093753,,9.2964032,62.6488207,20190822,84603,2019-08-22T08:46:03Z,652.108,0.95,2.1,11.05,6,4,10,6.1,6.75,-0.89,0,0,-2116,2760,4,4,9.295031835783606,62.64872043685715,120,10164553,48,100,393,3632,3632,4378,4390,0,17507,29,212,1,0,false,false,false,false,false,false,false,false,false,false,4833,5726,5009,3874,49,62,61,49,1485,1581,1488,1361,1463,1546,1507,1393,0.0,0.0,0.0,0.0,1633.7,1628.2,1626.4,1631.2,4.32,4.45,3.9,2.2,0,0,0,0,129.57134787496113,9.296418102860562,62.648826064960254,0,603.65424,598.4363,-0.011878774,-0.089266144,-1.1675173,1.1709852,-4.231707,-6.702581,-7.515071,10.922831,399,-507,1383,1526.0,4.478405,5.7844505,-0.16098827,7.317233,7.3154616919812865,2.7794632287980248,-25.667953538611116,4.5470102326979385,-24.3881212708972,335.6118787291028,-81.36555999301858,-29.886135805624534,14.891006938915536,-15.453053802060252,71.78871088790987,7009511.081628318,45.49065589638989,48.084949840609404,41.52,NONE,0.0,0.0,0.0,NONE,3.1054681616021393E-7,1.0935180601355501E-7,-4.272461E-4,2,47.26,58.5,46.35,29.92,16.462,16.462,5.866,8.247957,1456,3337,4.104,12.0,5.23,98,21.7,OK,66,0,0,0,0,0,65,100,0.0,0,0.0,-2.93346184E18,2.68E-43,0.0,3.474554E-12,64,6.142877E12,-1.5483783,2.3931265E-10,False,False,0,None,-4.8168223E-17,7.097379E-8,
271446693,25.368,9.296480723572692,62.64886057844693,10,605.42786,602.6324,-0.034477472,-0.031654406,-1.0749924,1.0760108,6.921771,-26.959356,-15.077523,31.655165,884,-175,1212,1510.0,3.1570413,1.0227463,-0.761762,3.4048789,3.318571895554525,2.191737263432196,-14.552789034166986,-19.20363322193419,-29.338708659946754,330.66129134005325,-74.73362849556707,-12.056084063733094,3.4017018177542293,-17.27972228885523,75.64299788895183,119.49054971638202,18.499171109274016,21.093465053493528,42.0,62.29113744531253,,9.2964774,62.648857,20190822,84604,2019-08-22T08:46:04Z,652.503,0.95,2.1,11.1,6,4,10,3.04,2.14,-0.61,0,10000,0,0,4,4,9.295031835783606,62.64872043685715,120,10164553,48,100,394,3632,3632,4378,4390,0,17507,29,212,1,0,false,false,false,false,false,false,false,false,false,false,5772,6083,5365,5222,49,62,62,48,1550,1587,1519,1501,1543,1578,1509,1482,0.0,0.0,0.0,0.0,1625.7,1619.0,1619.0,1625.1,4.14,4.11,4.13,3.22,0,0,0,0,160.30038969296712,9.296481140484513,62.648859456932705,0,605.5101,598.6964,-0.03608137,-0.03563869,-1.083744,1.0849301,22.375536,-11.193729,0.18959628,25.019995,863,-194,1221,1507.0,2.2515342,1.2939242,-0.08478453,2.5982368,2.59685321527885,2.2644573354600883,-14.48722656563792,-17.980740103768877,-28.550619736393124,331.4493802636069,-85.79302553092188,-17.78653725997276,-8.34193662608568,-14.935818902108721,75.63825662785756,7009516.022516498,22.20124497055569,24.7955389147752,41.99,NONE,0.0,0.0,0.0,NONE,3.916891239492049E-7,1.5088501457852712E-7,-9.1552734E-4,2,52.1,56.25,47.45,45.91,16.51,16.51,5.825,8.068351,1488,3335,4.068,12.0,8.43,98,21.7,OK,67,0,0,0,0,0,65,100,0.0,0,0.0,-4.3900369E21,2.68E-43,0.0,2.0469024E-31,64,7.8414023E12,-1.7414936,3.4431666E-10,False,False,0,None,-6.4271166E-17,8.175312E-8,
275486085,26.418,9.296467422735637,62.64889769254856,10,605.232,603.2078,-0.101789795,0.0029343683,-1.0107088,1.0158259,-4.8120723,-5.719653,-13.370997,15.318421,1003,143,1110,1502.0,5.358388,-1.9876873,-0.45171228,5.7329984,5.715174823800368,-1.7311891404898652,-3.693151008376153,-24.797633019285882,-28.43605267908708,331.5639473209129,-78.4427307727204,-1.547121206311313,3.2700367687780596,-25.464584490565834,75.94322406281323,123.74256590710779,-21.729539036114904,-19.135245091895392,42.32,62.09527562890628,,9.2964727,62.6488911,20190822,84605,2019-08-22T08:46:05Z,652.763,0.95,2.1,11.18,6,4,10,4.7,-1.44,-0.39,0,10000,0,0,4,4,9.295031835783606,62.64872043685715,120,10173242,16,100,395,3652,3634,4350,4357,-1415,17474,29,0,17297,0,false,false,false,false,false,false,false,false,false,false,5379,5434,5457,5556,48,60,61,48,1520,1526,1510,1530,1506,1516,1521,1527,0.0,0.0,0.0,0.0,1629.4,1623.2,1622.6,1627.6,4.28,3.43,3.89,3.56,0,0,0,0,-12.40741852740075,9.296468757262012,62.64889600084152,0,605.167,599.0868,-0.09961558,0.0063187974,-1.0153508,1.0202453,13.253746,-4.456671,2.1080637,14.140992,1006,140,1110,1504.0,4.7298937,-1.7346863,0.07137967,5.0384645,5.037959014956052,-1.1206697325682322,-3.662647954633357,-23.66403982941298,-27.465313847129252,332.53468615287073,-88.82577020473978,-4.498762119815744,-18.424414318489713,-23.67481073579759,75.96050850225774,7009520.208772666,-22.761064122226262,-20.16677017800675,42.33,NONE,0.0,0.0,0.0,NONE,-7.189428608217206E-8,9.767178490110674E-8,1.2207031E-4,2,50.23,50.15,48.0,49.44,16.362,16.362,5.841,7.9066787,1517,3332,4.103,12.0,7.869,98,21.8,OK,68,0,0,0,0,0,65,100,0.0,0,0.0,-6.7573523E25,2.68E-43,0.0,2.0469024E-31,64,1.21453622E13,-2.0808265,3.2390987E-10,False,False,0,None,-5.971413E-17,9.844053E-8,
279337800,27.419,9.296408967396635,62.64895741687857,10,604.4288,603.00916,-0.17274122,0.009197758,-1.0035784,1.018378,2.3856502,4.780854,6.423384,8.3551035,1021,195,1116,1525.0,7.8456225,-3.8371243,-0.083001226,8.734083,8.733688846175847,-1.459680680365678,-2.1064768351461733,-25.26344350958564,-28.3209376697175,331.6790623302825,-81.57746355029107,-0.914500029310666,3.570395002299643,-27.640388332231673,75.12742721800518,131.02727775791504,-28.93481211780461,-26.3405181735851,42.5,61.29205297265628,,9.2964193,62.6489473,20190822,84606,2019-08-22T08:46:06Z,652.71,0.95,2.1,11.31,6,4,10,7.26,-3.47,-0.13,0,10000,0,0,4,4,9.295031835783606,62.64872043685715,120,10173242,20,100,396,3652,3634,4350,4357,-1415,17474,29,2,17297,0,false,false,false,false,false,false,false,false,false,false,5321,5397,5682,5837,49,63,62,50,1518,1518,1544,1559,1508,1518,1536,1543,0.0,0.0,0.0,0.0,1624.5,1620.2,1620.2,1625.1,3.94,3.27,4.3,4.02,0,0,0,0,-5.632678291888851,9.296411373757469,62.648955000663605,0,604.74603,599.1965,-0.17170839,0.0042858142,-1.0067413,1.0212885,-3.1220353,-3.6095638,-6.6929407,8.220189,1018,195,1113,1520.0,7.6169095,-3.5670536,0.17599043,8.412619,8.410777634673376,-1.232581398789124,-2.0649586438029934,-24.39985933212738,-27.259327849556744,332.74067215044323,-88.96433502769212,-2.1184062938171286,-21.35527436770006,-26.53872721964469,75.14889668549195,7009527.397762009,-27.944835960873895,-25.350542016654384,42.49,NONE,0.0,0.0,0.0,NONE,-5.401033614654521E-7,5.258788588819284E-7,0.0012817383,2,48.84,48.71,52.08,54.7,16.418,16.418,5.831,7.811209,1534,3330,4.071,12.0,7.868,98,21.7,OK,69,0,0,0,0,0,65,100,0.0,0,0.0,-1.3052047E33,2.68E-43,0.0,2.0469024E-31,64,1.35503534E13,-2.2404945,2.8576794E-10,False,False,0,None,-5.3355452E-17,1.02897054E-7,
283195018,28.422,9.29631899384835,62.649037686296396,10,604.0852,602.6624,-0.2338844,0.01571459,-0.9938025,1.021074,-4.309518,10.874344,-10.002726,15.390836,995,217,1143,1530.0,9.876465,-5.1984835,0.030360037,11.16108,11.161038778764894,-1.1462177382406882,-1.2742562851178856,-23.365133628182615,-28.1834403252419,331.8165596747581,-85.30597904675346,-3.1120599620464717,6.217373157837227,-27.674783523577506,74.62259254068653,141.0672381944977,-29.793314217659606,-27.199020273440095,42.67,60.94848607812503,,9.2963338,62.6490246,20190822,84607,2019-08-22T08:46:07Z,652.496,0.95,2.1,11.44,6,4,10,9.44,-4.91,0.05,0,10000,0,0,4,4,9.295031835783606,62.64872043685715,120,10173243,114,100,397,3651,3634,4315,4328,-2882,17253,29,3632,17388,0,false,false,false,false,false,false,false,false,false,false,5244,5335,5870,5950,49,61,62,49,1498,1510,1560,1568,1494,1509,1552,1554,0.0,0.0,0.0,0.0,1626.4,1619.6,1619.6,1625.7,3.67,3.12,4.41,3.93,0,0,0,0,0.5078461479845942,9.296321521003158,62.64903516225002,0,604.2046,599.08795,-0.2295335,0.016429752,-1.0023595,1.0284358,5.730573,10.5662775,7.58851,14.215174,1003,217,1134,1529.0,9.710786,-4.880165,0.13826111,10.868969,10.868089606922716,-0.8667202676329406,-1.1479724215444973,-22.94440623807043,-27.118077936810696,332.8819220631893,-94.48617063538791,-5.9189391869012375,-17.63572765228909,-26.37496112478611,74.60432391653198,7009537.424555624,-30.881869693781244,-28.287575749561732,42.69,NONE,0.0,0.0,0.0,NONE,-2.3238963321963326E-7,2.1346964236698445E-7,4.272461E-4,2,46.62,47.96,54.31,54.47,16.403,16.403,5.817,7.7617507,1543,3328,4.095,12.0,8.226,98,21.8,OK,70,0,0,0,0,0,65,100,0.0,0,0.0,1.2447383E-36,2.69E-43,0.0,2.0469024E-31,64,1.2127377E13,-2.0787513,2.773409E-10,False,False,0,None,-5.24144E-17,9.838232E-8,
287054212,29.425,9.296211054109355,62.64913208935747,11,603.5296,602.4107,-0.2595609,0.014803448,-0.9591051,0.993717,9.108989,0.24024987,7.9857793,12.116273,919,226,1212,1537.0,10.984238,-5.797641,0.08338876,12.420671,12.420391027711245,-0.598302838810401,-0.7156528755762737,-20.210319461961003,-27.954695826802944,332.04530417319705,-88.21118909116919,-4.32588529529928,8.997857941346197,-28.465907785830083,75.66039183521629,152.9247391141342,-30.292235965227515,-27.697942021008004,42.98,60.39288305078128,,9.2962279,62.6491174,20190822,84608,2019-08-22T08:46:08Z,652.283,0.89,1.97,11.54,6,5,11,10.81,-5.7,0.1,0,10000,0,0,4,4,9.295031835783606,62.64872043685715,120,10174195,48,49,398,1594,3434,3841,3843,-1145,15369,37,212,15364,0,false,false,false,false,false,false,false,false,false,false,4952,5032,5792,5852,49,62,62,49,1479,1485,1550,1551,1475,1483,1545,1543,0.0,0.0,0.0,0.0,1628.8,1623.9,1623.9,1628.2,3.42,2.9,4.42,3.94,0,0,0,0,0.6902771978651003,9.296214569787525,62.64912835633041,0,603.343,598.9998,-0.25706613,0.009191179,-0.96766347,1.0012692,6.02836,7.40093,6.078703,11.316604,919,226,1209,1535.0,10.79018,-5.478429,0.10064742,12.1017065,12.101287621958871,-0.421257650020328,-0.5991596100274651,-19.631845514497844,-26.935283662831164,333.0647163371688,-96.11489140804275,-6.499375362623924,-14.416218210275353,-27.40828537208126,75.55355394718731,7009549.139556745,-30.886435452216126,-28.292141507996615,42.96,NONE,0.0,0.0,0.0,NONE,-2.693820746161349E-7,2.437254558841402E-7,2.4414062E-4,2,44.38,45.41,52.98,53.86,16.372,16.372,5.837,7.7617507,1543,3328,4.091,12.0,8.226,98,21.8,OK,70,0,0,0,0,0,65,100,0.0,0,0.0,1.2534434E-30,2.69E-43,0.0,2.0469024E-31,64,1.09849157E13,-1.9744343,3.1798394E-10,False,False,0,None,-5.839276E-17,9.475708E-8,
290915609,30.428,9.296094716644284,62.649234570152146,11,602.98004,601.9729,-0.27765125,0.011315473,-0.9538337,0.9934873,15.936269,3.0933678,23.268135,28.37146,910,232,1203,1526.0,11.737252,-6.156752,0.1927012,13.255407,13.254006409877956,-0.4474653374262676,-0.6972343471376183,-20.034262918108496,-27.93617816873372,332.0638218312663,-87.47702754642627,-2.9166355293310855,9.454155338120701,-29.06083759006404,78.84652924442128,165.77713425462693,-30.149534920731416,-27.555240976511904,43.31,59.84332250390628,,9.296113,62.6492187,20190822,84609,2019-08-22T08:46:09Z,652.033,0.89,1.97,11.6,6,5,11,11.55,-6.04,0.18,0,10000,0,0,4,4,9.295031835783606,62.64872043685715,120,10174195,17,49,399,1594,3434,3841,3843,-1145,15369,37,0,15364,0,false,false,false,false,false,false,false,false,false,false,4914,4989,5822,5845,49,62,63,50,1474,1482,1561,1555,1466,1483,1552,1540,0.0,0.0,0.0,0.0,1627.6,1622.6,1622.6,1628.2,3.18,2.93,4.56,4.08,0,0,0,0,1.6885022548209463,9.296086825229175,62.64924119221209,0,602.84753,598.9685,-0.28141347,0.01781416,-0.95238966,0.99325573,7.4406466,3.3210065,11.441781,14.046589,910,232,1200,1523.0,11.496552,-5.826085,0.10055505,12.888914,12.888521371914502,1.2038593465588185,-0.7048598788994561,-19.23854785517463,-27.054768962195105,332.9452310378049,-94.89359733345877,-4.37137134848775,-12.96654942225896,-27.964736542830504,79.1068175260789,7009563.2822848875,-30.170098381957626,-27.575804437738114,43.34,NONE,0.0,0.0,0.0,NONE,-2.8176309146940643E-7,2.55101366728561E-7,2.4414062E-4,2,42.57,44.04,54.31,54.89,16.404,16.404,5.839,7.753427,1544,3326,4.081,12.0,7.892,98,21.9,OK,71,0,0,0,0,0,65,100,0.0,0,0.0,2.0820374E-24,2.69E-43,0.0,2.0469024E-31,64,1.06705778E13,-1.956551,4.2495615E-10,False,False,0,None,-8.22757E-17,9.375845E-8,
