Tick#,offsetTime,IMU_ATTI(0):Longitude,IMU_ATTI(0):Latitude,IMU_ATTI(0):numSats,IMU_ATTI(0):barometer:Raw,IMU_ATTI(0):barometer:Smooth,IMU_ATTI(0):accel:X,IMU_ATTI(0):accel:Y,IMU_ATTI(0):accel:Z,IMU_ATTI(0):accel:Composite,IMU_ATTI(0):gyro:X,IMU_ATTI(0):gyro:Y,IMU_ATTI(0):gyro:Z,IMU_ATTI(0):gyro:Composite,IMU_ATTI(0):mag:X,IMU_ATTI(0):mag:Y,IMU_ATTI(0):mag:Z,IMU_ATTI(0):mag:Mod,IMU_ATTI(0):velN,IMU_ATTI(0):velE,IMU_ATTI(0):velD,IMU_ATTI(0):velComposite,IMU_ATTI(0):velH,IMU_ATTI(0):GPS-H,IMU_ATTI(0):roll,IMU_ATTI(0):pitch,IMU_ATTI(0):yaw,IMU_ATTI(0):yaw360,IMU_ATTI(0):totalGyro:Z,IMU_ATTI(0):totalGyro:X,IMU_ATTI(0):totalGyro:Y,IMU_ATTI(0):magYaw,IMU_ATTI(0):distanceHP,IMU_ATTI(0):distanceTravelled,IMU_ATTI(0):directionOfTravel[mag],IMU_ATTI(0):directionOfTravel[true],IMU_ATTI(0):temperature,General:relativeHeight,General:absoluteHeight,GPS(0):Long,GPS(0):Lat,GPS(0):Date,GPS(0):Time,GPS:dateTimeStamp,GPS(0):heightMSL,GPS(0):hDOP,GPS(0):pDOP,GPS(0):sAcc,GPS(0):numGPS,GPS(0):numGLNAS,GPS(0):numSV,GPS(0):velN,GPS(0):velE,GPS(0):velD,RC:Aileron,RC:Elevator,RC:Rudder,RC:Throttle,Controller:navHealth,Controller:ctrl_level,HP:Longitude,HP:Latitude,HP:rthHeight,BatBlackBox:tick,BatBlackBox:id,BatBlackBox:rsoc,BatBlackBox:index,BatBlackBox:rm,BatBlackBox:fcc,BatBlackBox:cell_min,BatBlackBox:cell_max,BatBlackBox:current,BatBlackBox:voltage,BatBlackBox:temp,BatBlackBox:flag,BatBlackBox:reserve,BatBlackBox:user_data,OA:avoidObst,OA:emergBrake,OA:radiusLimit,OA:airportLimit,OA:groundForceLanding,OA:horizNearBoundary,OA:vertLowLimit,OA:vertAirportLimit,OA:roofLimit,OA:hitGroundLimit,Motor:Speed:RFront,Motor:Speed:LFront,Motor:Speed:LBack,Motor:Speed:RBack,Motor:EscTemp:RFront,Motor:EscTemp:LFront,Motor:EscTemp:LBack,Motor:EscTemp:RBack,Motor:PPMrecv:RFront,Motor:PPMrecv:LFront,Motor:PPMrecv:LBack,Motor:PPMrecv:RBack,Motor:PPMsend:RFront,Motor:PPMsend:LFront,Motor:PPMsend:LBack,Motor:PPMsend:RBack,Motor:V_out:RFront,Motor:V_out:LFront,Motor:V_out:LBack,Motor:V_out:RBack,Motor:Volts:RFront,Motor:Volts:LFront,Motor:Volts:LBack,Motor:Volts:RBack,Motor:Current:RFront,Motor:Current:LFront,Motor:Current:LBack,Motor:Current:RBack,Motor:Status:RFront,Motor:Status:LFront,Motor:Status:LBack,Motor:Status:RBack,Motor:thrustAngle,IMU_ATTI(1):Longitude,IMU_ATTI(1):Latitude,IMU_ATTI(1):numSats,IMU_ATTI(1):barometer:Raw,IMU_ATTI(1):barometer:Smooth,IMU_ATTI(1):accel:X,IMU_ATTI(1):accel:Y,IMU_ATTI(1):accel:Z,IMU_ATTI(1):accel:Composite,IMU_ATTI(1):gyro:X,IMU_ATTI(1):gyro:Y,IMU_ATTI(1):gyro:Z,IMU_ATTI(1):gyro:Composite,IMU_ATTI(1):mag:X,IMU_ATTI(1):mag:Y,IMU_ATTI(1):mag:Z,IMU_ATTI(1):mag:Mod,IMU_ATTI(1):velN,IMU_ATTI(1):velE,IMU_ATTI(1):velD,IMU_ATTI(1):velComposite,IMU_ATTI(1):velH,IMU_ATTI(1):GPS-H,IMU_ATTI(1):roll,IMU_ATTI(1):pitch,IMU_ATTI(1):yaw,IMU_ATTI(1):yaw360,IMU_ATTI(1):totalGyro:Z,IMU_ATTI(1):totalGyro:X,IMU_ATTI(1):totalGyro:Y,IMU_ATTI(1):magYaw,IMU_ATTI(1):distanceHP,IMU_ATTI(1):distanceTravelled,IMU_ATTI(1):directionOfTravel[mag],IMU_ATTI(1):directionOfTravel[true],IMU_ATTI(1):temperature,IMUEX(0):err,IMUEX(0):rtk_Longitude,IMUEX(0):rtk_Latitude,IMUEX(0):rtk_Alti,IMUEX(1):err,IMUEX(1):rtk_Longitude,IMUEX(1):rtk_Latitude,IMUEX(1):rtk_Alti,BattInfo:Voltage,BattInfo:BatVoltage,BattInfo:AdVoltage,BattInfo:AvgCurrent,BattInfo:R_time,BattInfo:R_CAP_MAH,BattInfo:LowCellVoltage,BattInfo:LowCellVolThreshold,BattInfo:BatCurrent,BattInfo:Remaining%,BattInfo:Temp,BattInfo:status,battery_info:BatDynCnt,battery_info:Vol1Protect,battery_info:Vol2Protect,battery_info:Cap1Protect,battery_info:Cap2Protect,battery_info:Batpresent,battery_info:sopPercentage,battery_info:sopValue,battery_info:sopScale,battery_info:sopFlg,BattInfo:WindHeading:WindDir,battery_info:home_dir,BattInfo:Wind:rangeMin,BattInfo:Wind:rangeMax,battery_info:cap_speed,battery_info:against_wind,battery_info:emergency_land_cap,battery_info:intel_bat_land_cap,battery_info:intel_bat_gh_cap,BattInfo:Smart:SmartGh,BattInfo:Smart:SmartLand,BattInfo:GoHome:CntDown,BattInfo:GoHome:GhCmd,BattInfo:GoHome:CapLevel,BattInfo:GoHome:LandCapLv,Attribute|Value,ConvertDatV3,3.6.6-Tablet
6734869,1.750,,,,,,,,,,,,,,,,,,,,,,,,,,,,,,,,,,,,,,,,,,,,,,,,,,,,,,,,,,,,,,,,,,,,,,,,,,,,,,,,,,,,,,,,,,,,,,,,,,,,,,,,,,,,,,,,,,,,,,,,,,,,,,,,,,,,,,,,,,,,,,,,,,,,,,,,,,,,,,,,,,,,,,,,,,,,,,,OK,,,,,,,,,,,,,,,,,,,,,,,,,,Firmware Date| Oct 17 2018
270885348,70.402,,,,,,,,,,,,,,,,,,,,,,,,,,,,,,,,,,,,,,,,,,,,,,,,,,,,,,,,,,,,,,,,,,,,,,,,,,,,,false,false,false,false,false,false,false,false,false,false,,,,,,,,,,,,,,,,,,,,,,,,,,,,,,,,,,,,,,,,,,,,,,,,,,,,,,,,,,,,,,,,,,,,,,,,,,,,,,,,,,,,,,,,,OK,,,,,,,,,,,,,,,,,,,,,,,,,,ACType|MavicEnterprise
274799745,71.419,10.400141550958088,63.420085158487176,17,-102.178505,-102.11606,0.017951297,-0.009050697,-0.98285025,0.98305583,0.2015841,-0.07191641,0.12171965,0.246219,413,222,1432,1506.0,-0.01058278,0.004306393,-0.00319649,0.011864141,0.011425422062689245,-0.011425422062689245,0.5438015916896721,1.1037928712645424,-24.00901011695512,335.9909898830449,0.07376878941486682,0.2514279725706546,0.02512733632920975,-25.31623214797755,1.5986803841818569,0.04281811399976997,-125.51527070418719,-122.35982302465678,47.18,,,10.4001411,63.4200856,20190429,91150,2019-04-29T09:11:50Z,38.614,0.65,1.34,8.15,9,8,17,0.01,0.01,-0.01,0,0,0,0,5,5,10.400114977714306,63.4200770756627,30,296202,20,97,83,3562,3706,4298,4317,-1408,17301,25,2,17089,0,false,false,false,false,false,false,false,false,false,false,0,0,0,0,48,60,60,49,943,945,944,944,940,940,940,940,0.0,0.0,0.0,0.0,1727.5,1721.4,1721.4,1727.5,0.0,0.0,0.0,0.0,0,0,0,0,-45.0,10.400141485312318,63.4200846912689,0,-102.44802,-102.29577,0.017517246,-0.008515201,-0.98355085,0.98374367,0.2248136,0.008611231,0.057077944,0.232106,413,222,1438,1512.0,-0.004306943,1.9841431E-5,-1.7502617E-4,0.0043105436,0.004306988758145119,-0.004306988758145119,0.5928611261633041,1.6821605054663387,-27.97535384910761,332.0246461508924,0.08477749063050655,0.20930439436686965,0.07761589219112316,-24.46954888290885,1.56731173684362,0.042053547587042925,97.251158740754,100.4066064202844,47.13,NONE,0.0,0.0,0.0,NONE,3.844312944300364E-10,-2.61230825474896E-10,0.0,17.378,17.378,6.211,1.2619314,0,3665,4.34,12.0,1.245,100,26.0,OK,68,0,0,0,0,0,65,100,0.0,0,0.0,1.7447157E-33,2.69E-43,0.0,-5.9807744E7,62,5.49322E-5,-5.4932443E-5,7.419835E-32,False,False,0,None,5.278731E30,1.0842106E-19,geoDeclination|316 degrees
278657053,72.422,10.400141554962065,63.420085262096926,17,-102.33176,-102.172104,0.017697332,-0.008040474,-0.9826967,0.98288894,0.2180202,-0.024878351,0.003192313,0.21945827,413,219,1435,1509.0,-0.008029799,0.011547244,0.01683192,0.021934677,0.014064726222835064,-0.0025708266834168665,0.5064379717071563,1.0900616995942094,-24.002290339993895,335.9977096600061,0.1648444108262805,0.5027742453318531,0.034570803008588016,-25.107955715783476,1.605349718360629,0.08136465202475265,-148.4883748043574,-145.33292712482697,47.45,,,10.4001412,63.4200856,20190429,91151,2019-04-29T09:11:51Z,38.492,0.65,1.34,8.1,9,8,17,0.0,0.0,0.01,0,0,0,0,5,5,10.400114977714306,63.4200770756627,30,297091,48,88,84,3246,3730,4206,4215,-1166,16831,30,212,16828,0,false,false,false,false,false,false,false,false,false,false,0,0,0,0,49,60,61,48,943,944,944,945,940,940,940,940,0.0,0.0,0.0,0.0,1727.5,1722.0,1721.4,1728.2,0.0,0.0,0.0,0.0,0,0,0,0,-45.0,10.40014150855493,63.420084815788684,0,-102.05696,-102.29623,0.018710805,-0.008051002,-0.9832483,0.98345923,0.09027605,0.09653568,0.066969626,0.14816827,413,219,1432,1506.0,-2.574544E-4,7.1920094E-4,8.548443E-4,0.0011464255,7.638931646478004E-4,0.013095673895631339,0.5880470204992354,1.6170597980274128,-27.98427577666052,332.0157242233395,0.19515692530602113,0.47442997154153294,0.12951560127493228,-24.25964124029772,1.5758043565696647,0.0948612730479311,101.74314587402739,104.8985935535578,47.43,NONE,0.0,0.0,0.0,NONE,1.654400830857018E-10,-2.3760426095856993E-11,0.0,17.377,17.377,6.212,1.2619314,0,3665,4.34,12.0,1.245,100,26.0,OK,68,0,0,0,0,0,65,100,0.0,0,0.0,3.0569436E-33,2.69E-43,0.0,-5.9807744E7,62,5.49322E-5,-5.4932443E-5,7.498678E-32,False,False,0,None,5.419392E30,1.0842106E-19,geoInclination|7479 degrees
282535114,73.430,10.400141797548562,63.42008501377062,17,-102.1098,-102.174126,0.017430255,-0.0082569355,-0.9825273,0.9827166,0.30376413,-2.8819864E-4,0.061379362,0.30990344,413,219,1435,1509.0,-0.017401252,0.0036735032,-0.0016713081,0.017863132,0.017784774061225427,0.012114522872831351,0.4810609010377449,1.0915210898764895,-23.995892389709912,336.0041076102901,0.27090127562162813,0.7091064870263677,0.08582444009418881,-25.174090706547897,1.5999076397573522,0.11323026747195693,,,47.76,,,10.4001414,63.4200854,20190429,91152,2019-04-29T09:11:52Z,38.381,0.65,1.34,8.06,9,8,17,0.0,0.0,0.0,0,0,0,0,5,5,10.400114977714306,63.4200770756627,30,297091,17,88,85,3246,3730,4206,4214,-1081,16831,30,0,16832,0,false,false,false,false,false,false,false,false,false,false,0,0,0,0,48,61,61,48,944,945,945,944,940,940,940,940,0.0,0.0,0.0,0.0,1727.5,1720.8,1721.4,1727.5,0.0,0.0,0.0,0.0,0,0,0,0,-45.0,10.40014174907618,63.4200846625723,0,-102.31062,-102.296425,0.018336972,-0.0086560305,-0.9818687,0.982078,0.22782747,-0.01755828,0.029538153,0.23040433,413,222,1435,1509.0,-1.1680322E-4,0.0011321973,0.0023703186,0.0026294342,0.001138206401222189,0.01951850363218795,0.5580597508007388,1.6010406649837277,-27.994650038238294,332.0053499617617,0.2631133983614173,0.7249246256779627,0.15123737379580443,-24.6645251473148,1.5766608366581512,0.12271430842319156,66.4203292291454,69.5757769086758,47.7,NONE,0.0,0.0,0.0,NONE,1.2565069526305182E-11,3.460321209017912E-11,1.5258789E-5,17.375,17.375,6.211,1.2614064,0,3664,4.34,12.0,1.263,100,26.1,OK,69,0,0,0,0,0,65,100,0.0,0,0.0,1.26466735E-33,2.69E-43,0.0,-5.9807744E7,62,5.49322E-5,-5.4932443E-5,7.453238E-32,False,False,0,None,5.3384617E30,1.0842106E-19,geoIntensity|5185114 nanoTesla
286402238,74.435,10.400141734056911,63.42008498113904,17,-102.072815,-102.17125,0.017728427,-0.010255074,-0.9837863,0.98399943,0.35936117,0.0329548,0.24380237,0.43550667,413,222,1435,1509.0,-0.010307935,-0.002775207,9.580066E-4,0.010717886,0.010674984718008105,-0.005888256674802267,0.4788403322727753,1.0656568181545183,-24.006219552022955,335.99378044797703,0.33315575839200906,0.9636066001593061,0.1187958305524595,-25.531531975644338,1.5952716304068164,0.1522090906300082,-16.99627689589839,-13.840829216367974,48.06,,,10.4001415,63.4200854,20190429,91153,2019-04-29T09:11:53Z,38.272,0.65,1.34,8.02,9,8,17,0.01,0.0,0.01,0,0,0,0,5,5,10.400114977714306,63.4200770756627,30,297106,16,88,86,3239,3724,4216,4227,-628,16859,30,0,16225,0,false,false,false,false,false,false,false,false,false,false,0,0,0,0,49,62,61,49,944,945,944,945,940,940,940,940,0.0,0.0,0.0,0.0,1727.5,1722.0,1721.4,1728.2,0.0,0.0,0.0,0.0,0,0,0,0,-45.0,10.400141844924994,63.420084548161576,0,-102.37932,-102.29605,0.01675455,-0.008525927,-0.9820363,0.9822162,0.14773834,0.07117443,0.12663047,0.20718999,416,222,1432,1507.0,-7.754791E-4,-7.6721667E-4,-0.0016301337,0.00196146,0.0010908662769847693,0.012427218773890268,0.5210751472846981,1.581372924902768,-28.01442423900528,331.9855757609947,0.3623691404255624,0.9639671738626036,0.18744411419239168,-24.648124100616457,1.57393865081979,0.15647316399301434,79.4218418592559,82.57728953878632,48.0,NONE,0.0,0.0,0.0,NONE,-2.2721833955881352E-10,-4.926105240922452E-11,-1.5258789E-5,17.376,17.376,6.211,1.2604946,0,3664,4.34,12.0,1.246,100,26.1,OK,70,0,0,0,0,0,65,100,0.0,0,0.0,4.9550613E-34,2.69E-43,0.0,-5.9807744E7,62,5.49322E-5,-5.4932443E-5,7.484233E-32,False,False,0,None,5.3938595E30,1.0842106E-19,dateTime|2019-4-29 9:11:50 GMT
290253546,75.436,10.400142010838769,63.42008483977626,17,-102.3529,-102.18832,0.018603202,-0.007963681,-0.98316497,0.98337317,0.13627677,-0.0044259694,0.03433396,0.140605,410,219,1432,1505.0,-0.0054617547,0.002715563,0.004678693,0.0076873414,0.006099593869546714,0.014778665105434362,0.4980346994009617,1.0679536436832282,-23.998382577966254,336.00161742203375,0.45929804985612294,1.2152394297621794,0.16956533818235456,-25.314951713224495,1.5982357475929978,0.1848810572199909,173.05496738879003,176.21041506832046,48.36,,,10.4001419,63.4200852,20190429,91154,2019-04-29T09:11:54Z,38.168,0.65,1.34,7.98,9,8,17,-0.01,-0.01,0.01,0,0,0,0,5,5,10.400114977714306,63.4200770756627,30,297106,16,88,86,3239,3724,4216,4227,-628,16859,30,0,16225,0,false,false,false,false,false,false,false,false,false,false,0,0,0,0,49,61,61,48,944,945,944,944,940,940,940,940,0.0,0.0,0.0,0.0,1727.5,1721.4,1721.4,1727.5,0.0,0.0,0.0,0.0,0,0,0,0,-45.0,10.400141963947618,63.42008440447486,0,-102.358185,-102.29647,0.01809207,-0.008009798,-0.9841787,0.9843776,0.3077683,0.09222774,0.13203757,0.3473632,410,222,1432,1505.0,1.440449E-4,2.6043475E-4,-7.97718E-4,8.514277E-4,2.976158576608071E-4,0.01672578335070014,0.5232626644545394,1.5788535653496207,-27.989407992230383,332.0105920077696,0.4504144473443695,1.2019472409530005,0.20181025138263176,-24.93458351780756,1.5706221759480814,0.18345691350857607,157.87118693457074,161.02663461410117,48.3,NONE,0.0,0.0,0.0,NONE,1.72320952065848E-10,4.129628986124063E-11,-1.5258789E-5,17.376,17.376,6.211,1.258866,0,3664,4.341,12.0,1.235,100,26.1,OK,71,0,0,0,0,0,65,100,0.0,0,0.0,1.8256309E-34,2.69E-43,0.0,-5.9807744E7,62,5.49322E-5,-5.4932443E-5,7.518238E-32,False,False,0,None,5.4545186E30,1.0842106E-19,
294295081,76.486,10.400142529575293,63.4200846442669,17,-102.17322,-102.224236,0.017940165,-0.00902972,-0.98298174,0.9831869,0.21595877,0.010017888,0.09491014,0.23610693,407,222,1429,1502.0,-0.014986409,0.0019892554,0.011576415,0.019041086,0.01511785654810251,0.017008630690770115,0.46106362918555827,1.0903440008382939,-23.992304261988295,336.0076957380117,0.5626383114766073,1.4591861634942624,0.21666355068457846,-25.86591102847203,1.608535201527251,0.23616762150211731,150.53851417636955,153.69396185589997,48.67,,,10.4001421,63.420085,20190429,91155,2019-04-29T09:11:55Z,38.085,0.65,1.34,7.96,9,8,17,-0.01,0.0,0.01,0,0,0,0,5,5,10.400114977714306,63.4200770756627,30,297106,20,88,87,3239,3724,4216,4227,-628,16859,30,2,16225,0,false,false,false,false,false,false,false,false,false,false,0,0,0,0,48,61,61,48,944,945,944,944,940,940,940,940,0.0,0.0,0.0,0.0,1728.8,1722.0,1720.2,1728.2,0.0,0.0,0.0,0.0,0,0,0,0,-45.0,10.400142574686827,63.42008420764637,0,-102.16265,-102.297104,0.01776736,-0.00799244,-0.98378974,0.9839826,0.28060633,0.03479762,0.18100882,0.33573052,413,222,1435,1509.0,-5.1626854E-4,0.0017910387,8.604046E-4,0.002052961,0.0018639615137632127,0.033788000764145294,0.48877256888061427,1.638637437677714,-27.95517939350887,332.04482060649116,0.6340552137579283,1.5427455179317888,0.2972250235496613,-24.801110746997594,1.5856174546066963,0.2332759812641342,134.47215713372069,137.6276048132511,48.65,NONE,0.0,0.0,0.0,NONE,2.647639604884319E-11,-6.425354663333267E-12,1.5258789E-5,17.375,17.375,6.208,1.2561853,0,3663,4.34,12.0,1.238,100,26.1,OK,72,0,0,0,0,0,65,100,0.0,0,0.0,2.935283E-35,2.69E-43,0.0,-5.9807744E7,62,5.49322E-5,-5.4932443E-5,7.586398E-32,False,False,0,None,5.576146E30,1.0842106E-19,
298150395,77.488,10.400142432165906,63.42008452179773,17,-102.18907,-102.250694,0.017612113,-0.008910647,-0.98413724,0.9843352,0.21756686,-0.0030533746,0.05610661,0.22470562,410,222,1432,1505.0,-0.008941402,-0.0016500312,0.013353821,0.016155366,0.009092374345000787,0.005333728044357522,0.4563500526393203,1.0854443942272043,-23.992144886380398,336.0078551136196,0.6506955617120812,1.69729539074658,0.20852519496123254,-25.72470311026697,1.5973057949609872,0.2695628926229057,-24.25396300882754,-21.098515329297122,48.97,,,10.4001422,63.4200849,20190429,91156,2019-04-29T09:11:56Z,37.996,0.65,1.34,7.98,9,8,17,0.01,0.0,0.0,0,0,0,0,5,5,10.400114977714306,63.4200770756627,30,304475,112,3,88,-23,3568,3599,3626,-1611,14474,41,0,14480,0,false,false,false,false,false,false,false,false,false,false,0,0,0,0,48,61,61,49,944,944,943,945,940,940,940,940,0.0,0.0,0.0,0.0,1727.5,1720.8,1720.2,1726.9,0.0,0.0,0.0,0.0,0,0,0,0,-45.0,10.400142479962105,63.420084095053525,0,-102.31062,-102.297195,0.018287012,-0.009095479,-0.98332256,0.98353463,0.2820944,0.015517006,0.009138453,0.2826686,410,222,1429,1503.0,-0.005206503,1.6287429E-4,0.001609033,0.0054518976,0.00520904995615642,0.00814196219628228,0.4431287545508914,1.6704958341087341,-27.96099969569934,332.03900030430066,0.6389514376083454,1.6742827374231177,0.29584723867478113,-25.040493611692774,1.5752975011353354,0.2515024176748501,-160.62066568986577,-157.46521801033535,48.83,NONE,0.0,0.0,0.0,NONE,1.6858134533222902E-10,-2.2890325985769965E-11,0.0,17.375,17.375,6.21,1.2529047,0,3663,4.34,12.0,1.236,100,26.1,OK,73,0,0,0,0,0,65,100,0.0,0,0.0,9.658339E-36,2.69E-43,0.0,-5.9807744E7,62,5.49322E-5,-5.4932443E-5,7.488296E-32,False,False,0,None,5.4011324E30,1.0842106E-19,
302065869,78.506,10.400142513109442,63.42008428485832,17,-102.41631,-102.30104,0.018409686,-0.009093656,-0.9842202,0.98443437,0.2861848,-0.0055680918,0.11176678,0.3072858,410,222,1432,1505.0,-0.014121527,-0.0037862333,0.028293474,0.031847663,0.01462029694600902,0.011570847502303258,0.46838040556010824,1.0693367040151027,-23.999244219981026,336.00075578001895,0.7527222267756156,1.9197389690975908,0.2272222997753478,-25.713167133490494,1.587283838631969,0.30153913802138005,-169.1817064879712,-166.0262588084408,49.22,,,10.4001422,63.4200847,20190429,91157,2019-04-29T09:11:57Z,37.947,0.65,1.34,7.99,9,8,17,-0.02,0.0,0.02,0,0,0,0,5,5,10.400114977714306,63.4200770756627,30,304475,113,3,89,-23,3568,3599,3626,-1611,14474,41,0,14480,0,false,false,false,false,false,false,false,false,false,false,0,0,0,0,48,61,60,48,944,945,944,944,940,940,940,940,0.0,0.0,0.0,0.0,1726.3,1721.4,1721.4,1727.5,0.0,0.0,0.0,0.0,0,0,0,0,-45.0,10.400142492967255,63.42008378411308,0,-102.27363,-102.29717,0.01755409,-0.0084194895,-0.98176306,0.98195606,0.26041678,0.06639735,0.22027205,0.3474842,416,222,1435,1510.0,-7.1827334E-4,-2.2722672E-4,0.0011977927,0.0014150109,7.533581937844897E-4,0.03322912253150753,0.461339588438743,1.6258912163945165,-28.010408249851746,331.98959175014824,0.7839777159539915,2.005426566383275,0.3473104104590414,-24.744209680594548,1.5590240097029318,0.2927876446933635,179.96178949794952,-176.88276282252005,49.26,NONE,0.0,0.0,0.0,NONE,-8.227128639637288E-12,1.65988328791657E-11,0.0,17.374,17.374,6.209,1.2494625,0,3663,4.34,12.0,1.235,100,26.1,OK,74,0,0,0,0,0,65,100,0.0,0,0.0,2.8510789E-36,2.69E-43,0.0,-5.9807744E7,62,5.49322E-5,-5.4932443E-5,7.422543E-32,False,False,0,None,5.283528E30,1.0842106E-19,
305986134,79.524,10.400143289261301,63.420083851029034,17,-102.358185,-102.28383,0.01822374,-0.009664521,-0.98219305,0.98240966,0.2335262,0.12841947,-0.09588561,0.28323153,413,222,1432,1506.0,-0.033570338,-0.011171958,9.321951E-4,0.035392784,0.03538050586356419,0.02526800172349676,0.46762119899347016,1.1076846925502186,-24.01417666863585,335.98582333136414,0.8002409316098432,2.2295746223930326,0.2612025842446671,-25.51388294024356,1.5974216937076464,0.3653213744143802,103.23821296383319,106.3936606433636,49.56,,,10.4001426,63.4200845,20190429,91158,2019-04-29T09:11:58Z,37.867,0.65,1.34,8.0,9,8,17,0.0,0.0,0.01,0,0,0,0,5,5,10.400114977714306,63.4200770756627,30,304475,113,3,89,-23,3568,3599,3626,-1611,14474,41,0,14480,0,false,false,false,false,false,false,false,false,false,false,0,0,0,0,48,61,61,48,944,944,944,944,940,940,940,940,0.0,0.0,0.0,0.0,1727.5,1720.8,1720.8,1726.9,0.0,0.0,0.0,0.0,0,0,0,0,-45.0,10.400143232526627,63.42008339247894,0,-102.45859,-102.29703,0.018258076,-0.01016265,-0.9825625,0.9827846,0.19569634,-0.06543002,0.044941016,0.21118201,410,222,1432,1505.0,-0.006939525,0.002011844,-2.3628322E-4,0.007229132,0.007225269748910497,0.04873114777944356,0.47843907798569374,1.717910585328734,-27.956407999480255,332.04359200051977,0.9603405288350679,2.260969132669362,0.4060969581261694,-24.88461950373962,1.5714908822532487,0.3567910034107832,153.85994883286173,157.01539651239216,49.56,NONE,0.0,0.0,0.0,NONE,1.5511876816793637E-10,-3.472368749164309E-10,0.0,17.373,17.373,6.208,1.2461734,0,3662,4.34,12.0,1.238,100,26.1,OK,75,0,0,0,0,0,65,100,0.0,0,0.0,7.128587E-38,2.69E-43,0.0,-5.9807744E7,62,5.49322E-5,-5.4932443E-5,7.5119185E-32,False,False,0,None,5.4432224E30,1.0842106E-19,
309976194,80.561,10.400143972776,63.42008343228728,17,-102.13623,-102.308495,0.017601233,-0.0086496845,-0.9834704,0.9836659,0.37588105,0.04189399,0.06831712,0.38432914,413,219,1432,1506.0,-0.010104035,-0.0041222638,0.008181623,0.013639045,0.010912588127354305,0.044688858368719636,0.4849276436638585,1.082706229510797,-24.025611219628292,335.9743887803717,0.8377216592835484,2.5132541065140916,0.2847888022140585,-25.180303181528718,1.6064644973651134,0.43043445987403994,140.8235022873798,143.97894996691022,49.9,,,10.4001435,63.420084,20190429,91159,2019-04-29T09:11:59Z,37.741,0.65,1.34,8.02,9,8,17,0.0,0.0,0.0,0,0,0,0,5,5,10.400114977714306,63.4200770756627,30,304506,114,0,91,-59,3546,3582,3612,-1618,14403,41,3568,14400,0,false,false,false,false,false,false,false,false,false,false,0,0,0,0,47,61,62,48,944,946,945,945,940,940,940,940,0.0,0.0,0.0,0.0,1727.5,1722.0,1720.8,1726.9,0.0,0.0,0.0,0.0,0,0,0,0,-45.0,10.400144097659199,63.42008295838108,0,-102.2155,-102.29707,0.018893505,-0.009954591,-0.9831613,0.9833932,0.24124207,0.07817354,0.068420015,0.26265973,410,222,1435,1508.0,-0.0016060991,-6.806327E-4,-0.0019694054,0.0026308503,0.0017443667192765266,0.06062187025150805,0.4585827337408114,1.6378377136089521,-28.003553143547496,331.9964468564525,1.0483846663623642,2.513376757968354,0.41678066308792383,-25.026187999042232,1.5896468607434942,0.43140729387789817,142.80972960979943,145.96517728932986,49.82,NONE,0.0,0.0,0.0,NONE,1.099443522960624E-10,-1.165934148274253E-10,0.0,17.374,17.374,6.21,1.2434072,0,3662,4.34,12.0,1.241,100,26.1,OK,76,0,0,0,0,0,65,100,0.0,0,0.0,3.599521E-39,2.69E-43,0.0,-1.05007105E-23,62,5.49322E-5,-5.4932443E-5,7.658169E-32,False,False,0,None,5.704273E30,1.0842106E-19,
313879434,81.576,10.4001443752416,63.420083270932494,17,-102.358185,-102.32011,0.018088296,-0.0085413335,-0.98319644,0.98339987,0.19141252,-0.087491125,0.061646745,0.21930292,410,222,1435,1508.0,-0.0011146956,-0.0017539981,0.0064216973,0.0067496113,0.002078233801453478,0.024425544995106015,0.5069206409737864,1.0478278547150515,-24.028132752795102,335.9718672472049,0.9028185336946336,2.7399325357746136,0.29355602389021807,-25.631980897805782,1.6167441809610648,0.4731090779284076,119.60834131922928,122.7637889987597,50.15,,,10.4001437,63.4200838,20190429,91200,2019-04-29T09:12:00Z,37.693,0.65,1.34,8.03,9,8,17,0.0,0.0,0.0,0,0,0,0,5,5,10.400114977714306,63.4200770756627,30,304536,114,0,92,-85,3534,3565,3597,-1622,14349,42,3546,14343,0,false,false,false,false,false,false,false,false,false,false,0,0,0,0,48,61,61,48,944,945,944,944,940,940,940,940,0.0,0.0,0.0,0.0,1727.5,1722.0,1720.2,1726.9,0.0,0.0,0.0,0.0,0,0,0,0,-45.0,10.400144336224537,63.420082882812636,0,-102.30005,-102.2973,0.018841758,-0.0098242,-0.9839937,0.98422307,0.30108675,0.08560082,0.07490314,0.3218559,416,222,1438,1513.0,8.891235E-4,0.0011943313,-5.3225824E-4,0.0015812232,0.0014889485935172704,0.012846905989295327,0.46447302569587645,1.6010485831186552,-27.99910499266038,332.00089500733964,1.1202876424208725,2.7677754141916355,0.4533346678443913,-24.759023754631578,1.5970564335514066,0.4817269574547304,38.483089926969406,41.638537606499824,50.17,NONE,0.0,0.0,0.0,NONE,1.2804403392656864E-10,4.029232820146362E-11,0.0,17.373,17.373,6.21,1.2413996,0,3662,4.339,12.0,1.242,100,26.1,OK,77,0,0,0,0,0,65,100,0.0,0,0.0,-2.3708027E37,2.68E-43,0.0,-1.05007105E-23,62,5.49322E-5,-5.4932443E-5,7.670958E-32,False,False,0,None,5.72702E30,1.0842106E-19,
317733170,82.577,10.400144635308703,63.420083135097066,17,-102.6277,-102.377914,0.017713921,-0.008599656,-0.9820438,0.98224115,0.177748,0.08475219,0.06328931,0.20684008,413,222,1435,1509.0,-0.008070383,-0.0017684742,0.017908381,0.01972229,0.008261875177597942,0.011595729222820404,0.5038380284545197,1.0586168769899131,-24.0463459347353,335.9536540652647,0.9714707689024689,2.9569536422875893,0.33917125015724003,-25.47377429625865,1.6221276822127035,0.5134075176291694,178.43610072316724,-178.40845159730233,50.47,,,10.4001442,63.4200836,20190429,91202,2019-04-29T09:12:02Z,37.628,0.65,1.34,8.01,9,8,17,0.01,0.0,0.0,0,0,0,0,5,5,10.400114977714306,63.4200770756627,30,304539,114,0,93,-77,3543,3563,3596,-1627,14329,42,3534,14323,0,false,false,false,false,false,false,false,false,false,false,0,0,0,0,48,62,61,49,944,945,944,944,940,940,940,940,0.0,0.0,0.0,0.0,1728.2,1720.8,1721.4,1727.5,0.0,0.0,0.0,0.0,0,0,0,0,-45.0,10.400144455490073,63.420082755107096,0,-102.24721,-102.29752,0.018864214,-0.008749446,-0.98247594,0.982696,0.17865928,-0.027299328,0.07865931,0.19710828,416,222,1435,1510.0,-7.9491135E-4,4.159419E-4,0.0016504623,0.0018785413,8.971575818117816E-4,0.014468899340773124,0.45874884773943353,1.621153221026976,-28.00546334764702,331.99453665235296,1.1747343765823843,3.087646437383335,0.5008497686712263,-24.756566898021717,1.5968163548856178,0.516858811929344,-41.21833697082392,-38.0628892912935,50.48,NONE,0.0,0.0,0.0,NONE,-1.1158977647814392E-10,-3.172518865028391E-11,0.0,17.371,17.371,6.209,1.2400999,0,3661,4.339,12.0,1.24,100,26.1,OK,78,0,0,0,0,0,65,100,0.0,0,0.0,-1.0007503E37,2.68E-43,0.0,-1.05007105E-23,62,5.49322E-5,-5.4932443E-5,7.6983425E-32,False,False,0,None,5.775919E30,1.0842106E-19,
321589999,83.580,10.400144808346129,63.42008325294471,17,-102.47973,-102.37519,0.017671986,-0.0084916055,-0.98363787,0.98383325,0.1569297,0.020853072,0.08201926,0.17829454,410,222,1435,1508.0,0.0030274934,1.8068621E-4,0.0035125597,0.0046407366,0.003032880302910713,0.012609151892870575,0.496154896548134,1.0176059534707393,-24.064227829369493,335.9357721706305,1.0722087240312732,3.1991117487211933,0.37860007197777923,-25.699543660069498,1.635423398935532,0.5348314056097611,,,50.79,,,10.4001444,63.4200836,20190429,91202,2019-04-29T09:12:02Z,37.626,0.65,1.34,7.98,9,8,17,0.01,0.0,0.0,0,0,0,0,5,5,10.400114977714306,63.4200770756627,30,304566,114,0,94,-80,3552,3546,3581,-1627,14276,42,3543,14270,0,false,false,false,false,false,false,false,false,false,false,0,0,0,0,48,61,61,49,944,945,943,944,940,940,940,940,0.0,0.0,0.0,0.0,1727.5,1720.2,1720.8,1726.9,0.0,0.0,0.0,0.0,0,0,0,0,-45.0,10.400144649528798,63.420082810398505,0,-102.40046,-102.29734,0.018200554,-0.008344414,-0.98408145,0.9842851,0.21072467,0.034627046,0.2033879,0.2949077,416,222,1432,1507.0,0.0020177073,-4.2460815E-4,-9.895015E-4,0.002287039,0.0020619007741467473,0.0093566134638507,0.4536213586402288,1.601394522307491,-27.994422033490494,332.0055779665095,1.2041884913041623,3.2222283357243326,0.5606029315850652,-24.799846796456148,1.6081159590306182,0.5297168895367788,23.093751382013625,26.249199061544044,50.75,NONE,0.0,0.0,0.0,NONE,2.2138454404959946E-11,8.547060317910794E-11,0.0,17.371,17.371,6.207,1.239459,0,3661,4.339,12.0,1.248,100,26.1,OK,79,0,0,0,0,0,65,100,0.0,0,0.0,-1.131726E37,2.68E-43,0.0,-1.05007105E-23,62,5.49322E-5,-5.4932443E-5,7.841433E-32,False,False,0,None,6.031244E30,1.0842106E-19,
325487808,84.593,10.400144934314671,63.42008324844694,17,-102.463875,-102.363144,0.018928882,-0.009096853,-0.98458153,0.98480546,0.27873802,0.028502217,0.03829152,0.28279585,416,222,1435,1510.0,-0.009519139,-2.5491728E-4,-0.01873654,0.021017538,0.0095225518496327,-0.0033160572901894054,0.4827979685657448,1.0648925328231789,-24.07401891307902,335.92598108692096,1.1693304999281613,3.477514312277826,0.4391430646931813,-25.37079984495625,1.6409040544280435,0.5488829376573345,-116.62246098740945,-113.46701330787904,51.1,,,10.4001446,63.4200836,20190429,91203,2019-04-29T09:12:03Z,37.627,0.65,1.34,7.95,9,8,17,-0.01,-0.01,0.0,0,0,0,0,5,5,10.400114977714306,63.4200770756627,30,304596,114,0,95,-90,3556,3526,3563,-1634,14201,42,3552,14194,0,false,false,false,false,false,false,false,false,false,false,0,0,0,0,48,60,61,49,944,945,944,944,940,940,940,940,0.0,0.0,0.0,0.0,1726.9,1720.8,1722.0,1726.9,0.0,0.0,0.0,0.0,0,0,0,0,-45.0,10.40014483495227,63.420082808704386,0,-102.64884,-102.29745,0.018390812,-0.008434818,-0.98367685,0.98388493,0.046006475,0.06916591,0.016688133,0.08472905,416,222,1432,1507.0,-6.1205594E-4,0.0010376836,3.4691644E-4,0.0012536948,0.001204740474978457,0.007904058971733713,0.458344205259997,1.6275655886539426,-28.00040591228532,331.9995940877147,1.3504218265100656,3.465474018988227,0.5606867387288406,-24.756561241407418,1.6165149946687054,0.5412626163655272,-112.30438414971975,-109.14893647018934,51.07,NONE,0.0,0.0,0.0,NONE,-4.9362769958205624E-12,1.8740617767472506E-12,0.0,17.371,17.371,6.208,1.2394528,0,3660,4.339,12.0,1.242,100,26.1,OK,80,0,0,0,0,0,65,100,0.0,0,0.0,-7.031668E36,2.68E-43,0.0,-1.05007105E-23,62,5.49322E-5,-5.4932443E-5,7.920577E-32,False,False,0,None,6.1726785E30,1.0842106E-19,
329410127,85.612,10.400144945924534,63.42008323321488,17,-102.257774,-102.39251,0.018105939,-0.00854562,-0.98372155,0.9839253,0.3194986,0.15957394,0.21491624,0.41681194,418,222,1435,1511.0,-0.022618156,-0.0032486664,-0.004601866,0.023309052,0.02285026843123756,-0.021094794931984868,0.474554148180422,1.086170508476239,-24.092318461056543,335.90768153894345,1.2613321651966787,3.7433717129242434,0.466346147995331,-25.26638112169848,1.640721213165608,0.5612525199050157,,,51.42,,,10.4001446,63.4200837,20190429,91204,2019-04-29T09:12:04Z,37.662,0.65,1.34,7.93,9,8,17,0.0,0.0,0.0,0,0,0,0,5,5,10.400114977714306,63.4200770756627,30,304626,114,0,96,-87,3573,3502,3543,-1649,14100,42,3556,14101,0,false,false,false,false,false,false,false,false,false,false,0,0,0,0,49,61,61,49,944,945,944,944,940,940,940,940,0.0,0.0,0.0,0.0,1726.9,1720.2,1720.8,1727.5,0.0,0.0,0.0,0.0,0,0,0,0,-45.0,10.400144923271643,63.420082779981286,0,-102.56957,-102.29763,0.018935042,-0.009556192,-0.9855785,0.98580664,0.2173011,0.088723205,0.11837314,0.26287597,416,222,1432,1507.0,-0.0039858436,0.0014334067,2.3277686E-4,0.0042421445,0.004235753252947268,0.001093201692720167,0.438678280820053,1.6820029745270741,-28.001088258891627,331.9989117411084,1.4616164506857041,3.6456137068997707,0.6341487634206021,-24.743189731960385,1.6193002931637062,0.551203942895807,-135.88687884646188,-132.73143116693146,51.3,NONE,0.0,0.0,0.0,NONE,1.848860109228206E-10,-1.7750042258222522E-10,0.0,17.37,17.37,6.206,1.2398542,0,3660,4.339,12.0,1.246,100,26.2,OK,81,0,0,0,0,0,65,100,0.0,0,0.0,-5.838413E36,2.68E-43,0.0,-1.05007105E-23,62,5.49322E-5,-5.4932443E-5,7.8928915E-32,False,False,0,None,6.123006E30,1.0842106E-19,
333478233,86.670,10.400144940778956,63.420083701325765,17,-102.32119,-102.38167,0.017159475,-0.0083341785,-0.98332685,0.98351187,0.27527732,0.029534506,0.051912196,0.281682,416,222,1435,1510.0,-0.010605038,-0.002800808,-0.011063095,0.015578941,0.010968653382376925,0.038263395074343495,0.47797861467838293,1.0764510137260466,-24.101918102412615,335.89808189758736,1.3728521021155222,4.01170778919756,0.5361120142469528,-25.36914470967089,1.6628861239108634,0.6167031847578052,4.62958391372797,7.785031593258388,51.75,,,10.4001446,63.420084,20190429,91205,2019-04-29T09:12:05Z,37.711,0.65,1.34,7.9,9,8,17,0.0,0.0,0.01,0,0,0,0,5,5,10.400114977714306,63.4200770756627,30,304656,114,0,97,-86,3588,3476,3521,-1654,14016,42,3573,14010,0,false,false,false,false,false,false,false,false,false,false,0,0,0,0,48,62,62,48,944,944,944,944,940,940,940,940,0.0,0.0,0.0,0.0,1726.3,1720.2,1718.9,1726.3,0.0,0.0,0.0,0.0,0,0,0,0,-45.0,10.400144906722321,63.42008320283492,0,-102.305336,-102.29747,0.016928716,-0.0094936825,-0.9826277,0.9828193,0.35421437,0.020484362,0.1369402,0.38031572,416,222,1432,1507.0,-0.0024664823,-9.493214E-5,0.0016639421,0.0029767852,0.002468308572655795,0.04201023464445965,0.42336609686699067,1.6251386023004393,-27.990577994995064,332.0094220050049,1.5250011012840117,3.896723426341553,0.7179505439384959,-24.850127726898105,1.6375405512959498,0.6025269769701012,-5.315553271147647,-2.160105591617229,51.76,NONE,0.0,0.0,0.0,NONE,9.48363532701721E-11,-8.466743384658488E-11,1.5258789E-5,17.37,17.37,6.208,1.2409267,0,3660,4.339,12.0,1.266,100,26.2,OK,82,0,0,0,0,0,65,100,0.0,0,0.0,8.593435E-39,2.69E-43,0.0,-1.05007105E-23,62,5.49322E-5,-5.4932443E-5,8.1026373E-32,False,False,0,None,6.497328E30,1.0842106E-19,
337331920,87.671,10.400145163788322,63.4200838935131,17,-102.358185,-102.33216,0.01814362,-0.0077063553,-0.98259157,0.9827893,0.08483587,0.021066409,0.15161695,0.17501034,413,222,1432,1506.0,1.2141757E-4,-6.1740685E-4,-0.021642493,0.021651639,6.292324331364732E-4,0.023412370750135778,0.4763986421231038,1.0474768383554132,-24.10621646058356,335.89378353941646,1.4561445812411675,4.2919410886554195,0.5618886418127191,-25.56647470519674,1.6823616007573443,0.646733592601143,47.366828265710346,50.522275945240764,52.03,,,10.4001449,63.4200842,20190429,91206,2019-04-29T09:12:06Z,37.779,0.65,1.34,7.87,9,8,17,0.0,0.0,0.0,0,0,0,0,5,5,10.400114977714306,63.4200770756627,30,304686,114,0,98,-72,3615,3448,3497,-1666,13915,42,3588,13907,0,false,false,false,false,false,false,false,false,false,false,0,0,0,0,48,62,62,48,944,944,944,945,940,940,940,940,0.0,0.0,0.0,0.0,1726.3,1720.8,1720.2,1727.5,0.0,0.0,0.0,0.0,0,0,0,0,-45.0,10.400145190594472,63.42008355440068,0,-102.37404,-102.29714,0.018031262,-0.008374437,-0.9830033,0.98320436,0.38346788,0.06868726,0.010514956,0.3897129,413,222,1435,1509.0,-6.998944E-4,-9.074839E-4,0.001157932,0.0016291671,0.001146027592854451,0.040354872499421934,0.4242470774733042,1.6162807371959527,-27.962774320139204,332.0372256798608,1.6099281612605327,4.211862571171027,0.734413589370773,-24.99637966019929,1.666912506976884,0.6457975553223276,29.661684142817826,32.817131822348244,52.0,NONE,0.0,0.0,0.0,NONE,8.765631455950524E-11,-2.610300331823018E-12,0.0,17.37,17.37,6.208,1.2431267,0,3659,4.339,12.0,1.261,100,26.2,OK,83,0,0,0,0,0,65,100,0.0,0,0.0,1.7220949E-38,2.69E-43,0.0,-1.05007105E-23,62,5.49322E-5,-5.4932443E-5,8.342476E-32,False,False,0,None,6.925501E30,1.0842106E-19,
341231681,88.685,10.400145660267228,63.42008405374792,17,-102.54843,-102.27662,0.017289812,-0.009114238,-0.98281723,0.98301154,0.13011402,0.022030175,-0.009517869,0.13230865,416,222,1435,1510.0,-0.012915972,-0.0010188376,-0.018946668,0.022952922,0.012956093488695374,0.017094296251199008,0.46383589194755864,1.0613025526039759,-24.109303276122812,335.89069672387717,1.5892081610529778,4.5260350248601595,0.6317660795619847,-25.425588250940315,1.712448660798454,0.6877571091963058,96.51351320303894,99.66896088256935,52.3,,,10.4001453,63.4200844,20190429,91208,2019-04-29T09:12:08Z,37.863,0.65,1.34,7.83,9,8,17,-0.01,-0.01,0.0,0,0,0,0,5,5,10.400114977714306,63.4200770756627,30,304686,114,0,98,-72,3615,3448,3497,-1666,13915,42,3588,13907,0,false,false,false,false,false,false,false,false,false,false,0,0,0,0,48,62,61,49,944,944,943,946,940,940,940,940,0.0,0.0,0.0,0.0,1726.9,1720.8,1720.2,1727.5,0.0,0.0,0.0,0.0,0,0,0,0,-45.0,10.40014540385882,63.42008355631105,0,-102.44802,-102.29707,0.01762544,-0.008329421,-0.98340136,0.98359454,0.24556291,0.06745344,0.1506261,0.29587045,418,222,1432,1508.0,-0.0021302062,8.871078E-4,2.9571477E-4,0.0023264105,0.002307539511023854,0.008163594831396172,0.42567967105119564,1.615942327201293,-27.956946324096496,332.0430536759035,1.6730760867578125,4.386576545548448,0.7752535917963651,-24.759649205801328,1.6765786650288192,0.6896260703016359,-158.92798617079953,-155.7725384912691,52.23,NONE,0.0,0.0,0.0,NONE,7.628791916491478E-11,-2.6973103431709455E-11,1.5258789E-5,17.369,17.369,6.206,1.2457324,0,3659,4.339,12.0,1.244,100,26.2,OK,84,0,0,0,0,0,65,100,0.0,0,0.0,2.2083567E-38,2.69E-43,0.0,-1.05007105E-23,62,5.49322E-5,-5.4932443E-5,8.4137954E-32,False,False,0,None,7.052699E30,1.0842106E-19,
345381121,89.763,10.400146078365813,63.42008424678326,17,-102.16265,-102.30733,0.018795295,-0.008227173,-0.98309773,0.9833118,0.1403527,0.105385415,0.08929627,0.19692332,416,222,1435,1510.0,-0.0018913898,-0.0026143852,0.0060124937,0.0068236683,0.003226819727635447,0.024490186494732336,0.4736263099744031,1.0465193239954396,-24.126597308045127,335.8734026919549,1.6818138707392012,4.782545610611126,0.6415263296813043,-25.41812994118079,1.740745527939529,0.7302831414344224,23.454666216758003,26.61011389628842,52.6,,,10.4001456,63.4200846,20190429,91208,2019-04-29T09:12:08Z,37.9,0.65,1.34,7.82,9,8,17,0.0,0.0,0.0,0,0,0,0,5,5,10.400114977714306,63.4200770756627,30,304746,114,0,100,-29,3686,3376,3440,-1690,13650,42,3661,13643,0,false,false,false,false,false,false,false,false,false,false,0,0,0,0,49,62,62,49,944,944,944,944,940,940,940,940,0.0,0.0,0.0,0.0,1726.9,1721.4,1721.4,1726.3,0.0,0.0,0.0,0.0,0,0,0,0,-45.0,10.400146000089586,63.42008375347031,0,-102.36875,-102.29704,0.018214887,-0.0076307384,-0.9848222,0.9850202,0.3216428,-0.015233676,-0.001437955,0.32200655,416,222,1432,1507.0,8.012822E-4,-7.647045E-4,-0.0020653903,0.0023436432,0.0011076217962017404,0.03309658123249946,0.43480942301704295,1.5901668601208265,-27.98407751435628,332.0159224856437,1.7449610449280106,4.739119514835982,0.7859423867884987,-24.862025902314816,1.7128007563537397,0.7272867372140842,44.826237374143204,47.98168505367362,52.59,NONE,0.0,0.0,0.0,NONE,-7.509124653124878E-11,4.544599808677318E-11,0.0,17.369,17.369,6.207,1.2480676,0,3658,4.339,12.0,1.267,100,26.2,OK,85,0,0,0,0,0,65,100,0.0,0,0.0,5.529645E-38,2.69E-43,0.0,-1.05007105E-23,62,5.49322E-5,-5.4932443E-5,8.8217013E-32,False,False,0,None,7.7807626E30,1.0842106E-19,
349238087,90.765,10.40014679921587,63.42008421050275,17,-102.47973,-102.278015,0.016282117,-0.009230244,-0.9831411,0.9833192,0.13075893,0.16170898,0.0860391,0.22505648,416,222,1435,1510.0,-0.008203144,0.0053589162,-0.0072922707,0.012214203,0.009798447020008177,0.026205970612289305,0.46858307925267095,1.0417568722502955,-24.14444645431223,335.85555354568777,1.7559600495301493,5.044055348256003,0.7263680278234407,-25.437483761307696,1.770891505413326,0.7866645198461149,157.10928176571818,160.2647294452486,52.96,,,10.4001464,63.4200845,20190429,91210,2019-04-29T09:12:10Z,37.927,0.65,1.34,7.81,9,8,17,0.0,0.01,0.0,0,0,0,0,5,5,10.400114977714306,63.4200770756627,30,304746,114,0,100,-29,3686,3376,3440,-1690,13650,42,3661,13643,0,false,false,false,false,false,false,false,false,false,false,0,0,0,0,49,61,61,48,945,945,944,945,940,940,940,940,0.0,0.0,0.0,0.0,1726.9,1722.0,1720.8,1726.9,0.0,0.0,0.0,0.0,0,0,0,0,-45.0,10.400146636425653,63.420083643168255,0,-102.51672,-102.297005,0.018341254,-0.008453942,-0.9843101,0.9845173,0.28070346,-0.028020898,-0.004638452,0.2821367,413,222,1429,1503.0,-6.448642E-4,-4.8784932E-4,-4.1235E-4,9.07678E-4,8.08607955421684E-4,0.033062593669434225,0.44434216933106424,1.5967770264145489,-27.990551910236427,332.00944808976357,1.7445561694613316,4.9784280798286416,0.777650468036978,-24.980338166715068,1.73619063949905,0.7824674433238619,159.28732878184198,162.4427764613724,52.87,NONE,0.0,0.0,0.0,NONE,-2.0373362004375995E-10,-2.0614679544022485E-11,0.0,17.367,17.367,6.203,1.2505037,0,3658,4.339,12.0,1.261,100,26.2,OK,86,0,0,0,0,0,65,100,0.0,0,0.0,2.445407E-38,2.69E-43,0.0,-5.9807744E7,62,5.49322E-5,-5.4932443E-5,8.985706E-32,False,False,0,None,8.0735355E30,1.0842106E-19,
353135865,91.778,10.400147211852962,63.42008414774211,17,-102.10452,-102.322624,0.018062077,-0.0076187914,-0.9823411,0.9825367,0.23750205,-0.12535408,0.09292714,0.28417656,416,222,1435,1510.0,-0.0132158,-0.0017544017,0.015228862,0.020239899,0.013331739877517278,0.00807356865707568,0.47256461340102923,1.0330224099486416,-24.160594277817175,335.83940572218285,1.8567907824887757,5.338753159039797,0.7380410583165262,-25.437869407144774,1.7861864875792943,0.8345393350694285,23.98321888217879,27.138666561709208,53.27,,,10.4001468,63.4200845,20190429,91210,2019-04-29T09:12:10Z,37.933,0.65,1.34,7.79,9,8,17,0.0,0.02,0.01,0,0,0,0,5,5,10.400114977714306,63.4200770756627,30,304806,114,0,102,-50,3694,3272,3364,-1732,13282,42,3692,13271,0,false,false,false,false,false,false,false,false,false,false,0,0,0,0,49,62,62,49,944,945,944,945,940,940,940,940,0.0,0.0,0.0,0.0,1726.9,1722.0,1720.8,1726.9,0.0,0.0,0.0,0.0,0,0,0,0,-45.0,10.400147005321465,63.4200836439382,0,-102.384605,-102.29706,0.017322794,-0.009138161,-0.98442906,0.98462385,0.22236973,-0.07836351,0.037794825,0.23878355,416,222,1432,1507.0,1.7804079E-4,-0.0011197147,-7.417679E-4,0.0013548724,0.001133781046561418,0.016984533764071684,0.44105230869297823,1.5815794577237503,-28.00472616288149,331.99527383711853,1.7897828896043255,5.197284048806786,0.751654557797979,-24.856041843129514,1.7528946868077213,0.801911175695374,49.237519402429655,52.39296708196007,53.07,NONE,0.0,0.0,0.0,NONE,-4.3768323957996915E-10,4.6650752087076653E-11,0.0,17.368,17.368,6.206,1.2527283,0,3658,4.338,12.0,1.246,100,26.2,OK,87,0,0,0,0,0,65,100,0.0,0,0.0,NaN,2.68E-43,0.0,-5.9807744E7,62,5.49322E-5,-5.4932443E-5,9.25323E-32,False,False,0,None,8.5507613E30,1.0842106E-19,
356992796,92.781,10.400147327161784,63.42008393256644,17,-102.22607,-102.283134,0.016659044,-0.007483787,-0.98403865,0.9842081,0.3458788,-0.16535668,0.15216519,0.41246724,416,222,1432,1507.0,-0.026875159,0.0020670998,-0.0148102455,0.030755332,0.02695453750668569,-0.0024087858359556694,0.49728649407621417,1.0204150349722494,-24.15699127772695,335.84300872227305,1.9546439294170106,5.611574291241383,0.7463113555664264,-25.393431458526596,1.7809656953109885,0.8777120723162146,-164.68015390282903,-161.5247062232986,53.54,,,10.4001469,63.4200843,20190429,91211,2019-04-29T09:12:11Z,37.991,0.65,1.34,7.78,9,8,17,-0.02,0.0,0.0,0,0,0,0,5,5,10.400114977714306,63.4200770756627,30,304836,114,0,103,-66,3692,3194,3313,-1767,13028,43,3694,13025,0,false,false,false,false,false,false,false,false,false,false,0,0,0,0,48,62,63,48,944,945,944,945,940,940,940,940,0.0,0.0,0.0,0.0,1726.9,1720.2,1720.8,1726.9,0.0,0.0,0.0,0.0,0,0,0,0,-45.0,10.400147310725922,63.42008351085422,0,-102.18379,-102.296776,0.017938336,-0.0080891615,-0.984119,0.9843157,0.22614759,0.008880725,0.1312139,0.26160792,416,219,1435,1510.0,-8.87298E-4,6.849898E-4,-0.0021296355,0.0024066276,0.0011209410186337112,0.02003858902067951,0.4343610080176478,1.5587009292551814,-28.008860609224737,331.9911393907753,1.9209158139685822,5.5506120974866,0.7496923560947963,-24.58278664017765,1.7606532284293197,0.8402479391749816,145.82003499805901,148.97548267758944,53.52,NONE,0.0,0.0,0.0,NONE,6.611619653106687E-11,-4.2099459197964263E-11,-1.5258789E-5,17.367,17.367,6.204,1.253936,0,3657,4.338,12.0,1.247,100,26.3,OK,88,0,0,0,0,0,65,100,0.0,0,0.0,-3.7259922E37,2.68E-43,0.0,-5.9807744E7,62,5.49322E-5,-5.4932443E-5,9.118415E-32,False,False,0,None,8.3102915E30,1.0842106E-19,
360842306,93.781,10.400147368852936,63.42008369537218,17,-102.32648,-102.23303,0.018413024,-0.008558804,-0.98451334,0.98472273,0.32743275,0.008840653,-0.04254539,0.3303036,416,222,1432,1507.0,0.0039831866,-0.0019989624,-0.024912246,0.025307737,0.004456638344408369,0.021987163478209698,0.4771965240697378,1.0730767384527722,-24.17113535998673,335.82886464001325,2.035096795657486,5.884535695473517,0.719549065600333,-25.38088737817949,1.7717214314578733,0.9086159568866758,140.09911748613155,143.25456516566197,53.85,,,10.4001469,63.4200841,20190429,91212,2019-04-29T09:12:12Z,38.054,0.65,1.34,7.77,9,8,17,0.01,-0.01,0.0,0,0,0,0,5,5,10.400114977714306,63.4200770756627,30,304836,144,0,104,-67,3692,3193,3312,-1763,13027,43,774,13010,0,false,false,false,false,false,false,false,false,false,false,0,0,0,0,49,63,62,49,944,945,943,944,940,940,940,940,0.0,0.0,0.0,0.0,1726.3,1720.2,1720.2,1725.7,0.0,0.0,0.0,0.0,0,0,0,0,-45.0,10.400147152673487,63.42008316628564,0,-102.56957,-102.29731,0.017859092,-0.00878761,-0.98523015,0.9854312,0.18273133,0.07838884,-0.036068656,0.20208043,416,222,1429,1504.0,1.728147E-4,-4.094809E-7,-6.104249E-4,6.34416E-4,1.7281518503956382E-4,0.038921726507633224,0.43715337015660677,1.5616020150590155,-28.004461354490374,331.9955386455096,2.029926384905775,5.786084883341263,0.7376892079465017,-24.89628443700358,1.7381878014012895,0.8932897505861513,-149.08573473017395,-145.93028705064353,53.77,NONE,0.0,0.0,0.0,NONE,6.252617600010576E-11,-5.568640708355389E-11,0.0,17.366,17.366,6.204,1.2542739,0,3657,4.338,12.0,1.254,100,26.3,OK,89,0,0,0,0,0,65,100,0.0,0,0.0,-4.7157414E36,2.68E-43,0.0,-5.9807744E7,62,5.49322E-5,-5.4932443E-5,8.99338E-32,False,False,0,None,8.086998E30,1.0842106E-19,
364730332,94.792,10.400147391895551,63.420083558514484,17,-102.09395,-102.21294,0.017844474,-0.0090851085,-0.9837461,0.9839499,0.3346488,-0.057801984,0.17117257,0.38030374,416,222,1432,1507.0,-0.011285528,0.0021797928,-0.020111173,0.023164066,0.011494112687251154,0.0036086069995472352,0.5054016809163248,1.0200599307102092,-24.195097854085127,335.80490214591487,2.1126813825989963,6.173634077352403,0.7654368238241976,-25.372334368252133,1.7664998865478247,0.945800236043712,-17.402182740429215,-14.246735060898796,54.11,,,10.4001471,63.4200838,20190429,91214,2019-04-29T09:12:14Z,38.139,0.65,1.34,7.75,9,8,17,0.0,0.0,-0.01,0,0,0,0,5,5,10.400114977714306,63.4200770756627,30,306839,16,0,105,-60,3699,3293,3385,0,13362,34,1,17547,0,false,false,false,false,false,false,false,false,false,false,0,0,0,0,49,62,62,49,944,945,944,945,940,940,940,940,0.0,0.0,0.0,0.0,1725.0,1720.8,1720.2,1726.3,0.0,0.0,0.0,0.0,0,0,0,0,-45.0,10.40014713701866,63.420083135484106,0,-102.278915,-102.29723,0.018530762,-0.008479593,-0.9837145,0.9839256,0.07138617,0.04459794,0.07172568,0.11058723,416,222,1432,1507.0,-1.1092104E-4,-4.4423365E-4,-4.830851E-4,6.6559616E-4,4.578722667283147E-4,0.0030181199586658894,0.43248622645985507,1.5602344206540517,-28.00459141255249,331.9954085874475,2.031706419000647,5.798770680409103,0.7438288299085866,-24.90373711921893,1.7361383454375428,0.8968021731108103,-170.34351358133134,-167.1880659018009,53.85,NONE,0.0,0.0,0.0,NONE,-4.72685923098401E-11,-2.028002565755264E-11,1.5258789E-5,17.366,17.366,6.206,1.2544686,0,3657,4.337,12.0,1.261,100,26.3,OK,90,0,0,0,0,0,65,100,0.0,0,0.0,-5.0635036E35,2.68E-43,0.0,-5.9807744E7,62,5.49322E-5,-5.4932443E-5,8.972616E-32,False,False,0,None,8.0500146E30,1.0842106E-19,
368599313,95.797,10.400147679243796,63.42008320041721,17,-102.44273,-102.20377,0.018045096,-0.009331157,-0.9861676,0.9863768,0.31993404,-0.04154774,0.20718339,0.3834175,418,222,1435,1511.0,-0.0074030333,0.0030081198,-0.022499185,0.023876077,0.007990850243043723,0.03408382498898851,0.5082974557861359,1.0061979903015525,-24.198388655031614,335.80161134496836,2.1868714181067217,6.464546892485622,0.7167146507230021,-25.276331345457077,1.763807697267618,0.9899028957010018,151.10855829393466,154.2640059734651,54.52,,,10.4001472,63.4200837,20190429,91214,2019-04-29T09:12:14Z,38.158,0.65,1.34,7.74,9,8,17,-0.01,0.0,0.0,0,0,0,0,5,5,10.400114977714306,63.4200770756627,30,306839,16,0,105,-60,3699,3293,3385,0,13362,34,1,17547,0,false,false,false,false,false,false,false,false,false,false,0,0,0,0,50,63,63,49,944,945,944,945,940,940,940,940,0.0,0.0,0.0,0.0,1725.7,1720.2,1720.8,1725.7,0.0,0.0,0.0,0.0,0,0,0,0,-45.0,10.400147563078859,63.42008277488403,0,-102.13094,-102.297356,0.017809113,-0.009093352,-0.98626167,0.9864644,0.29704395,0.0063209664,0.018708782,0.29769966,416,222,1432,1507.0,-0.0012706316,-0.0015309594,-1.9593495E-4,0.0019991829,0.001989558001123268,0.04311644543200475,0.4633157431697718,1.3698617938041977,-28.09462318313755,331.90537681686243,2.1219592927015722,6.166461027715817,0.7946454940738067,-25.052420482299777,1.7406989669879163,0.9421576504787723,148.98044560540637,152.1358932849368,54.5,NONE,0.0,0.0,0.0,NONE,-1.352240727020973E-10,-5.1001252639170677E-11,0.0,17.365,17.365,6.207,1.2548167,0,3656,4.337,12.0,1.253,100,26.3,OK,91,0,0,0,0,0,65,100,0.0,0,0.0,-4.379226E34,2.68E-43,0.0,-5.9807744E7,62,5.49322E-5,-5.4932443E-5,9.0147457E-32,False,False,0,None,8.1252194E30,1.0842106E-19,
372646332,96.849,10.400147616448592,63.42008289110852,17,-102.23663,-102.20649,0.0200504,-0.008870529,-0.9851102,0.9853542,0.3614867,-0.20531912,-0.009698829,0.41583967,416,219,1435,1510.0,0.0072972286,-0.011304235,-0.011317455,0.017581811,0.013454935309609707,0.0193793492176527,0.5210549618310155,0.9651834138691647,-24.202302608605653,335.79769739139437,2.291527164581044,6.743530470485368,0.7179459810219417,-25.07455282458691,1.7479121332685785,1.02658613589618,162.96447986319407,166.1199275427245,54.73,,,10.400147,63.4200834,20190429,91216,2019-04-29T09:12:16Z,38.188,0.65,1.34,7.74,9,8,17,-0.01,-0.01,0.0,0,0,0,0,5,5,10.400114977714306,63.4200770756627,30,306841,114,0,107,-63,3718,3336,3423,3593,13535,34,3692,13541,0,false,false,false,false,false,false,false,false,false,false,0,0,0,0,49,62,61,48,944,945,945,945,940,940,940,940,0.0,0.0,0.0,0.0,1726.3,1721.4,1719.6,1725.7,0.0,0.0,0.0,0.0,0,0,0,0,-45.0,10.400147529920392,63.42008256811981,0,-102.26306,-102.297714,0.018238405,-0.009083066,-0.98435396,0.9845648,0.22779214,-0.055788413,0.13389549,0.27005482,416,222,1435,1510.0,4.408761E-4,-5.089021E-5,5.770284E-4,7.279583E-4,4.438034890106183E-4,0.021471199503892934,0.47558899158711804,1.3014759843416768,-28.129496562607542,331.8705034373925,2.144313941494905,6.312753835777868,0.7761401509883846,-25.097473297354284,1.7309173379608727,0.9652107172220381,-179.93185454852468,-176.77640686899426,54.65,NONE,0.0,0.0,0.0,NONE,1.0590557772965628E-10,2.0882402657281925E-11,0.0,17.365,17.365,6.206,1.2550346,0,3656,4.338,12.0,1.252,100,26.3,OK,92,0,0,0,0,0,65,100,0.0,0,0.0,-2.8118075E33,2.68E-43,0.0,-5.9807744E7,62,5.49322E-5,-5.4932443E-5,8.832685E-32,False,False,0,None,7.80026E30,1.0842106E-19,
376519089,97.856,10.400146955105352,63.42008291102276,17,-102.463875,-102.19497,0.01840354,-0.009179948,-0.9851373,0.9853519,0.13966668,-0.0051562507,0.044500284,0.1466753,416,219,1429,1504.0,0.014960638,-0.0018227842,-0.007136069,0.016675333,0.015071271721844698,0.017694043711879978,0.4963939428952007,0.9754079866733432,-24.216902025938502,335.7830979740615,2.367275957399763,6.994870106697564,0.7257002839119039,-25.138527471623146,1.7182205708685103,1.0812454062096477,160.24011149530298,163.3955591748334,55.06,,,10.4001467,63.4200833,20190429,91217,2019-04-29T09:12:17Z,38.194,0.65,1.34,7.74,9,8,17,0.0,-0.01,0.01,0,0,0,0,5,5,10.400114977714306,63.4200770756627,30,311807,114,99,108,3706,3706,4389,4391,202,17605,27,3718,17590,0,false,false,false,false,false,false,false,false,false,false,0,0,0,0,50,61,62,50,944,945,945,945,940,940,940,940,0.0,0.0,0.0,0.0,1726.9,1720.8,1718.9,1726.3,0.0,0.0,0.0,0.0,0,0,0,0,-45.0,10.40014695751754,63.42008243602692,0,-102.305336,-102.29765,0.01812994,-0.008679559,-0.985944,0.98614883,0.4004818,0.009123789,0.20562698,0.4502792,416,222,1435,1510.0,0.0017905368,-6.112246E-4,2.6435778E-4,0.0019103672,0.0018919876959361142,0.029944425851519938,0.4781159891963824,1.3087049311092278,-28.150337309756797,331.8496626902432,2.289387985605026,6.636862387318975,0.7850033970228665,-25.081994703076422,1.6990913518613269,1.0127803307664796,-50.68624009510146,-47.53079241557104,55.08,NONE,0.0,0.0,0.0,NONE,-3.8802128351728196E-10,3.13236039850611E-11,0.0,17.364,17.364,6.203,1.2549704,0,3656,4.337,12.0,1.253,100,26.3,OK,93,0,0,0,0,0,65,100,0.0,0,0.0,-2.4867343E33,2.68E-43,0.0,-5.9807744E7,62,5.49322E-5,-5.4932443E-5,8.638738E-32,False,False,0,None,7.454256E30,1.0842106E-19,
380399655,98.864,10.400146150183728,63.420082989449845,17,-102.1098,-102.18677,0.017231673,-0.00840263,-0.9836522,0.983839,0.3574359,-0.09004946,0.10525799,0.38333872,416,222,1435,1510.0,0.012459478,-0.007034521,-0.01679757,0.02206539,0.014308147363282767,0.026331041135209655,0.4974169112810184,0.9915551853408431,-24.24417077667139,335.7558292233286,2.4480627160007,7.287596255530528,0.7044887109895148,-25.42387753294614,1.6845911183783784,1.128443645744929,-85.78645707442833,-82.63100939489792,55.42,,,10.4001458,63.4200833,20190429,91218,2019-04-29T09:12:18Z,38.226,0.65,1.34,7.75,9,8,17,-0.02,0.0,0.01,0,0,0,0,5,5,10.400114977714306,63.4200770756627,30,311929,19,100,109,3690,3690,4389,4392,132,17592,27,1,17605,0,false,false,false,false,false,false,false,false,false,false,0,0,0,0,48,63,62,49,944,945,944,945,940,940,940,940,0.0,0.0,0.0,0.0,1726.9,1720.8,1720.2,1725.7,0.0,0.0,0.0,0.0,0,0,0,0,-45.0,10.400146157680414,63.42008249427245,0,-102.32648,-102.29799,0.018807987,-0.008598821,-0.98523957,0.9854566,0.18668567,-0.03130297,0.04897029,0.19552366,418,222,1435,1511.0,-3.458765E-4,-9.827642E-5,0.0016831174,0.0017210965,3.595675280329745E-4,0.039617395329924754,0.46422096042513344,1.4037902593297449,-28.13785970897815,331.86214029102183,2.3502878466396435,6.95658520929504,0.8010484166393496,-24.905923768980145,1.6642179758672049,1.0537684016274786,-88.47588778501782,-85.3204401054874,55.38,NONE,0.0,0.0,0.0,NONE,1.7740680156676016E-10,3.0051919210657814E-11,1.5258789E-5,17.363,17.363,6.201,1.2548312,0,3655,4.338,12.0,1.257,100,26.3,OK,94,0,0,0,0,0,65,100,0.0,0,0.0,-2.7096032E34,2.68E-43,0.0,-5.9807744E7,62,5.49322E-5,-5.4932443E-5,8.253552E-32,False,False,0,None,6.766735E30,1.0842106E-19,
384316683,99.882,10.400144622806145,63.42008354624253,17,-102.485016,-102.19646,0.017604778,-0.0084833875,-0.984011,0.984205,0.32168075,0.0053236755,0.043091666,0.3245978,416,219,1432,1507.0,0.016885089,-0.014199012,-1.3492903E-4,0.022062102,0.022061689451939752,0.07422406735551573,0.5037292248492024,0.9415406592900866,-24.252986085358135,335.74701391464185,2.5122080419050814,7.574572628722179,0.7414980590111373,-25.155832650707715,1.6410848629850048,1.2367658894233267,-72.3096833850477,-69.1542357055173,55.74,,,10.4001445,63.4200837,20190429,91219,2019-04-29T09:12:19Z,38.254,0.65,1.33,7.76,9,8,17,-0.01,0.0,0.01,0,0,0,0,5,5,10.400114977714306,63.4200770756627,30,311930,114,100,110,3690,3690,4386,4389,0,17535,27,3706,17551,0,false,false,false,false,false,false,false,false,false,false,0,0,0,0,49,63,62,50,944,945,944,945,940,940,940,940,0.0,0.0,0.0,0.0,1725.7,1720.2,1720.2,1726.3,0.0,0.0,0.0,0.0,0,0,0,0,-45.0,10.400144451643156,63.42008304748838,0,-102.078094,-102.29803,0.018193783,-0.008878978,-0.9844877,0.98469585,0.12481884,0.04965713,0.029926667,0.13762696,413,219,1432,1506.0,0.0017655412,3.7918446E-4,0.0019226163,0.0026376827,0.0018058007644545216,0.10116709180971035,0.4463948417642552,1.5533820824264386,-28.07278594910507,331.9272140508949,2.426147791611076,7.210689793345,0.8002943033234076,-24.707556127445933,1.609776846535013,1.1793611527162289,-46.70632738365355,-43.55087970412313,55.72,NONE,0.0,0.0,0.0,NONE,-1.1847064850052633E-10,2.757548043257955E-11,0.0,17.364,17.364,6.204,1.2547554,0,3655,4.338,12.0,1.253,100,26.3,OK,95,0,0,0,0,0,65,100,0.0,0,0.0,-2.3816027E38,2.68E-43,0.0,-5.9807744E7,62,5.49322E-5,-5.4932443E-5,7.8305997E-32,False,False,0,None,6.0117463E30,1.0842106E-19,
388389146,100.941,10.400143909100066,63.420083418850986,17,-102.36875,-102.17386,0.018161155,-0.008423955,-0.9851255,0.98532885,0.25320873,0.05151904,0.1490477,0.298302,416,222,1435,1510.0,-0.0055617318,-0.0071615363,-0.0078110294,0.011967984,0.009067549843911048,0.02705309127016317,0.48677351377196126,0.9851439943836212,-24.253365535052332,335.74663446494765,2.5446717368039393,7.823170324442071,0.7025010089815903,-25.460274142497596,1.6029621587578797,1.302726958676525,-105.70020964281456,-102.54476196328415,56.02,,,10.4001438,63.4200837,20190429,91220,2019-04-29T09:12:20Z,38.292,0.65,1.33,7.77,9,8,17,-0.01,0.01,-0.01,0,0,0,0,5,5,10.400114977714306,63.4200770756627,30,341997,16,100,111,3690,3688,4363,4371,-626,17459,25,0,16146,0,false,false,false,false,false,false,false,false,false,false,0,0,0,0,50,62,62,50,944,945,944,945,940,940,940,940,0.0,0.0,0.0,0.0,1726.3,1720.2,1720.2,1726.3,0.0,0.0,0.0,0.0,0,0,0,0,-45.0,10.400143836041076,63.420082918975,0,-102.37404,-102.297264,0.01783424,-0.009011842,-0.9856091,0.98581165,0.41445744,-0.085293435,-0.10401886,0.4357406,416,222,1435,1510.0,1.1225082E-5,-2.691008E-4,-0.0026055856,0.002619469,2.6933481128511757E-4,0.031663373725639335,0.42275796933739945,1.5398359010499,-28.046376588512683,331.95362341148734,2.4665645241813126,7.474863228324044,0.8058127856794834,-24.94721329929992,1.5759810122014741,1.254392100190946,-133.9223503046872,-130.76690262515677,56.03,NONE,0.0,0.0,0.0,NONE,1.0770058965663673E-11,3.0185780766956237E-11,1.5258789E-5,17.362,17.362,6.202,1.254666,0,3655,4.337,12.0,1.254,100,26.3,OK,96,0,0,0,0,0,65,100,0.0,0,0.0,-2.8508306E38,2.68E-43,0.0,-1.05007105E-23,62,5.49322E-5,-5.4932443E-5,7.519893E-32,False,False,0,None,5.4574587E30,1.0842106E-19,
392246026,101.943,10.400143502462956,63.42008313534825,17,-102.26834,-102.18685,0.01786787,-0.008631667,-0.9845266,0.98472655,0.28595003,-0.11224253,0.07056826,0.3151915,416,222,1429,1504.0,0.015964279,-0.0070521664,-0.0022754644,0.017600255,0.017452543078849768,0.019916120256366687,0.50978506499189,0.945145272287401,-24.251669202863766,335.74833079713625,2.6498793794081448,8.056666548317242,0.6929576569757981,-25.460055579471135,1.5710430521614693,1.3484358580004656,-157.8275825671227,-154.67213488759228,56.29,,,10.4001434,63.4200834,20190429,91221,2019-04-29T09:12:21Z,38.313,0.65,1.33,7.76,9,8,17,0.0,0.0,0.02,0,0,0,0,5,5,10.400114977714306,63.4200770756627,30,341997,20,100,112,3690,3688,4363,4371,-626,17459,25,2,16146,0,false,false,false,false,false,false,false,false,false,false,0,0,0,0,50,62,62,50,945,945,944,946,940,940,940,940,0.0,0.0,0.0,0.0,1725.0,1720.8,1719.6,1725.7,0.0,0.0,0.0,0.0,0,0,0,0,-45.0,10.400143691730035,63.420082593212065,0,-102.27363,-102.29739,0.017023217,-0.008630797,-0.9852523,0.98543715,0.33649507,-0.08811614,0.042154785,0.35038608,416,222,1432,1507.0,0.0010305543,0.0010249375,-0.0016180417,0.0021749937,0.0014534576190444852,0.035386572915719845,0.4182766915259762,1.5770415795216963,-28.018897479953772,331.98110252004625,2.502041739746885,7.769096004840232,0.803480951830294,-24.92056753668265,1.55479575179649,1.3231932808611493,54.36715816183482,57.52260584136524,56.3,NONE,0.0,0.0,0.0,NONE,1.6364506017992056E-10,4.879253697369478E-11,-1.5258789E-5,17.363,17.363,6.203,1.2544949,0,3654,4.337,12.0,1.252,100,26.3,OK,97,0,0,0,0,0,65,100,0.0,0,0.0,-1.1663197E37,2.68E-43,0.0,-1.05007105E-23,62,5.49322E-5,-5.4932443E-5,7.319476E-32,False,False,0,None,5.099849E30,1.0842106E-19,
396143717,102.956,10.400143339817207,63.42008265350063,17,-102.30005,-102.19745,0.017721338,-0.009111183,-0.9853874,0.98558885,0.22487381,-0.021443348,0.023754798,0.22713947,416,222,1432,1507.0,-0.010173474,-0.0038806875,-0.00326714,0.011368092,0.01088849455642014,0.042603182020783885,0.5181995816954514,0.9083094509861159,-24.25068721054878,335.7493127894512,2.7218780931117643,8.332609062993436,0.6740495687149372,-25.47876360028309,1.5414083133971979,1.4061436886447582,-165.8005604753585,-162.64511279582808,56.6,,,10.4001431,63.4200831,20190429,91222,2019-04-29T09:12:22Z,38.3,0.65,1.33,7.76,9,8,17,0.01,0.0,0.01,0,0,0,0,5,5,10.400114977714306,63.4200770756627,30,341999,114,100,113,3689,3688,4305,4329,-2917,17250,25,3690,17375,0,false,false,false,false,false,false,false,false,false,false,0,0,0,0,50,63,63,50,945,944,944,946,940,940,940,940,0.0,0.0,0.0,0.0,1725.0,1719.6,1718.9,1725.7,0.0,0.0,0.0,0.0,0,0,0,0,-45.0,10.400143495760068,63.42008207871719,0,-102.125656,-102.29807,0.019006215,-0.00842594,-0.9852564,0.9854757,0.22925282,-0.048384074,0.10066126,0.2550109,416,222,1432,1507.0,-0.0019363794,-1.3993663E-4,5.850162E-5,0.0019423104,0.0019414291822906604,0.05534837949814251,0.39181693808040935,1.6380369364505405,-28.008679504989384,331.9913204950106,2.5400683692371437,8.013201768883153,0.8368572194061396,-24.91647102035789,1.5240408526325622,1.396001462625116,158.1350490324041,161.29049671193454,56.6,NONE,0.0,0.0,0.0,NONE,2.0822113498635736E-10,-1.503265268247474E-10,0.0,17.363,17.363,6.204,1.254747,0,3654,4.337,12.0,1.278,100,26.3,OK,98,0,0,0,0,0,65,100,0.0,0,0.0,-5.015333E34,2.68E-43,0.0,-1.05007105E-23,62,5.49322E-5,-5.4932443E-5,7.039464E-32,False,False,0,None,4.8353164E30,1.0842106E-19,
