Tick#,offsetTime,IMU_ATTI(0):Longitude,IMU_ATTI(0):Latitude,IMU_ATTI(0):numSats,IMU_ATTI(0):barometer:Raw,IMU_ATTI(0):barometer:Smooth,IMU_ATTI(0):accel:X,IMU_ATTI(0):accel:Y,IMU_ATTI(0):accel:Z,IMU_ATTI(0):accel:Composite,IMU_ATTI(0):gyro:X,IMU_ATTI(0):gyro:Y,IMU_ATTI(0):gyro:Z,IMU_ATTI(0):gyro:Composite,IMU_ATTI(0):mag:X,IMU_ATTI(0):mag:Y,IMU_ATTI(0):mag:Z,IMU_ATTI(0):mag:Mod,IMU_ATTI(0):velN,IMU_ATTI(0):velE,IMU_ATTI(0):velD,IMU_ATTI(0):velComposite,IMU_ATTI(0):velH,IMU_ATTI(0):GPS-H,IMU_ATTI(0):roll,IMU_ATTI(0):pitch,IMU_ATTI(0):yaw,IMU_ATTI(0):yaw360,IMU_ATTI(0):totalGyro:Z,IMU_ATTI(0):totalGyro:X,IMU_ATTI(0):totalGyro:Y,IMU_ATTI(0):magYaw,IMU_ATTI(0):distanceHP,IMU_ATTI(0):distanceTravelled,IMU_ATTI(0):directionOfTravel[mag],IMU_ATTI(0):directionOfTravel[true],IMU_ATTI(0):temperature,General:relativeHeight,General:absoluteHeight,GPS(0):Long,GPS(0):Lat,GPS(0):Date,GPS(0):Time,GPS:dateTimeStamp,GPS(0):heightMSL,GPS(0):hDOP,GPS(0):pDOP,GPS(0):sAcc,GPS(0):numGPS,GPS(0):numGLNAS,GPS(0):numSV,GPS(0):velN,GPS(0):velE,GPS(0):velD,RC:Aileron,RC:Elevator,RC:Rudder,RC:Throttle,Controller:navHealth,Controller:ctrl_level,HP:Longitude,HP:Latitude,HP:rthHeight,BatBlackBox:tick,BatBlackBox:id,BatBlackBox:rsoc,BatBlackBox:index,BatBlackBox:rm,BatBlackBox:fcc,BatBlackBox:cell_min,BatBlackBox:cell_max,BatBlackBox:current,BatBlackBox:voltage,BatBlackBox:temp,BatBlackBox:flag,BatBlackBox:reserve,BatBlackBox:user_data,OA:avoidObst,OA:emergBrake,OA:radiusLimit,OA:airportLimit,OA:groundForceLanding,OA:horizNearBoundary,OA:vertLowLimit,OA:vertAirportLimit,OA:roofLimit,OA:hitGroundLimit,Motor:Speed:RFront,Motor:Speed:LFront,Motor:Speed:LBack,Motor:Speed:RBack,Motor:EscTemp:RFront,Motor:EscTemp:LFront,Motor:EscTemp:LBack,Motor:EscTemp:RBack,Motor:PPMrecv:RFront,Motor:PPMrecv:LFront,Motor:PPMrecv:LBack,Motor:PPMrecv:RBack,Motor:PPMsend:RFront,Motor:PPMsend:LFront,Motor:PPMsend:LBack,Motor:PPMsend:RBack,Motor:V_out:RFront,Motor:V_out:LFront,Motor:V_out:LBack,Motor:V_out:RBack,Motor:Volts:RFront,Motor:Volts:LFront,Motor:Volts:LBack,Motor:Volts:RBack,Motor:Current:RFront,Motor:Current:LFront,Motor:Current:LBack,Motor:Current:RBack,Motor:Status:RFront,Motor:Status:LFront,Motor:Status:LBack,Motor:Status:RBack,Motor:thrustAngle,IMU_ATTI(1):Longitude,IMU_ATTI(1):Latitude,IMU_ATTI(1):numSats,IMU_ATTI(1):barometer:Raw,IMU_ATTI(1):barometer:Smooth,IMU_ATTI(1):accel:X,IMU_ATTI(1):accel:Y,IMU_ATTI(1):accel:Z,IMU_ATTI(1):accel:Composite,IMU_ATTI(1):gyro:X,IMU_ATTI(1):gyro:Y,IMU_ATTI(1):gyro:Z,IMU_ATTI(1):gyro:Composite,IMU_ATTI(1):mag:X,IMU_ATTI(1):mag:Y,IMU_ATTI(1):mag:Z,IMU_ATTI(1):mag:Mod,IMU_ATTI(1):velN,IMU_ATTI(1):velE,IMU_ATTI(1):velD,IMU_ATTI(1):velComposite,IMU_ATTI(1):velH,IMU_ATTI(1):GPS-H,IMU_ATTI(1):roll,IMU_ATTI(1):pitch,IMU_ATTI(1):yaw,IMU_ATTI(1):yaw360,IMU_ATTI(1):totalGyro:Z,IMU_ATTI(1):totalGyro:X,IMU_ATTI(1):totalGyro:Y,IMU_ATTI(1):magYaw,IMU_ATTI(1):distanceHP,IMU_ATTI(1):distanceTravelled,IMU_ATTI(1):directionOfTravel[mag],IMU_ATTI(1):directionOfTravel[true],IMU_ATTI(1):temperature,IMUEX(0):err,IMUEX(0):rtk_Longitude,IMUEX(0):rtk_Latitude,IMUEX(0):rtk_Alti,IMUEX(1):err,IMUEX(1):rtk_Longitude,IMUEX(1):rtk_Latitude,IMUEX(1):rtk_Alti,BattInfo:Voltage,BattInfo:BatVoltage,BattInfo:AdVoltage,BattInfo:AvgCurrent,BattInfo:R_time,BattInfo:R_CAP_MAH,BattInfo:LowCellVoltage,BattInfo:LowCellVolThreshold,BattInfo:BatCurrent,BattInfo:Remaining%,BattInfo:Temp,BattInfo:status,battery_info:BatDynCnt,battery_info:Vol1Protect,battery_info:Vol2Protect,battery_info:Cap1Protect,battery_info:Cap2Protect,battery_info:Batpresent,battery_info:sopPercentage,battery_info:sopValue,battery_info:sopScale,battery_info:sopFlg,BattInfo:WindHeading:WindDir,battery_info:home_dir,BattInfo:Wind:rangeMin,BattInfo:Wind:rangeMax,battery_info:cap_speed,battery_info:against_wind,battery_info:emergency_land_cap,battery_info:intel_bat_land_cap,battery_info:intel_bat_gh_cap,BattInfo:Smart:SmartGh,BattInfo:Smart:SmartLand,BattInfo:GoHome:CntDown,BattInfo:GoHome:GhCmd,BattInfo:GoHome:CapLevel,BattInfo:GoHome:LandCapLv,Attribute|Value,ConvertDatV3,3.6.6-Tablet
7687284,1.998,,,,,,,,,,,,,,,,,,,,,,,,,,,,,,,,,,,,,,,,,,,,,,,,,,,,,,,,,,,,,,,,,,,,,,,,,,,,,,,,,,,,,,,,,,,,,,,,,,,,,,,,,,,,,,,,,,,,,,,,,,,,,,,,,,,,,,,,,,,,,,,,,,,,,,,,,,,,,,,,,,,,,,,,,,,,,,,OK,,,,,,,,,,,,,,,,,,,,,,,,,,Firmware Date| Oct 17 2018
109022667,28.335,,,,,,,,,,,,,,,,,,,,,,,,,,,,,,,,,,,,,,,,,,,,,,,,,,,,,,,,,,,,,,,,,,,,,,,,,,,,,false,false,false,false,false,false,false,false,false,false,,,,,,,,,,,,,,,,,,,,,,,,,,,,,,,,,,,,,,,,,,,,,,,,,,,,,,,,,,,,,,,,,,,,,,,,,,,,,,,,,,,,,,,,,OK,,,,,,,,,,,,,,,,,,,,,,,,,,ACType|MavicEnterprise
112887000,29.339,10.4001071070845,63.42006573205685,17,-100.14392,-100.064445,0.072867244,0.028147236,-0.97805005,0.9811645,0.14861119,0.07173039,0.22041693,0.27534372,74,-360,1435,1481.0,-0.0066205612,-0.024291229,0.019844633,0.03205784,0.02517728400794897,-0.02517728400794897,-1.7023375641620488,4.3133026449389185,65.182591193272,65.182591193272,0.15791367566928352,0.20722766197661935,-0.004690722414868783,60.09062183570493,0.7107983563054592,0.05759625239468652,20.991618790073794,24.147056322043298,35.7,,,10.4001081,63.4200659,20190429,103012,2019-04-29T10:30:12Z,35.2,0.64,1.34,10.58,9,8,17,-0.01,-0.01,0.02,0,0,0,0,5,5,10.400094928861582,63.42006907416131,50,7344,48,91,50,3353,3706,4249,4258,-1121,17012,30,212,17021,0,false,false,false,false,false,false,false,false,false,false,0,0,0,0,45,59,58,46,944,945,944,944,940,940,940,940,0.0,0.0,0.0,0.0,1693.2,1686.4,1688.2,1692.0,0.0,0.0,0.0,0.0,0,0,0,0,-45.0,10.400107234087654,63.42006526012678,0,-100.085785,-100.03079,0.072799414,0.028004419,-0.9776419,0.98074853,0.24309188,0.023421628,0.050665684,0.24941781,74,-360,1432,1478.0,0.0013239754,-4.6266135E-4,3.4313436E-4,0.0014438516,0.001402485816420639,-0.001402485816420639,-1.7455409636218868,4.664799981369279,62.39734362437884,62.397343624378834,0.10948983478040546,0.14900416690612528,0.0024342346690289646,58.86019101472543,0.7447740076393787,0.07329450775717082,-62.42167150824423,-59.26623397627473,35.7,NONE,0.0,0.0,0.0,NONE,-2.1300762611966978E-10,1.4590904363092737E-10,-3.0517578E-5,17.024,17.024,6.085,1.2298161,0,3347,4.253,12.0,1.242,91,29.8,OK,27,0,0,0,0,0,65,100,0.0,0,0.0,-1.3887731E-35,2.68E-43,0.0,-5.9807744E7,62,5.49322E-5,-5.4932443E-5,3.6683896E-32,False,False,0,None,1.6181037E30,1.0842106E-19,dateTime|2019-4-29 10:30:12 GMT
116758365,30.345,10.400106044131523,63.42006620957118,17,-100.20734,-100.06983,0.07285611,0.027687274,-0.97850484,0.981604,0.2050024,-0.063496195,0.11647751,0.24418183,76,-360,1435,1481.0,-6.5162184E-4,-0.028027125,0.015199714,0.031890053,0.02803469891186423,0.04644866543163305,-1.7061956378624867,4.314214181208802,65.17534034728983,65.17534034728982,0.288479480504423,0.38985498222558673,0.004867276984568488,59.8097579958388,0.6381988030466064,0.1381231663300094,-51.55927347599625,-48.403835944026746,36.01,,,10.4001071,63.4200663,20190429,103013,2019-04-29T10:30:13Z,35.339,0.64,1.34,10.44,9,8,17,-0.01,0.0,0.01,0,0,0,0,5,5,10.400094928861582,63.42006907416131,50,7344,17,91,51,3353,3706,4249,4259,-1047,17024,30,0,17021,0,false,false,false,false,false,false,false,false,false,false,0,0,0,0,46,58,59,46,944,946,945,945,940,940,940,940,0.0,0.0,0.0,0.0,1692.0,1686.4,1685.2,1692.0,0.0,0.0,0.0,0.0,0,0,0,0,-45.0,10.400106138144446,63.42006579257249,0,-100.20734,-100.03154,0.07296763,0.028691705,-0.9779498,0.9810878,0.1634174,0.20335025,0.061693482,0.2680721,74,-360,1435,1481.0,8.780242E-4,-0.0028592846,1.5556256E-4,0.002995102,0.0029910592819061247,0.07700595303036857,-1.7631307872763378,4.685359368209732,62.44781584576625,62.44781584576623,0.28844877938153984,0.4270162785460821,-0.011349239194595214,58.71550667004684,0.666469984291922,0.17322030227082022,21.88595142222519,25.041388954194698,36.04,NONE,0.0,0.0,0.0,NONE,-9.693043770173024E-11,2.7575470630440404E-11,0.0,17.023,17.023,6.084,1.2302905,0,3347,4.253,12.0,1.253,91,29.8,OK,28,0,0,0,0,0,65,100,0.0,0,0.0,-7.480376E-34,2.68E-43,0.0,-1.05007105E-23,62,5.49322E-5,-5.4932443E-5,3.1846502E-32,False,False,0,None,1.22705E30,1.0842106E-19,geoDeclination|316 degrees
120617238,31.348,10.40010531532911,63.42006655050384,17,-100.15449,-100.08256,0.07172615,0.02788721,-0.9784803,0.98150194,0.26074544,0.015298096,0.04567058,0.2651566,74,-363,1432,1479.0,-9.740051E-4,-0.07107391,0.0076764906,0.0714939,0.07108058558662272,-0.018772970195445868,-1.725488821847029,4.361180526754273,65.16859073843304,65.16859073843307,0.4447092236189911,0.6681350456162116,-0.03464131599435941,60.151660859246746,0.5880414966318491,0.22049796930553345,106.87998787852953,110.03542541049904,36.35,,,10.4001064,63.4200666,20190429,103014,2019-04-29T10:30:14Z,35.449,0.64,1.34,10.31,9,8,17,-0.02,-0.02,0.03,0,0,0,0,5,5,10.400094928861582,63.42006907416131,50,7401,16,91,52,3358,3711,4261,4271,-628,17036,29,0,16392,0,false,false,false,false,false,false,false,false,false,false,0,0,0,0,47,59,59,46,943,946,944,945,940,940,940,940,0.0,0.0,0.0,0.0,1691.4,1687.0,1686.4,1692.0,0.0,0.0,0.0,0.0,0,0,0,0,-45.0,10.400105572381698,63.42006605684852,0,-100.10164,-100.03195,0.07166764,0.027942475,-0.9783972,0.98141634,0.20937657,0.027235735,0.08196016,0.22649017,76,-363,1432,1479.0,-0.0027958557,-0.002008115,0.0023862214,0.0041884826,0.003442286355192427,0.03713265388332771,-1.7629153820166197,4.797811817110874,62.67314958080302,62.673149580803,0.4448112327733998,0.6323021828529306,-0.02101265737661013,58.36456107063026,0.6268931283578028,0.25310973106661505,-0.5015955325154149,2.653841999454091,36.31,NONE,0.0,0.0,0.0,NONE,-4.738821462639411E-10,-2.2515505637160832E-10,3.0517578E-5,17.021,17.021,6.083,1.2317563,0,3346,4.253,12.0,1.231,91,29.8,OK,29,0,0,0,0,0,65,100,0.0,0,0.0,-3.0398848E-32,2.68E-43,0.0,-1.05007105E-23,62,5.49322E-5,-5.4932443E-5,2.955645E-32,False,False,0,None,1.12486195E30,1.0842106E-19,geoInclination|7479 degrees
124608603,32.385,10.40010496550965,63.42006676264531,17,-100.22847,-100.1016,0.072760075,0.028257865,-0.97869796,0.9818056,0.0053707566,-0.0965881,0.08086057,0.12608147,71,-363,1429,1476.0,-0.0011003283,-0.017197683,0.011078099,0.020486467,0.017232847503951598,0.011027022261602275,-1.730889079768107,4.314808909806093,65.16077390576876,65.16077390576879,0.5763858215256037,0.8402951267171099,-0.03267407048051314,60.74140018157234,0.5616268664827622,0.2712364379747331,-29.531000250730656,-26.375562718761152,36.57,,,10.4001061,63.4200669,20190429,103015,2019-04-29T10:30:15Z,35.553,0.64,1.34,10.18,9,8,17,-0.02,-0.01,0.02,0,0,0,0,5,5,10.400094928861582,63.42006907416131,50,7401,20,91,53,3358,3711,4261,4271,-628,17036,29,2,16392,0,false,false,false,false,false,false,false,false,false,false,0,0,0,0,46,58,58,47,943,945,944,944,940,940,940,940,0.0,0.0,0.0,0.0,1692.0,1686.4,1686.4,1691.4,0.0,0.0,0.0,0.0,0,0,0,0,-45.0,10.400105326454579,63.42006619883847,0,-100.27603,-100.03184,0.07267953,0.0282894,-0.97858566,0.9816886,0.29854798,-0.048811615,0.24179691,0.3872715,71,-360,1429,1475.0,-1.104733E-4,-9.813516E-4,-1.8239928E-4,0.0010042534,9.875501886608632E-4,0.01826829114235458,-1.7744453572341718,4.77287457869741,62.60150445746962,62.601504457469616,0.611261409016257,0.9017131305720982,-0.038555411491285156,58.87914562425577,0.60814514192977,0.3250919347960531,138.09818144261848,141.253618974588,36.6,NONE,0.0,0.0,0.0,NONE,-1.6753409312650856E-11,-3.480399206562267E-11,1.5258789E-5,17.022,17.022,6.083,1.2317563,0,3346,4.252,12.0,1.231,91,29.8,OK,29,0,0,0,0,0,65,100,0.0,0,0.0,-3.953573E-31,2.68E-43,0.0,-1.05007105E-23,62,5.49322E-5,-5.4932443E-5,2.8311367E-32,False,False,0,None,1.0693287E30,1.0842106E-19,geoIntensity|5185114 nanoTesla
128592971,33.421,10.40010479620561,63.4200671000581,17,-100.286606,-100.14243,0.07335753,0.028924558,-0.97894996,0.98212063,0.23820728,-0.028539892,0.26291642,0.35592455,71,-360,1435,1481.0,-7.8869634E-4,-0.021573931,0.014325351,0.02590892,0.021588342836567426,0.015545261829741395,-1.715621243560992,4.343653035692918,65.15035360156381,65.15035360156378,0.73166639477664,1.0515188951921033,-0.051446608803878545,60.36755453459564,0.5377767972521589,0.3207086044716588,-29.36332643249132,-26.207888900521812,36.97,,,10.4001059,63.4200672,20190429,103016,2019-04-29T10:30:16Z,35.675,0.64,1.34,10.08,9,8,17,-0.01,0.01,0.02,0,0,0,0,5,5,10.400094928861582,63.42006907416131,50,7571,48,89,54,3294,3711,4230,4240,-1092,16947,30,212,16943,0,false,false,false,false,false,false,false,false,false,false,0,0,0,0,46,58,59,46,944,945,944,945,940,940,940,940,0.0,0.0,0.0,0.0,1692.0,1685.8,1687.6,1692.0,0.0,0.0,0.0,0.0,0,0,0,0,-45.0,10.400104930432022,63.42006652406517,0,-100.29717,-100.031906,0.07314104,0.028979521,-0.9786491,0.9818062,0.28228676,-0.04219688,0.11718638,0.3085434,71,-360,1435,1481.0,5.4986065E-4,3.268031E-5,-2.4541476E-4,6.0302834E-4,5.508309512824896E-4,0.03921949183295133,-1.766935633996075,4.752490431910799,62.59334956066039,62.593349560660386,0.7540564058282063,1.1384932488929034,-0.1098267531753593,58.88141021040522,0.5727354924810466,0.39337942477495935,-147.5374027725642,-144.3819652405947,36.96,NONE,0.0,0.0,0.0,NONE,-4.786688424211692E-12,3.0788146826397706E-11,0.0,17.02,17.02,6.082,1.2330372,0,3346,4.252,12.0,1.229,91,29.8,OK,30,0,0,0,0,0,65,100,0.0,0,0.0,-2.9586228E-27,2.68E-43,0.0,-1.05007105E-23,62,5.49322E-5,-5.4932443E-5,2.6863158E-32,False,False,0,None,1.0047044E30,1.0842106E-19,
132448000,34.423,10.400104622780322,63.420067414649864,18,-99.94839,-100.137245,0.07305537,0.027948879,-0.9780486,0.9811714,0.27968335,0.058889993,0.08322987,0.2976878,68,-363,1423,1470.0,-0.0013991806,-0.06061998,-3.9131593E-4,0.06063739,0.06063612389759618,-0.02467514919966963,-1.7212229922250875,4.365780543028109,65.14402816827817,65.14402816827817,0.893498986993768,1.2915483418577098,-0.08783262960396732,61.07173913902819,0.5164034011175418,0.36561599676672546,,,37.25,,,10.4001057,63.4200676,20190429,103017,2019-04-29T10:30:17Z,35.783,0.63,1.29,9.98,10,8,18,0.0,0.0,0.01,0,0,0,0,5,5,10.400094928861582,63.42006907416131,50,7571,17,89,55,3294,3711,4230,4240,-1092,16947,30,0,16943,0,false,false,false,false,false,false,false,false,false,false,0,0,0,0,46,59,59,47,943,944,944,944,940,940,940,940,0.0,0.0,0.0,0.0,1692.0,1685.8,1687.0,1692.0,0.0,0.0,0.0,0.0,0,0,0,0,-45.0,10.400104880229687,63.420066974811434,0,-100.01709,-100.03244,0.07348242,0.028068114,-0.978416,0.9815729,0.23710242,-0.13841547,0.12273878,0.30073443,71,-363,1426,1473.0,-1.1927202E-4,-5.199326E-4,5.641632E-4,7.76425E-4,5.334376351085419E-4,0.0495540549076253,-1.7672048677494159,4.7811557884593245,62.631180250316454,62.63118025031645,0.9133742313070075,1.3338090947558174,-0.09216317522787008,59.14526075684747,0.5473885259940551,0.46779889325253954,5.724028496845792,8.879466028815298,37.23,NONE,0.0,0.0,0.0,NONE,-3.0515139059586427E-10,4.711925080121352E-11,3.0517578E-5,17.02,17.02,6.084,1.2335426,0,3345,4.252,12.0,1.225,91,29.8,OK,32,0,0,0,0,0,65,100,0.0,0,0.0,-6.762863E-20,2.68E-43,0.0,-1.05007105E-23,62,5.49322E-5,-5.4932443E-5,2.4611753E-32,False,False,0,None,9.024583E29,1.0842106E-19,
136304371,35.425,10.400104458764268,63.420067820661664,18,-100.344734,-100.13253,0.07276127,0.028911896,-0.97755855,0.9806889,0.17450796,0.04708693,0.023104236,0.18221968,71,-363,1423,1470.0,-0.0017167389,-0.019592043,0.0048233615,0.020249942,0.019667113392317803,0.02610776880207194,-1.694987340228205,4.345330272410415,65.13377343646732,65.13377343646732,1.0201029051167747,1.5288525758588252,-0.12249878891956364,60.78391510107345,0.49421039538163564,0.43218949205759316,-18.566559809744447,-15.411122277774943,37.53,,,10.4001056,63.4200679,20190429,103018,2019-04-29T10:30:18Z,35.891,0.63,1.29,9.89,10,8,18,0.0,0.02,0.0,0,0,0,0,5,5,10.400094928861582,63.42006907416131,50,7738,48,89,56,3294,3711,4252,4257,-3,17003,30,212,4,0,false,false,false,false,false,false,false,false,false,false,0,0,0,0,47,59,59,47,943,945,944,944,940,940,940,940,0.0,0.0,0.0,0.0,1692.0,1685.8,1685.8,1691.4,0.0,0.0,0.0,0.0,0,0,0,0,-45.0,10.400104796433883,63.420067231913514,0,-100.365875,-100.03275,0.07246667,0.028783772,-0.97765845,0.98076296,0.2868436,0.014615032,0.2134632,0.35785386,71,-363,1423,1470.0,-0.0015979314,9.838488E-4,0.0029854646,0.0035262364,0.0018765242837615903,0.026949362618373145,-1.7529738879780032,4.769207758514932,62.59992573263101,62.59992573263099,1.0556110476941798,1.604571223058302,-0.10358635304933037,59.253977131424165,0.5319710814780682,0.5382512012246898,168.9305557973579,172.0859933293274,37.55,NONE,0.0,0.0,0.0,NONE,1.0351213974021846E-10,-6.18440166754091E-11,1.5258789E-5,17.019,17.019,6.084,1.2329836,0,3345,4.252,12.0,1.228,91,29.8,OK,33,0,0,0,0,0,65,100,0.0,0,0.0,-2.8722548E-16,2.68E-43,0.0,-1.05007105E-23,62,5.49322E-5,-5.4932443E-5,2.4230328E-32,False,False,0,None,8.684343E29,1.0842106E-19,
140183004,36.433,10.400104554813154,63.42006807748356,18,-100.239044,-100.17433,0.072739735,0.027323332,-0.9767857,0.9798714,0.22008027,-0.056624215,0.11234314,0.2535007,74,-360,1441,1487.0,-0.0025567987,-0.022191746,0.015769528,0.0273439,0.02233855059665157,0.006384905710910702,-1.6839702956406484,4.348636290197927,65.12049103861904,65.12049103861904,1.154714536624783,1.7237801162110935,-0.14274825357599485,59.93261588956135,0.4915823268140768,0.47742688831299096,-25.902864785783244,-22.747427253813736,37.84,,,10.4001055,63.4200682,20190429,103019,2019-04-29T10:30:19Z,35.984,0.63,1.29,9.8,10,8,18,-0.01,0.0,0.01,0,0,0,0,5,5,10.400094928861582,63.42006907416131,50,7738,48,89,57,3294,3711,4252,4257,-3,17003,30,212,4,0,false,false,false,false,false,false,false,false,false,false,0,0,0,0,46,59,61,46,943,945,944,944,940,940,940,940,0.0,0.0,0.0,0.0,1691.4,1687.0,1687.0,1691.4,0.0,0.0,0.0,0.0,0,0,0,0,-45.0,10.4001046746912,63.42006754303191,0,-100.31831,-100.03297,0.07275289,0.028199054,-0.9767826,0.9798941,0.26304138,0.04529482,0.10930883,0.28842816,74,-363,1432,1479.0,7.960827E-4,-4.8003998E-4,3.7736856E-4,0.0010032911,9.296160837432801E-4,0.033911338783367814,-1.7751988603696365,4.751348373548193,62.585342633078014,62.58534263307803,1.222003989516009,1.8662241168100129,-0.11201614247000763,58.75187077975034,0.5139122816767985,0.6059987704106061,-10.519944992117818,-7.364507460148312,37.89,NONE,0.0,0.0,0.0,NONE,-5.983360745368534E-11,4.845786588096734E-11,0.0,17.02,17.02,6.084,1.2321845,0,3344,4.251,12.0,1.229,91,29.9,OK,34,0,0,0,0,0,65,100,0.0,0,0.0,-6.342926E-12,2.68E-43,0.0,-1.05007105E-23,62,5.49322E-5,-5.4932443E-5,2.3799627E-32,False,False,0,None,8.299808E29,1.0842106E-19,
144041220,37.436,10.40010426828436,63.420068296312245,18,-100.22847,-100.211464,0.07260633,0.027056176,-0.97752947,0.9805955,0.09036943,-0.08083151,0.13068005,0.17826284,74,-366,1420,1468.0,-0.008399006,-0.0672359,0.012270079,0.06886047,0.06775846673259694,-0.0396341415912287,-1.6968597250850614,4.3958321008801695,65.1194476754937,65.11944767549369,1.3435412150117128,1.9607943757113637,-0.15490123007048098,60.47171999137049,0.4726521956345365,0.5167166417597812,-45.36548419966697,-42.21004666769747,38.2,,,10.4001054,63.4200685,20190429,103020,2019-04-29T10:30:20Z,36.092,0.63,1.29,9.72,10,8,18,0.0,0.0,0.01,0,0,0,0,5,5,10.400094928861582,63.42006907416131,50,7738,48,89,58,3294,3711,4252,4257,-3,17003,30,212,4,0,false,false,false,false,false,false,false,false,false,false,0,0,0,0,46,59,60,47,944,945,944,945,940,940,940,940,0.0,0.0,0.0,0.0,1691.4,1686.4,1685.2,1692.0,0.0,0.0,0.0,0.0,0,0,0,0,-45.0,10.400104549026501,63.420067853478244,0,-100.27075,-100.0336,0.072559856,0.02686257,-0.97732896,0.98038685,0.2879118,-0.101978794,0.24822329,0.39358315,74,-366,1420,1468.0,-8.2661945E-4,-0.0031139478,0.0018769264,0.003728649,0.003221796123728944,0.03176428134496724,-1.796712851679473,4.819217645060864,62.61963428488968,62.619634284889685,1.4229678650620845,2.1034669898854155,-0.13448007452848212,58.884119449891074,0.49751267000555416,0.6696890039698706,-17.065896727234495,-13.910459195264991,38.21,NONE,0.0,0.0,0.0,NONE,-1.98049242607854E-10,-6.291490874830936E-11,1.5258789E-5,17.02,17.02,6.084,1.2313559,0,3344,4.251,12.0,1.227,91,29.9,OK,35,0,0,0,0,0,65,100,0.0,0,0.0,-5.928596E-7,2.68E-43,0.0,-1.05007105E-23,62,5.49322E-5,-5.4932443E-5,2.3399771E-32,False,False,0,None,7.943126E29,1.0842106E-19,
148090277,38.488,10.400104355328478,63.42006862062664,18,-100.23376,-100.19547,0.07314912,0.027852006,-0.9778188,0.98094654,0.1523362,-0.09648793,0.20335111,0.2717865,68,-366,1420,1467.0,-0.006446315,-0.017785624,-0.002981618,0.01915133,0.018917805665032175,0.015597192234208402,-1.6918957781283772,4.385396136430071,65.11207863710194,65.11207863710194,1.4956520000030815,2.170739932900654,-0.16516473099735693,61.324277358361314,0.47170526751158054,0.5621244951945442,-93.31316105623999,-90.15772352427048,38.46,,,10.4001054,63.4200687,20190429,103021,2019-04-29T10:30:21Z,36.154,0.63,1.29,9.65,10,8,18,0.0,0.0,0.01,0,0,0,0,5,5,10.400094928861582,63.42006907416131,50,7738,48,89,58,3294,3711,4252,4257,-3,17003,30,212,4,0,false,false,false,false,false,false,false,false,false,false,0,0,0,0,46,59,60,47,944,944,944,945,940,940,940,940,0.0,0.0,0.0,0.0,1691.4,1686.4,1685.8,1692.0,0.0,0.0,0.0,0.0,0,0,0,0,-45.0,10.400104585438081,63.42006816667423,0,-100.13335,-100.03342,0.07234227,0.027964406,-0.97883946,0.98190737,0.38322875,-0.058940265,0.027876284,0.38873553,74,-363,1426,1473.0,6.4706896E-4,-0.0016082947,-8.931333E-4,0.0019501274,0.0017335829843290432,0.031405102860270984,-1.8090419932605255,4.785028892915674,62.58916362828809,62.58916362828808,1.6017230947016383,2.362411487374666,-0.17006906235265137,58.65196461192423,0.4909329006634103,0.7313898706892288,-5.31052552029099,-2.155087988321484,38.5,NONE,0.0,0.0,0.0,NONE,-1.9027087477008828E-10,-2.0614672227059785E-11,0.0,17.019,17.019,6.08,1.2305348,0,3344,4.252,12.0,1.228,91,29.9,OK,36,0,0,0,0,0,65,100,0.0,0,0.0,-0.13093185,2.68E-43,0.0,-1.05007105E-23,62,5.49322E-5,-5.4932443E-5,2.331965E-32,False,False,0,None,7.871558E29,1.0842106E-19,
152030773,39.512,10.400104767496849,63.42006878140372,18,-100.445145,-100.20814,0.07234218,0.027670726,-0.9764416,0.9795087,0.15260676,0.09829371,0.1013678,0.2079084,74,-360,1435,1481.0,-0.0093579795,-0.036167387,0.0015100478,0.03738893,0.03735842236224052,-0.010793549971365949,-1.716094535793632,4.378117964344916,65.09330506625871,65.09330506625872,1.613899637315438,2.346454455667314,-0.2033411990817898,59.84273780875469,0.49058983445771076,0.6058450029316724,90.86088550528889,94.0163230372584,38.78,,,10.4001058,63.4200689,20190429,103022,2019-04-29T10:30:22Z,36.222,0.63,1.29,9.55,10,8,18,-0.01,0.0,0.02,0,0,0,0,5,5,10.400094928861582,63.42006907416131,50,8198,16,89,60,3294,3711,4253,4258,0,17005,28,1,17546,0,false,false,false,false,false,false,false,false,false,false,0,0,0,0,47,58,59,46,943,945,944,944,940,940,940,940,0.0,0.0,0.0,0.0,1692.0,1687.6,1686.4,1691.4,0.0,0.0,0.0,0.0,0,0,0,0,-45.0,10.400104898883617,63.42006834114418,0,-100.48742,-100.03301,0.072209835,0.027424961,-0.97648776,0.979538,0.2446077,0.14732036,0.13573404,0.31616443,74,-360,1435,1481.0,0.0016606554,-0.0016519564,2.933473E-4,0.0023606755,0.0023423782726593495,0.021962677697260867,-1.8110559935472728,4.758139291479421,62.55159710303397,62.55159710303394,1.7527315480960062,2.5998292854486547,-0.17352541516640893,58.37362686132204,0.5026974714037088,0.7930012716604584,17.106219166594315,20.26165669856382,38.79,NONE,0.0,0.0,0.0,NONE,3.649850139692777E-11,2.222101032512026E-11,1.5258789E-5,17.018,17.018,6.082,1.2300454,0,3343,4.251,12.0,1.241,91,29.9,OK,37,0,0,0,0,0,65,100,0.0,0,0.0,-184.32422,2.68E-43,0.0,-1.05007105E-23,62,5.49322E-5,-5.4932443E-5,2.376803E-32,False,False,0,None,8.2717606E29,1.0842106E-19,
155895004,40.516,10.400105062378238,63.42006893748031,18,-100.19676,-100.218796,0.07266338,0.028358709,-0.97597605,0.97908807,0.30820152,0.0017435192,0.16042556,0.34745875,74,-366,1423,1471.0,-0.010260943,-0.07638801,0.003665959,0.07716122,0.07707408750775283,-0.05444588709090806,-1.7315431228177547,4.379755727178845,65.08210322765956,65.08210322765956,1.7646526741858157,2.537841077158926,-0.20465248543926753,60.41972229588996,0.5044090693424421,0.6461391484604212,4.230720955015969,7.386158486985475,39.06,,,10.4001062,63.420069,20190429,103024,2019-04-29T10:30:24Z,36.241,0.63,1.29,9.51,10,8,18,0.0,0.0,0.01,0,0,0,0,5,5,10.400094928861582,63.42006907416131,50,8198,18,89,61,3294,3712,4292,4296,3573,17153,28,1,17175,0,false,false,false,false,false,false,false,false,false,false,0,0,0,0,48,60,60,47,943,945,944,944,940,940,940,940,0.0,0.0,0.0,0.0,1691.4,1685.2,1686.4,1690.7,0.0,0.0,0.0,0.0,0,0,0,0,-45.0,10.400105417081447,63.42006838261527,0,-100.212616,-100.03318,0.07263825,0.028332792,-0.97593635,0.97904587,0.25005046,-0.06298828,0.17841761,0.31356913,74,-363,1426,1473.0,-0.0019998786,-2.8010248E-4,-2.799333E-4,0.002038709,0.002019398890803564,0.02405996586013046,-1.7921705528809309,4.768338901540267,62.61856528604476,62.61856528604477,1.8890141919403947,2.819129585585278,-0.21746687345389784,58.74144627940427,0.5274631448858149,0.8446335629040244,63.03037234591299,66.18580987788249,39.1,NONE,0.0,0.0,0.0,NONE,-6.40219617893789E-11,-1.6866550004260644E-11,1.5258789E-5,17.017,17.017,6.082,1.2301697,0,3343,4.251,12.0,1.232,91,29.9,OK,38,0,0,0,0,0,65,100,0.0,0,0.0,-1404.5,2.68E-43,0.0,-5.9807744E7,62,5.49322E-5,-5.4932443E-5,2.457489E-32,False,False,0,None,8.9917E29,1.0842106E-19,
159766991,41.523,10.400105390252387,63.420068855924576,18,-100.12278,-100.16186,0.07303309,0.028531991,-0.9786137,0.9817498,0.27127218,-0.015892077,0.12943049,0.3009874,68,-363,1426,1473.0,-0.0033230498,-0.03380903,-0.01179706,0.03596198,0.0339719453640552,-0.0154248333398985,-1.7220719595557141,4.372061494212795,65.06716850419778,65.06716850419775,1.933616456742075,2.749709361019629,-0.22366286776940014,61.010516517617106,0.5210583920700679,0.6701937969408763,,,39.39,,,10.4001065,63.420069,20190429,103024,2019-04-29T10:30:24Z,36.215,0.63,1.29,9.49,10,8,18,-0.01,-0.01,0.02,0,0,0,0,5,5,10.400094928861582,63.42006907416131,50,8207,19,89,62,3301,3712,4265,4270,3,17122,28,1,17108,0,false,false,false,false,false,false,false,false,false,false,0,0,0,0,47,60,60,48,943,944,944,944,940,940,940,940,0.0,0.0,0.0,0.0,1691.4,1685.8,1686.4,1691.4,0.0,0.0,0.0,0.0,0,0,0,0,-45.0,10.400105888782958,63.420068326033444,0,-100.35531,-100.0333,0.073301956,0.028394558,-0.9788075,0.98195904,0.16095479,-0.17761968,0.06560921,0.24851511,65,-363,1429,1475.0,3.9891063E-4,0.0013954131,9.577026E-4,0.001738822,0.0014513123096134724,0.022693887774987737,-1.8079676746292195,4.745338647292818,62.62969330749,62.629693307490015,2.0575263200714495,3.038218722830482,-0.235315076253859,59.94071191287397,0.5516056564905459,0.8796918777209768,90.97515066628745,94.13058819825696,39.43,NONE,0.0,0.0,0.0,NONE,9.57337745362077E-11,2.7040024607999753E-11,1.5258789E-5,17.017,17.017,6.082,1.2301697,0,3343,4.251,12.0,1.232,91,29.9,OK,38,0,0,0,0,0,65,100,0.0,0,0.0,-253.73438,2.68E-43,0.0,-5.9807744E7,62,5.49322E-5,-5.4932443E-5,2.5818943E-32,False,False,0,None,9.581269E29,1.0842106E-19,
163625230,42.525,10.400105958751944,63.42006865329892,18,-100.2549,-100.13511,0.07317994,0.028774276,-0.9770281,0.9801873,0.21506603,-0.100004256,0.19995059,0.31021684,76,-363,1423,1470.0,6.860107E-4,-0.035936028,-0.011550467,0.037752908,0.03594257562495181,1.2054020672991328E-4,-1.731526808035478,4.354443727753032,65.06220962647922,65.06220962647922,2.0542173524713387,3.0021018706389486,-0.2631925187787491,60.00679682307634,0.5507697261800647,0.7145520980816893,70.53165829749662,73.68709582946613,39.68,,,10.4001068,63.4200689,20190429,103025,2019-04-29T10:30:25Z,36.179,0.63,1.29,9.48,10,8,18,-0.01,0.0,0.02,0,0,0,0,5,5,10.400094928861582,63.42006907416131,50,8228,16,89,63,3301,3712,4257,4262,0,17023,28,1,17546,0,false,false,false,false,false,false,false,false,false,false,0,0,0,0,45,60,60,47,943,945,944,944,940,940,940,940,0.0,0.0,0.0,0.0,1692.0,1685.2,1684.6,1691.4,0.0,0.0,0.0,0.0,0,0,0,0,-45.0,10.400106274858386,63.42006819297087,0,-100.265465,-100.03261,0.073004045,0.028734017,-0.9770531,0.98019797,0.11895473,0.0046568215,0.17836428,0.21444283,79,-363,1426,1473.0,-0.0011089052,-1.1671524E-4,-4.181227E-4,0.0011908483,0.0011150305498585206,0.02306521809016185,-1.7952229955126757,4.703681290149044,62.60831649929075,62.608316499290765,2.1780677875722576,3.2902601827465934,-0.2446595808483364,58.29323313255581,0.572946106886992,0.9268652407472759,47.544700765619275,50.70013829758878,39.69,NONE,0.0,0.0,0.0,NONE,-1.495840220119849E-11,-4.926103492765752E-11,0.0,17.016,17.016,6.079,1.2305369,0,3343,4.251,12.0,1.23,91,29.9,OK,39,0,0,0,0,0,65,100,0.0,0,0.0,-1.8779907,2.68E-43,0.0,-5.9807744E7,62,5.49322E-5,-5.4932443E-5,2.7121955E-32,False,False,0,None,1.01625206E30,1.0842106E-19,
167477604,43.527,10.400106305481659,63.42006838734307,18,-100.14392,-100.117386,0.07253126,0.02888421,-0.9805197,0.9836229,0.12674683,-0.20766456,0.1557241,0.28885865,68,-366,1423,1470.0,1.7814199E-4,-0.07738053,-0.0015393483,0.07739605,0.07738073601360602,-0.04318546808370234,-1.7387969315623375,4.375239621436386,65.06693687959874,65.06693687959876,2.1870476056989956,3.197745112313425,-0.2876541067167319,61.23042340588197,0.5711579329403973,0.7560383173691254,136.87368411648956,140.02912164845907,40.02,,,10.4001073,63.4200687,20190429,103026,2019-04-29T10:30:26Z,36.116,0.63,1.29,9.46,10,8,18,-0.01,0.0,0.01,0,0,0,0,5,5,10.400094928861582,63.42006907416131,50,8228,18,89,64,3303,3713,4297,4300,3572,17172,28,1,17195,0,false,false,false,false,false,false,false,false,false,false,0,0,0,0,47,60,60,47,944,945,944,944,940,940,940,940,0.0,0.0,0.0,0.0,1691.4,1685.8,1685.8,1691.4,0.0,0.0,0.0,0.0,0,0,0,0,-45.0,10.400106650132274,63.42006796905602,0,-100.17563,-100.03268,0.07261652,0.028875079,-0.9806431,0.9837519,0.22131328,0.041283898,0.17253792,0.28364283,68,-366,1420,1467.0,-0.0014397536,-0.0017980237,-0.002245177,0.003216613,0.0023034277215452296,0.028780131468198925,-1.7754905726028325,4.74289833829911,62.636507019459295,62.636507019459316,2.352752070408272,3.5141929235360814,-0.2625254861984738,59.96621639997787,0.5959824586031561,0.9905193867981916,26.51224760373065,29.667685135700157,40.0,NONE,0.0,0.0,0.0,NONE,-8.915207636321466E-11,2.195328730476946E-11,-1.5258789E-5,17.013,17.013,6.079,1.231352,0,3342,4.251,12.0,1.259,91,29.9,OK,40,0,0,0,0,0,65,100,0.0,0,0.0,-8.418709E-4,2.68E-43,0.0,-5.9807744E7,62,5.49322E-5,-5.4932443E-5,2.8482143E-32,False,False,0,None,1.0769305E30,1.0842106E-19,
171388892,44.543,10.400106836609925,63.42006836646235,18,-100.12278,-100.11035,0.073603064,0.02830147,-0.97899836,0.9821691,0.35015866,-0.031208305,0.14446087,0.38007104,71,-366,1420,1468.0,-0.006807039,-0.028192924,-0.01769182,0.033973187,0.029003047729720025,-0.002906911101921355,-1.7195691185727697,4.364267155112284,65.0534098994155,65.0534098994155,2.3300889482701463,3.4238731443211847,-0.28629850664606593,60.93589181277361,0.5976579665642116,0.8030187332987688,62.61606259061474,65.77150012258424,40.35,,,10.4001077,63.4200685,20190429,103028,2019-04-29T10:30:28Z,36.048,0.63,1.29,9.44,10,8,18,0.0,0.01,0.02,0,0,0,0,5,5,10.400094928861582,63.42006907416131,50,8228,18,89,64,3303,3713,4297,4300,3572,17172,28,1,17195,0,false,false,false,false,false,false,false,false,false,false,0,0,0,0,48,59,60,47,943,945,944,944,940,940,940,940,0.0,0.0,0.0,0.0,1691.4,1686.4,1687.6,1691.4,0.0,0.0,0.0,0.0,0,0,0,0,-45.0,10.400106900700596,63.42006775451657,0,-100.13335,-100.032684,0.07350613,0.028306384,-0.97935027,0.9825128,0.16475028,-0.020520313,0.13465843,0.21376769,71,-366,1423,1471.0,0.0010159485,2.082742E-4,3.293148E-4,0.0010881074,0.0010370773547481048,0.025442101070741796,-1.8006204552861746,4.744303220268156,62.6086696830994,62.60866968309938,2.5148125892741118,3.7016372667498705,-0.2939427531297664,59.47367563681722,0.6134517633781664,1.0490292105814765,-166.93387094493534,-163.77843341296582,40.33,NONE,0.0,0.0,0.0,NONE,8.975041184020327E-12,4.3906574610064126E-11,0.0,17.013,17.013,6.081,1.233734,0,3342,4.25,12.0,1.27,91,29.9,OK,41,0,0,0,0,0,65,100,0.0,0,0.0,-3.145784E-4,2.68E-43,0.0,-5.9807744E7,62,5.49322E-5,-5.4932443E-5,2.9749044E-32,False,False,0,None,1.1334502E30,1.0842106E-19,
175296603,45.559,10.400107042831724,63.420068320586644,18,-100.12278,-100.071304,0.07219009,0.0277594,-0.9788037,0.98185474,0.21714628,-0.030021058,0.096845634,0.2396515,71,-363,1423,1470.0,0.00490714,-0.033725355,-0.018632716,0.03884144,0.03408048743765662,-0.022798032744232956,-1.7098022799975028,4.327989270117793,65.0482936661699,65.04829366616991,2.5016055917867117,3.6531575623566157,-0.3003960565214666,60.813537233432996,0.6085118817060945,0.8346108900778242,49.40659247492565,52.56203000689516,40.6,,,10.400108,63.4200685,20190429,103028,2019-04-29T10:30:28Z,35.99,0.63,1.29,9.42,10,8,18,-0.01,0.0,0.02,0,0,0,0,5,5,10.400094928861582,63.42006907416131,50,9374,114,99,65,3713,3713,4386,4389,326,17562,27,3677,17596,0,false,false,false,false,false,false,false,false,false,false,0,0,0,0,47,59,61,47,943,944,943,944,940,940,940,940,0.0,0.0,0.0,0.0,1691.4,1685.8,1686.4,1690.7,0.0,0.0,0.0,0.0,0,0,0,0,-45.0,10.400107334844144,63.42006783190238,0,-100.11221,-100.03314,0.072398,0.028030153,-0.9786492,0.9817237,0.09920802,0.007869685,0.14820999,0.17852274,71,-363,1423,1470.0,9.626453E-4,0.0011445993,0.0015514408,0.002154939,0.0014955913661136371,0.021398476784970304,-1.8001161063777298,4.711026334932468,62.58323836196953,62.58323836196951,2.648676385154284,3.9435419664238642,-0.32678216888873574,59.350055923049204,0.6325112220917939,1.0871334754809063,67.42156930134463,70.57700683331414,40.61,NONE,0.0,0.0,0.0,NONE,-6.162861621503682E-11,-6.050540160302005E-11,3.0517578E-5,17.013,17.013,6.078,1.2371509,0,3342,4.25,12.0,1.23,91,29.9,OK,42,0,0,0,0,0,65,100,0.0,0,0.0,-3.8445927E-5,2.68E-43,0.0,-5.9807744E7,62,5.49322E-5,-5.4932443E-5,3.0263628E-32,False,False,0,None,1.1564294E30,1.0842106E-19,
179295830,46.598,10.400107456956611,63.420068360292994,18,-100.09107,-100.09305,0.07250079,0.028596364,-0.97733945,0.980442,0.24878801,0.1209844,0.1321427,0.30658504,68,-369,1411,1460.0,0.008637101,-0.061880182,0.0072517316,0.06289948,0.06248004788575683,-0.042206459212773585,-1.7340036664237106,4.334835865514165,65.02939077797059,65.0293907779706,2.6397760211769357,3.8472944788923376,-0.31875091477810324,61.7483074389983,0.6283532407993803,0.8593613621497596,,,40.89,,,10.4001084,63.4200685,20190429,103029,2019-04-29T10:30:29Z,35.941,0.63,1.29,9.42,10,8,18,0.0,0.01,0.02,0,0,0,0,5,5,10.400094928861582,63.42006907416131,50,9763,48,99,66,3701,3701,4391,4393,161,17547,27,212,17549,0,false,false,false,false,false,false,false,false,false,false,0,0,0,0,47,61,60,46,944,945,944,944,940,940,940,940,0.0,0.0,0.0,0.0,1690.7,1685.2,1685.8,1691.4,0.0,0.0,0.0,0.0,0,0,0,0,-45.0,10.400107607637777,63.420067850627404,0,-100.07522,-100.03251,0.07263622,0.02865915,-0.9776302,0.98074365,0.20900488,-0.13358395,0.107328966,0.2702725,68,-369,1411,1460.0,7.362638E-4,-0.0018917323,-0.0015968559,0.0025827668,0.002029959460570907,0.011181049859288849,-1.7909278870654697,4.667085899082435,62.520152660472014,62.520152660472036,2.7502967366734206,4.090550621289174,-0.37464849377447085,60.53409228939839,0.645320732191413,1.1159633034917753,90.18318135146016,93.33861888342967,40.87,NONE,0.0,0.0,0.0,NONE,-1.8727919330271348E-10,3.58748841317551E-11,0.0,17.013,17.013,6.08,1.2396713,0,3341,4.25,12.0,1.235,91,29.9,OK,43,0,0,0,0,0,65,100,0.0,0,0.0,-4.3949485E-4,2.68E-43,0.0,-5.9807744E7,62,5.49322E-5,-5.4932443E-5,3.1864557E-32,False,False,0,None,1.2278818E30,1.0842106E-19,
183190526,47.610,10.400108008207694,63.42006854377059,18,-100.0488,-100.099594,0.0726704,0.0284593,-0.97855717,0.9816644,0.25297943,-0.0040730154,0.03644032,0.25562292,65,-363,1423,1470.0,0.002883254,-0.01884696,0.005292,0.019787025,0.01906622939339417,0.014704060419547214,-1.7486478564148564,4.320318351958578,64.99940451938912,64.99940451938915,2.748676239212597,4.063186198015427,-0.33087533140289455,61.58690145322215,0.6534130497939044,0.9012858136562084,110.73131369267642,113.88675122464593,41.22,,,10.4001088,63.4200686,20190429,103030,2019-04-29T10:30:30Z,35.904,0.63,1.29,9.41,10,8,18,-0.01,-0.01,0.02,0,0,0,0,5,5,10.400094928861582,63.42006907416131,50,9763,48,99,67,3701,3701,4391,4393,161,17547,27,212,17549,0,false,false,false,false,false,false,false,false,false,false,0,0,0,0,48,60,61,47,943,945,944,944,940,940,940,940,0.0,0.0,0.0,0.0,1691.4,1685.8,1685.8,1690.1,0.0,0.0,0.0,0.0,0,0,0,0,-45.0,10.400108217703993,63.42006798776791,0,-100.09107,-100.032684,0.07222875,0.02718418,-0.97717196,0.9802148,0.28423277,0.07646812,0.085129194,0.30640268,65,-366,1417,1464.0,-0.0010024238,-0.001392794,-0.0010296799,0.002001242,0.0017160211970846317,0.031842464284154465,-1.7867677758363687,4.678059616217978,62.53163299811579,62.53163299811581,2.8845707094439113,4.32033746334076,-0.4226861033635005,60.601462772987226,0.6721143723922566,1.164108879166294,57.975774119261715,61.13121165123122,41.26,NONE,0.0,0.0,0.0,NONE,-1.0470881467587539E-10,-4.4174297623971184E-11,0.0,17.013,17.013,6.078,1.2409326,0,3341,4.25,12.0,1.241,91,29.9,OK,44,0,0,0,0,0,65,100,0.0,0,0.0,-0.048207283,2.68E-43,0.0,-5.9807744E7,62,5.49322E-5,-5.4932443E-5,3.358661E-32,False,False,0,None,1.3417336E30,1.0842106E-19,
187049242,48.613,10.400108119084235,63.420068485940476,18,-100.12278,-100.07559,0.072325945,0.028131388,-0.97837764,0.98145056,0.10621935,0.04490435,0.2004461,0.23125222,68,-372,1405,1455.0,0.001165556,-0.019928275,-0.0085149715,0.02170252,0.019962330837666138,-0.01151407873678806,-1.7260878594892268,4.314916582167222,64.99492495904819,64.9949249590482,2.919256679888941,4.269224156255112,-0.3286605337959258,62.121016574690536,0.6595139063013035,0.9188015086492509,5.727167411579096,8.882604943548602,41.5,,,10.400109,63.4200686,20190429,103031,2019-04-29T10:30:31Z,35.869,0.63,1.29,9.4,10,8,18,-0.01,0.0,0.02,0,0,0,0,5,5,10.400094928861582,63.42006907416131,50,9763,48,99,68,3701,3701,4391,4393,161,17547,27,212,17549,0,false,false,false,false,false,false,false,false,false,false,0,0,0,0,47,60,60,47,944,945,944,945,940,940,940,940,0.0,0.0,0.0,0.0,1692.0,1684.6,1685.2,1690.1,0.0,0.0,0.0,0.0,0,0,0,0,-45.0,10.400108309580759,63.42006811431815,0,-100.20734,-100.03298,0.07218409,0.027898654,-0.9780957,0.9811525,0.20024917,-0.11862835,0.09791334,0.25250632,68,-372,1405,1455.0,9.3599444E-4,-6.9117936E-4,-6.483225E-5,0.0011653402,0.00116353533187862,0.013589831506198323,-1.7970951275019724,4.689583618470207,62.5429016410283,62.54290164102832,2.9927865429237626,4.528015247820591,-0.42755958788854703,60.75180690513571,0.6742414630649707,1.207914437687217,27.914766100947077,31.070203632916584,41.51,NONE,0.0,0.0,0.0,NONE,-7.479201074200708E-11,4.6048358739477483E-11,0.0,17.012,17.012,6.078,1.2415862,0,3341,4.25,12.0,1.239,91,29.9,OK,45,0,0,0,0,0,65,100,0.0,0,0.0,-0.022956848,2.68E-43,0.0,-5.9807744E7,62,5.49322E-5,-5.4932443E-5,3.4053046E-32,False,False,0,None,1.3833206E30,1.0842106E-19,
190954281,49.628,10.400108006695133,63.42006856903509,19,-100.06465,-100.08703,0.07335483,0.027647413,-0.9776445,0.9807824,0.22148608,-0.13770515,0.09913406,0.2790096,71,-369,1417,1465.0,0.0054932353,-0.055807132,0.0023478481,0.056125965,0.05607683661291655,-0.045435417124284866,-1.733774531287979,4.318453353997172,64.99182903217489,64.9918290321749,3.0745780813490606,4.455440544600774,-0.3592934149646008,61.322617044611086,0.6530905003138339,0.9669215594725529,-153.90219091107437,-150.74675337910486,41.83,,,10.4001088,63.4200688,20190429,103033,2019-04-29T10:30:33Z,35.763,0.61,1.26,9.38,10,9,19,-0.01,-0.01,0.02,0,0,0,0,5,5,10.400094928861582,63.42006907416131,50,9763,48,99,69,3701,3701,4391,4393,161,17547,27,212,17549,0,false,false,false,false,false,false,false,false,false,false,0,0,0,0,47,61,61,47,944,946,944,945,940,940,940,940,0.0,0.0,0.0,0.0,1690.7,1685.2,1686.4,1690.7,0.0,0.0,0.0,0.0,0,0,0,0,-45.0,10.400108155014646,63.42006804729017,0,-100.03294,-100.03315,0.07323801,0.027665444,-0.97775537,0.9808847,0.16513869,0.07880783,0.16516162,0.24649508,71,-369,1414,1463.0,-2.4601897E-5,-0.0018167978,-4.3557512E-4,0.0018684445,0.0018169643245137263,0.008735106165088461,-1.7917903470066545,4.7573232040705395,62.61278278417804,62.61278278417802,3.10367526223229,4.73796085837163,-0.4509912257514675,59.8000109704025,0.6678830631227997,1.238084452483286,,,41.85,NONE,0.0,0.0,0.0,NONE,3.530182902377128E-11,-1.0280563811788738E-10,0.0,17.013,17.013,6.08,1.2418978,0,3340,4.25,12.0,1.242,91,29.9,OK,46,0,0,0,0,0,65,100,0.0,0,0.0,-0.26467133,2.68E-43,0.0,-5.9807744E7,62,5.49322E-5,-5.4932443E-5,3.3384236E-32,False,False,0,None,1.3236674E30,1.0842106E-19,
194832889,50.636,10.400107336399193,63.42006889695241,19,-100.07522,-100.10443,0.07222605,0.027068164,-0.9764934,0.9795349,0.2088155,-0.11084462,0.12379441,0.2668623,68,-369,1402,1451.0,0.0035962663,-0.018636525,0.003976261,0.019392366,0.01898033665872904,0.030039804740706545,-1.6770944081618695,4.2647528974654065,64.99794779916185,64.99794779916186,3.2282019650557046,4.657860630915114,-0.4062168450970558,62.20060279892971,0.6176354348952556,1.0225216509494572,-34.969653733859275,-31.81421620188977,42.14,,,10.4001086,63.4200689,20190429,103033,2019-04-29T10:30:33Z,35.721,0.61,1.26,9.36,10,9,19,-0.02,0.01,0.02,0,0,0,0,5,5,10.400094928861582,63.42006907416131,50,9764,19,100,70,3701,3701,4387,4390,83,17563,27,1,17137,0,false,false,false,false,false,false,false,false,false,false,0,0,0,0,47,61,60,48,944,945,945,945,940,940,940,940,0.0,0.0,0.0,0.0,1690.7,1686.4,1686.4,1689.5,0.0,0.0,0.0,0.0,0,0,0,0,-45.0,10.40010758961628,63.42006830570763,0,-100.080505,-100.03319,0.07198829,0.027147427,-0.9761434,0.97917074,0.2778589,-0.20837893,0.13170289,0.37144718,68,-369,1402,1451.0,-8.327396E-4,7.109924E-4,7.494195E-4,0.0013268741,0.0010949727752482808,0.03879674568160325,-1.77217655243198,4.742666404385794,62.61661104805945,62.61661104805944,3.2383953460758956,4.959117942234853,-0.47925662234182065,60.44220465850731,0.63568859968657,1.3022872870290931,-56.04852680499409,-52.893089273024586,42.13,NONE,0.0,0.0,0.0,NONE,7.120199470766722E-11,-3.2394484925756793E-11,-1.5258789E-5,17.011,17.011,6.077,1.2420857,0,3340,4.25,12.0,1.244,91,30.0,OK,47,0,0,0,0,0,65,100,0.0,0,0.0,-6.8706055,2.68E-43,0.0,-1.05007105E-23,62,5.49322E-5,-5.4932443E-5,3.1818666E-32,False,False,0,None,1.2258121E30,1.0842106E-19,
198876840,51.687,10.400107691657418,63.4200689779162,19,-99.99595,-100.08042,0.07224865,0.027214494,-0.97747713,0.9805213,0.1594569,-0.073263474,0.1023232,0.2031356,65,-369,1411,1459.0,5.742192E-4,-0.009128194,-0.0043207607,0.010115465,0.009146237285068668,0.00972720626422037,-1.7200465251778292,4.272814914812663,65.00954900185658,65.00954900185661,3.350637264561223,4.820301086642035,-0.4391942262553193,62.39389249137908,0.635086620616551,1.0582430701200192,-19.82107959262555,-16.665642060656044,42.41,,,10.4001085,63.420069,20190429,103034,2019-04-29T10:30:34Z,35.637,0.61,1.26,9.35,10,9,19,-0.01,-0.01,0.03,0,0,0,0,5,5,10.400094928861582,63.42006907416131,50,9765,114,100,71,3701,3701,4386,4389,0,17530,27,3713,697,0,false,false,false,false,false,false,false,false,false,false,0,0,0,0,48,62,62,48,944,945,944,945,940,940,940,940,0.0,0.0,0.0,0.0,1690.7,1684.6,1686.4,1690.1,0.0,0.0,0.0,0.0,0,0,0,0,-45.0,10.40010775237164,63.42006838749263,0,-100.18091,-100.032745,0.07210264,0.027218778,-0.97670287,0.97973883,0.08650864,-0.041517768,0.061852794,0.114163205,68,-369,1408,1457.0,-0.0010903939,-2.3320995E-4,6.0286425E-4,0.0012675925,0.0011150541020223288,0.010470821511974688,-1.7692879694488184,4.749874169719538,62.62190639679019,62.621906396790166,3.412283105201132,5.179318413751949,-0.505683457970469,60.34418684795494,0.6425697648252742,1.3450547392270866,-27.438987952120442,-24.283550420150938,42.44,NONE,0.0,0.0,0.0,NONE,-3.590016549514619E-11,-1.4457042860051215E-11,0.0,17.011,17.011,6.079,1.2422594,0,3340,4.25,12.0,1.241,91,29.9,OK,48,0,0,0,0,0,65,100,0.0,0,0.0,-4581.25,2.68E-43,0.0,-1.05007105E-23,62,5.49322E-5,-5.4932443E-5,3.196612E-32,False,False,0,None,1.2323693E30,1.0842106E-19,
202735847,52.690,10.400107716867184,63.42006904558457,19,-100.106926,-100.066895,0.07372724,0.028916158,-0.9800126,0.9832072,0.23065746,-0.017095823,0.15521373,0.2785434,74,-372,1405,1455.0,0.0041720183,-0.047323603,-0.0074275974,0.048084285,0.047507148682363956,-0.039901296001604504,-1.7229167156721334,4.308122484780899,65.00599256216418,65.00599256216418,3.497839621834023,5.047062660015487,-0.45571298841150076,61.342498628050386,0.6362586571837349,1.0966355142231201,20.733175474316226,23.88861300628573,42.73,,,10.4001088,63.4200691,20190429,103036,2019-04-29T10:30:36Z,35.534,0.61,1.26,9.34,10,9,19,0.0,0.01,0.02,0,0,0,0,5,5,10.400094928861582,63.42006907416131,50,83169,48,100,72,3697,3698,4374,4377,0,17478,22,212,3,0,false,false,false,false,false,false,false,false,false,false,0,0,0,0,48,61,61,48,944,946,944,945,940,940,940,940,0.0,0.0,0.0,0.0,1690.7,1685.8,1685.8,1690.7,0.0,0.0,0.0,0.0,0,0,0,0,-45.0,10.40010795987083,63.420068482702305,0,-100.165054,-100.03289,0.07356526,0.028875884,-0.97967464,0.9828571,0.16402787,0.07147215,0.3187577,0.36554053,74,-372,1408,1458.0,-0.0019854223,-0.00274454,-2.0112765E-4,0.0033933546,0.0033873887475164384,0.0113565423905795,-1.777152878567993,4.8098490335389,62.65419453965388,62.65419453965387,3.5678269106852225,5.376662695379953,-0.4891988354713245,59.57641619157988,0.6516682149477537,1.3918139062474217,26.639903222334603,29.79534075430411,42.71,NONE,0.0,0.0,0.0,NONE,-4.6311213665279146E-10,-1.874061111420868E-11,0.0,17.01,17.01,6.078,1.2423701,0,3339,4.25,12.0,1.243,91,30.0,OK,49,0,0,0,0,0,65,100,0.0,0,0.0,-88522.0,2.68E-43,0.0,-1.05007105E-23,62,5.49322E-5,-5.4932443E-5,3.2597314E-32,False,False,0,None,1.2605518E30,1.0842106E-19,
206614535,53.698,10.400108167970863,63.42006873906174,19,-99.86912,-100.06827,0.072659455,0.028862864,-0.9775787,0.9807,0.18626861,-0.0047288607,0.15799186,0.24429446,71,-372,1408,1458.0,-0.009320376,-0.014451188,-0.0074053407,0.018722856,0.017196112000516062,0.02328766230860464,-1.6891162205518324,4.304255106638521,65.00128572498608,65.00128572498608,3.590051611120031,5.282833695970657,-0.4964250131774211,61.782933064150704,0.6597478756663695,1.1470866276861365,148.20557735348402,151.36101488545353,43.08,,,10.400109,63.420069,20190429,103036,2019-04-29T10:30:36Z,35.466,0.61,1.26,9.32,10,9,19,-0.01,0.0,0.02,0,0,0,0,5,5,10.400094928861582,63.42006907416131,50,83169,48,100,73,3697,3698,4374,4377,0,17478,22,212,3,0,false,false,false,false,false,false,false,false,false,false,0,0,0,0,47,60,61,47,944,946,944,944,940,940,940,940,0.0,0.0,0.0,0.0,1690.7,1685.8,1686.4,1690.7,0.0,0.0,0.0,0.0,0,0,0,0,-45.0,10.400108335915371,63.42006830220525,0,-100.09636,-100.03302,0.07300028,0.028665774,-0.9776462,0.9807868,0.2036284,0.08606696,0.068610854,0.23147245,68,-369,1414,1462.0,-4.4103537E-4,-6.0159462E-5,7.6897535E-4,8.885125E-4,4.4511948980840944E-4,0.02677412062284278,-1.7834184477464072,4.7829107838001566,62.63635481944484,62.63635481944482,3.7195603907993764,5.604266900568925,-0.4628753186417926,60.12828974277369,0.6725508875527659,1.4427833311275529,67.0509418849615,70.20637941693101,43.1,NONE,0.0,0.0,0.0,NONE,1.854841879714127E-11,-6.934026113070071E-11,1.5258789E-5,17.009,17.009,6.077,1.2424916,0,3339,4.248,12.0,1.245,91,30.0,OK,50,0,0,0,0,0,65,100,0.0,0,0.0,-317.78906,2.68E-43,0.0,-1.05007105E-23,62,5.49322E-5,-5.4932443E-5,3.3488056E-32,False,False,0,None,1.3329133E30,1.0842106E-19,
210473217,54.701,10.400108468598551,63.420068844317846,19,-100.17034,-100.016914,0.0727517,0.028116632,-0.97630423,0.97941476,0.3348638,0.011673094,0.079556234,0.34438238,65,-369,1411,1459.0,-0.00822064,-0.021233292,-0.021275125,0.031161876,0.022769094277110758,-0.0038309266173208803,-1.6872462033568578,4.3132726389220695,64.99174345274893,64.99174345274895,3.742133865745446,5.518295584323031,-0.4818800090234275,62.31725439385681,0.6741367816266448,1.175745443287551,86.97612336649826,90.13156089846777,43.44,,,10.4001093,63.4200689,20190429,103038,2019-04-29T10:30:38Z,35.378,0.61,1.26,9.31,10,9,19,-0.01,0.0,0.02,0,0,0,0,5,5,10.400094928861582,63.42006907416131,50,83169,48,100,74,3697,3698,4374,4377,0,17478,22,212,3,0,false,false,false,false,false,false,false,false,false,false,0,0,0,0,47,60,61,47,944,946,944,944,940,940,940,940,0.0,0.0,0.0,0.0,1690.7,1685.8,1686.4,1690.7,0.0,0.0,0.0,0.0,0,0,0,0,-45.0,10.40010866144704,63.420068176113,0,-100.19148,-100.03302,0.07290692,0.028177194,-0.97634226,0.97946596,0.04178161,-0.17082117,0.033614997,0.17904061,65,-369,1411,1459.0,7.4923615E-4,-0.0010050896,0.0010186386,0.001615297,0.0012536187187497006,0.02010752782268388,-1.7974953286529691,4.789815902744252,62.61748199911176,62.61748199911176,3.8642209401590044,5.807996600610369,-0.4837628654501079,60.51684077538234,0.6905058164681575,1.4851739686114709,163.92870071378198,167.0841382457515,43.45,NONE,0.0,0.0,0.0,NONE,-1.15478865505878E-10,-5.354460318409388E-13,0.0,17.007,17.007,6.076,1.2426103,0,3338,4.248,12.0,1.239,91,30.0,OK,51,0,0,0,0,0,65,100,0.0,0,0.0,-878.125,2.68E-43,0.0,-1.05007105E-23,62,5.49322E-5,-5.4932443E-5,3.4618788E-32,False,False,0,None,1.4338827E30,1.0842106E-19,
214483903,55.743,10.400108812200235,63.4200686694026,19,-100.080505,-100.04188,0.072853096,0.027973399,-0.97693473,0.98004675,0.14097388,-0.04712093,0.2255213,0.27009976,71,-369,1405,1454.0,-0.010737756,-0.008504503,0.0028507777,0.013991173,0.013697663746488366,0.011144906167323936,-1.6977620192920408,4.340104752986853,64.99228351037355,64.99228351037357,3.8658224972726813,5.760147704418785,-0.5058939579463321,61.467376871956894,0.6922123237017213,1.213824561275531,-90.60446653038103,-87.44902899841152,43.67,,,10.4001098,63.4200688,20190429,103039,2019-04-29T10:30:39Z,35.285,0.61,1.26,9.28,10,9,19,-0.01,0.0,0.02,0,0,0,0,5,5,10.400094928861582,63.42006907416131,50,83169,48,100,75,3697,3698,4374,4377,0,17478,22,212,3,0,false,false,false,false,false,false,false,false,false,false,0,0,0,0,48,60,61,48,944,944,944,945,940,940,940,940,0.0,0.0,0.0,0.0,1690.7,1685.2,1685.8,1689.5,0.0,0.0,0.0,0.0,0,0,0,0,-45.0,10.40010905356613,63.42006821056518,0,-100.186195,-100.0331,0.07281183,0.027815495,-0.9768447,0.9799494,0.22878349,-0.061870415,-0.013064304,0.23736157,71,-369,1405,1454.0,-0.001585722,-0.003990535,6.336175E-4,0.004340548,0.004294052233144531,0.014779932086695691,-1.8309005576824342,4.842882470789587,62.631009915477634,62.63100991547765,4.023293024195025,5.967115891206783,-0.5163392581576675,59.5667858162816,0.7092869170997966,1.5600549948269227,77.14307858373026,80.29851611569977,43.65,NONE,0.0,0.0,0.0,NONE,-5.157657082500936E-10,-4.738697381968029E-11,0.0,17.007,17.007,6.077,1.2426374,0,3338,4.248,12.0,1.245,91,30.0,OK,52,0,0,0,0,0,65,100,0.0,0,0.0,-31.125977,2.68E-43,0.0,-1.05007105E-23,62,5.49322E-5,-5.4932443E-5,3.5387655E-32,False,False,0,None,1.5024724E30,1.0842106E-19,
218343048,56.746,10.400109376719744,63.42006849315855,19,-99.99066,-100.06996,0.07282307,0.028510794,-0.97681624,0.9799419,0.17597106,-0.060236238,0.08593654,0.20488852,71,-369,1405,1454.0,-0.005077037,-0.019095518,0.0075069442,0.021136919,0.019758924793508176,0.014387659860012298,-1.710877677817583,4.338770430375781,64.98694814299336,64.98694814299336,4.001235030301489,5.990483372041706,-0.4949275640294953,61.4472130662325,0.7217318494607997,1.2527762569407137,158.2737305851564,161.4291681171259,43.98,,,10.4001099,63.4200688,20190429,103039,2019-04-29T10:30:39Z,35.271,0.61,1.26,9.27,10,9,19,-0.01,-0.01,0.02,0,0,0,0,5,5,10.400094928861582,63.42006907416131,50,83171,114,100,76,3697,3698,4373,4377,0,17479,22,3701,5,0,false,false,false,false,false,false,false,false,false,false,0,0,0,0,48,61,61,47,945,945,944,946,940,940,940,940,0.0,0.0,0.0,0.0,1690.7,1684.6,1685.8,1691.4,0.0,0.0,0.0,0.0,0,0,0,0,-45.0,10.400109735756065,63.4200679727819,0,-100.0488,-100.03351,0.072704546,0.028387837,-0.97650975,0.979624,0.14315175,0.047416847,0.25301063,0.29454228,71,-369,1405,1454.0,-0.0011538981,-4.230426E-5,0.003756099,0.0039295736,0.0011546733136024796,0.04174229599758702,-1.8264727457381753,4.776507745001988,62.57842885715165,62.578428857151664,4.214369675706542,6.134520181918652,-0.5122679991084331,59.78999745144469,0.7468080273524687,1.6249852588838976,62.30096102163309,65.4563985536026,43.96,NONE,0.0,0.0,0.0,NONE,-2.2377769509570004E-10,4.015845238965564E-12,0.0,17.007,17.007,6.075,1.2426639,0,3338,4.248,12.0,1.242,91,30.0,OK,53,0,0,0,0,0,65,100,0.0,0,0.0,-0.05299282,2.68E-43,0.0,-1.05007105E-23,62,5.49322E-5,-5.4932443E-5,3.775971E-32,False,False,0,None,1.7140827E30,1.0842106E-19,
222304781,57.776,10.40011002604324,63.42006825835728,19,-100.286606,-100.08367,0.07343225,0.02792998,-0.9781566,0.9813067,0.29835445,0.13284703,0.18035355,0.37308326,68,-369,1411,1460.0,-0.0017613694,-0.040124357,0.009527049,0.04127749,0.04016299808657784,1.788424307364797E-4,-1.6993409122499346,4.356841917989527,64.9821542994381,64.9821542994381,4.111945476184768,6.231526587563143,-0.5258789924225994,61.739426271643666,0.7565985802949134,1.297691635823512,140.8423580602234,143.99779559219292,44.28,,,10.4001109,63.4200684,20190429,103041,2019-04-29T10:30:41Z,35.126,0.61,1.26,9.23,10,9,19,-0.01,-0.01,0.02,0,0,0,0,5,5,10.400094928861582,63.42006907416131,50,284828,16,100,77,3655,3705,4347,4356,-623,17397,25,0,17354,0,false,false,false,false,false,false,false,false,false,false,0,0,0,0,49,60,61,47,945,945,944,946,940,940,940,940,0.0,0.0,0.0,0.0,1689.5,1684.6,1685.2,1690.7,0.0,0.0,0.0,0.0,0,0,0,0,-45.0,10.400110219292413,63.4200677727334,0,-100.212616,-100.032776,0.07330164,0.027698655,-0.97830814,0.9814414,0.1954471,-0.041845616,0.12111997,0.23371066,68,-369,1411,1460.0,3.191189E-4,3.471019E-4,-0.001263379,0.0013484965,4.715046136405033E-4,0.031351013720743386,-1.818303347294083,4.757153089673586,62.54790765173218,62.5479076517322,4.34636038792083,6.334477823737579,-0.5229145519758402,60.18475215005279,0.774397067263659,1.688135214456618,16.432910910191588,19.58834844216109,44.28,NONE,0.0,0.0,0.0,NONE,2.991680396544815E-11,1.1779812700444288E-11,0.0,17.007,17.007,6.075,1.2428081,0,3337,4.248,12.0,1.248,91,30.0,OK,54,0,0,0,0,0,65,100,0.0,0,0.0,-6.2540174E-4,2.68E-43,0.0,-1.05007105E-23,62,5.49322E-5,-5.4932443E-5,3.9983556E-32,False,False,0,None,1.91254E30,1.0842106E-19,
226198509,58.788,10.40011063814024,63.420067973189056,19,-100.42929,-100.08727,0.0722219,0.027834035,-0.97738916,0.980449,0.2718871,0.008809484,0.20708774,0.34188527,62,-369,1405,1453.0,9.477814E-5,-0.071774185,0.003136914,0.07184277,0.0717742458635149,-0.028328868731757238,-1.6935676166979787,4.34587607469813,64.97010482264223,64.97010482264221,4.249178306353439,6.471873190627826,-0.518756910544984,62.68225318604354,0.791124439368631,1.344082288103641,109.03250990680549,112.187947438775,44.6,,,10.4001116,63.4200682,20190429,103042,2019-04-29T10:30:42Z,35.068,0.61,1.26,9.17,10,9,19,-0.01,-0.01,0.02,0,0,0,0,5,5,10.400094928861582,63.42006907416131,50,284829,20,99,78,3655,3705,4323,4341,-1422,17247,25,2,17354,0,false,false,false,false,false,false,false,false,false,false,0,0,0,0,48,61,60,48,945,945,944,946,940,940,940,940,0.0,0.0,0.0,0.0,1689.5,1685.2,1684.6,1688.9,0.0,0.0,0.0,0.0,0,0,0,0,-45.0,10.400110895499104,63.4200674003803,0,-100.165054,-100.03378,0.07305618,0.027879909,-0.9796358,0.9827516,0.21939103,0.017202634,0.25261354,0.3350253,65,-369,1405,1454.0,4.7719487E-4,0.0010496896,0.0011488401,0.0016276968,0.0011530668875023972,0.05156586316115253,-1.7880419702076855,4.704513510493966,62.482397360182986,62.48239736018297,4.468530758643985,6.559253040731849,-0.5753432127855538,60.897193423229965,0.8159103365669118,1.7652712722125592,131.485777153597,134.64121468556652,44.65,NONE,0.0,0.0,0.0,NONE,-7.898036187797957E-11,-3.3197653976282595E-11,0.0,17.007,17.007,6.076,1.243137,0,3337,4.248,12.0,1.245,91,30.0,OK,55,0,0,0,0,0,65,100,0.0,0,0.0,-6.410264E-7,2.68E-43,0.0,-1.05007105E-23,62,5.49322E-5,-5.4932443E-5,4.2525633E-32,False,False,0,None,2.1393925E30,1.0842106E-19,
230057422,59.791,10.400111884703172,63.42006771595434,19,-100.006516,-100.127235,0.07402771,0.02838074,-0.9789744,0.98217946,0.34956792,-0.10810021,0.05308912,0.3697321,68,-369,1405,1454.0,0.0026644904,-0.0153087,0.013466952,0.020562457,0.015538847983050942,0.052561768177012316,-1.7263807042652872,4.321466123460748,64.9493358855633,64.9493358855633,4.413061775137939,6.761282443029709,-0.5345177602159545,61.88239337666479,0.8570278881436442,1.4179033023284187,85.78936767900589,88.9448052109754,44.89,,,10.4001124,63.420068,20190429,103043,2019-04-29T10:30:43Z,35.06,0.61,1.26,9.13,10,9,19,0.0,0.01,0.01,0,0,0,0,5,5,10.400094928861582,63.42006907416131,50,284829,20,99,78,3655,3705,4323,4341,-1422,17247,25,2,17354,0,false,false,false,false,false,false,false,false,false,false,0,0,0,0,48,62,61,48,944,945,944,945,940,940,940,940,0.0,0.0,0.0,0.0,1691.4,1685.2,1685.8,1691.4,0.0,0.0,0.0,0.0,0,0,0,0,-45.0,10.40011206678799,63.42006723269298,0,-100.02237,-100.03351,0.073886506,0.028499424,-0.97892445,0.9821224,0.243844,0.14158562,0.1859468,0.33776116,68,-369,1405,1454.0,0.0021283806,-3.4110705E-4,-0.0012418412,0.002487675,0.0021555412001554395,0.058852951216104815,-1.7914690882604867,4.697923396772771,62.45452690547036,62.454526905470345,4.576822087229068,6.756236647441508,-0.538640144413486,60.5113177034393,0.8769166835991916,1.85152002314259,112.41571847326041,115.57115600522992,44.89,NONE,0.0,0.0,0.0,NONE,6.162861506201115E-11,-2.0614672228095473E-11,0.0,17.007,17.007,6.076,1.2435778,0,3337,4.248,12.0,1.246,91,30.0,OK,56,0,0,0,0,0,65,100,0.0,0,0.0,-9.1013135E-8,2.68E-43,0.0,-1.05007105E-23,62,5.49322E-5,-5.4932443E-5,4.6395548E-32,False,False,0,None,2.4847391E30,1.0842106E-19,mcID(SN)|298DG13001W644
233952662,60.803,10.400112932549673,63.42006766952007,19,-100.38173,-100.12279,0.072985895,0.02777924,-0.9781218,0.9812344,0.29747736,-0.014450878,0.13657147,0.32764825,68,-369,1405,1454.0,0.0062085832,-0.030324932,-0.011729219,0.0331017,0.030953966479414837,0.02079594884129776,-1.6943048223286592,4.30212654160036,64.94341836187598,64.94341836187596,4.5416100824384875,7.00832502380786,-0.5599767224131077,62.00670668625147,0.9092654143469941,1.4750676893114827,105.00383833201187,108.15927586398138,45.19,,,10.4001139,63.4200678,20190429,103044,2019-04-29T10:30:44Z,35.13,0.61,1.26,9.06,10,9,19,0.0,0.01,0.0,0,0,0,0,5,5,10.400094928861582,63.42006907416131,50,284829,20,99,78,3655,3705,4323,4341,-1422,17247,25,2,17354,0,false,false,false,false,false,false,false,false,false,false,0,0,0,0,49,61,60,49,944,945,944,945,940,940,940,940,0.0,0.0,0.0,0.0,1690.7,1684.6,1684.6,1689.5,0.0,0.0,0.0,0.0,0,0,0,0,-45.0,10.400113254966355,63.420067042222,0,-100.344734,-100.03342,0.07305391,0.027814832,-0.97878414,0.9819007,0.3054475,0.08985438,0.08990483,0.33083963,68,-372,1408,1457.0,-7.4920384E-4,-3.9418024E-4,-0.0016076262,0.0018169058,8.465722040309107E-4,0.061182749034843595,-1.7755969253656778,4.69985606831235,62.444657413899414,62.44465741389939,4.706029947156577,6.973205738118292,-0.5233193357000898,60.719631635850924,0.9393687548438594,1.9394466071722434,108.29873553242432,111.45417306439383,45.18,NONE,0.0,0.0,0.0,NONE,2.8121795164961425E-11,8.91517643116474E-11,0.0,17.006,17.006,6.076,1.2442561,0,3336,4.248,12.0,1.257,91,30.0,OK,57,0,0,0,0,0,65,100,0.0,0,0.0,-1.1199063E-8,2.68E-43,0.0,-1.05007105E-23,62,5.49322E-5,-5.4932443E-5,5.1377584E-32,False,False,0,None,3.1382554E30,1.0842106E-19,mcVer|v3.4.1.6
