Tick#,offsetTime,IMU_ATTI(0):Longitude,IMU_ATTI(0):Latitude,IMU_ATTI(0):numSats,IMU_ATTI(0):barometer:Raw,IMU_ATTI(0):barometer:Smooth,IMU_ATTI(0):accel:X,IMU_ATTI(0):accel:Y,IMU_ATTI(0):accel:Z,IMU_ATTI(0):accel:Composite,IMU_ATTI(0):gyro:X,IMU_ATTI(0):gyro:Y,IMU_ATTI(0):gyro:Z,IMU_ATTI(0):gyro:Composite,IMU_ATTI(0):mag:X,IMU_ATTI(0):mag:Y,IMU_ATTI(0):mag:Z,IMU_ATTI(0):mag:Mod,IMU_ATTI(0):velN,IMU_ATTI(0):velE,IMU_ATTI(0):velD,IMU_ATTI(0):velComposite,IMU_ATTI(0):velH,IMU_ATTI(0):GPS-H,IMU_ATTI(0):roll,IMU_ATTI(0):pitch,IMU_ATTI(0):yaw,IMU_ATTI(0):yaw360,IMU_ATTI(0):totalGyro:Z,IMU_ATTI(0):totalGyro:X,IMU_ATTI(0):totalGyro:Y,IMU_ATTI(0):magYaw,IMU_ATTI(0):distanceHP,IMU_ATTI(0):distanceTravelled,IMU_ATTI(0):directionOfTravel[mag],IMU_ATTI(0):directionOfTravel[true],IMU_ATTI(0):temperature,General:relativeHeight,General:absoluteHeight,GPS(0):Long,GPS(0):Lat,GPS(0):Date,GPS(0):Time,GPS:dateTimeStamp,GPS(0):heightMSL,GPS(0):hDOP,GPS(0):pDOP,GPS(0):sAcc,GPS(0):numGPS,GPS(0):numGLNAS,GPS(0):numSV,GPS(0):velN,GPS(0):velE,GPS(0):velD,RC:Aileron,RC:Elevator,RC:Rudder,RC:Throttle,Controller:navHealth,Controller:ctrl_level,HP:Longitude,HP:Latitude,HP:rthHeight,BatBlackBox:tick,BatBlackBox:id,BatBlackBox:rsoc,BatBlackBox:index,BatBlackBox:rm,BatBlackBox:fcc,BatBlackBox:cell_min,BatBlackBox:cell_max,BatBlackBox:current,BatBlackBox:voltage,BatBlackBox:temp,BatBlackBox:flag,BatBlackBox:reserve,BatBlackBox:user_data,OA:avoidObst,OA:emergBrake,OA:radiusLimit,OA:airportLimit,OA:groundForceLanding,OA:horizNearBoundary,OA:vertLowLimit,OA:vertAirportLimit,OA:roofLimit,OA:hitGroundLimit,Motor:Speed:RFront,Motor:Speed:LFront,Motor:Speed:LBack,Motor:Speed:RBack,Motor:EscTemp:RFront,Motor:EscTemp:LFront,Motor:EscTemp:LBack,Motor:EscTemp:RBack,Motor:PPMrecv:RFront,Motor:PPMrecv:LFront,Motor:PPMrecv:LBack,Motor:PPMrecv:RBack,Motor:PPMsend:RFront,Motor:PPMsend:LFront,Motor:PPMsend:LBack,Motor:PPMsend:RBack,Motor:V_out:RFront,Motor:V_out:LFront,Motor:V_out:LBack,Motor:V_out:RBack,Motor:Volts:RFront,Motor:Volts:LFront,Motor:Volts:LBack,Motor:Volts:RBack,Motor:Current:RFront,Motor:Current:LFront,Motor:Current:LBack,Motor:Current:RBack,Motor:Status:RFront,Motor:Status:LFront,Motor:Status:LBack,Motor:Status:RBack,Motor:thrustAngle,IMU_ATTI(1):Longitude,IMU_ATTI(1):Latitude,IMU_ATTI(1):numSats,IMU_ATTI(1):barometer:Raw,IMU_ATTI(1):barometer:Smooth,IMU_ATTI(1):accel:X,IMU_ATTI(1):accel:Y,IMU_ATTI(1):accel:Z,IMU_ATTI(1):accel:Composite,IMU_ATTI(1):gyro:X,IMU_ATTI(1):gyro:Y,IMU_ATTI(1):gyro:Z,IMU_ATTI(1):gyro:Composite,IMU_ATTI(1):mag:X,IMU_ATTI(1):mag:Y,IMU_ATTI(1):mag:Z,IMU_ATTI(1):mag:Mod,IMU_ATTI(1):velN,IMU_ATTI(1):velE,IMU_ATTI(1):velD,IMU_ATTI(1):velComposite,IMU_ATTI(1):velH,IMU_ATTI(1):GPS-H,IMU_ATTI(1):roll,IMU_ATTI(1):pitch,IMU_ATTI(1):yaw,IMU_ATTI(1):yaw360,IMU_ATTI(1):totalGyro:Z,IMU_ATTI(1):totalGyro:X,IMU_ATTI(1):totalGyro:Y,IMU_ATTI(1):magYaw,IMU_ATTI(1):distanceHP,IMU_ATTI(1):distanceTravelled,IMU_ATTI(1):directionOfTravel[mag],IMU_ATTI(1):directionOfTravel[true],IMU_ATTI(1):temperature,IMUEX(0):err,IMUEX(0):rtk_Longitude,IMUEX(0):rtk_Latitude,IMUEX(0):rtk_Alti,IMUEX(1):err,IMUEX(1):rtk_Longitude,IMUEX(1):rtk_Latitude,IMUEX(1):rtk_Alti,MotorCtrl:Status,MotorCtrl:PWM:RFront,MotorCtrl:PWM:LFront,MotorCtrl:PWM:LBack,MotorCtrl:PWM:RBack,BattInfo:Voltage,BattInfo:BatVoltage,BattInfo:AdVoltage,BattInfo:AvgCurrent,BattInfo:R_time,BattInfo:R_CAP_MAH,BattInfo:LowCellVoltage,BattInfo:LowCellVolThreshold,BattInfo:BatCurrent,BattInfo:Remaining%,BattInfo:Temp,BattInfo:status,battery_info:BatDynCnt,battery_info:Vol1Protect,battery_info:Vol2Protect,battery_info:Cap1Protect,battery_info:Cap2Protect,battery_info:Batpresent,battery_info:sopPercentage,battery_info:sopValue,battery_info:sopScale,battery_info:sopFlg,BattInfo:WindHeading:WindDir,battery_info:home_dir,BattInfo:Wind:rangeMin,BattInfo:Wind:rangeMax,battery_info:cap_speed,battery_info:against_wind,battery_info:emergency_land_cap,battery_info:intel_bat_land_cap,battery_info:intel_bat_gh_cap,BattInfo:Smart:SmartGh,BattInfo:Smart:SmartLand,BattInfo:GoHome:CntDown,BattInfo:GoHome:GhCmd,BattInfo:GoHome:CapLevel,BattInfo:GoHome:LandCapLv,Attribute|Value,ConvertDatV3,3.6.6-Tablet
94515386,.000,9.295105488397505,62.64870682241762,13,495.18658,495.38513,0.09047235,-0.013060161,-0.9768432,0.9811108,0.263988,-0.09363273,-0.0144834025,0.28047553,121,-408,1470,1530.0,-0.011429978,-0.0019605248,0.02067419,0.023704644,0.011596898026669656,-0.011596898026669656,0.7580872013100589,5.290617384227135,63.33187037989589,63.33187037989592,0.5935474919741865,2.5140608441128043,0.14012283304692635,59.12781265230527,1.9641226346523186,1.8141057259154716,170.56176462019437,173.15608370908384,30.37,,,9.2951062,62.6487074,20190821,195945,2019-08-21T19:59:45Z,585.38,0.87,1.53,10.74,6,7,13,0.0,0.0,0.01,-9998,-9998,9998,-9998,4,4,9.295094275814265,62.648723718289865,120,3318172,114,81,333,2789,3459,4178,4189,-14,16713,30,3454,2,0,false,false,false,false,false,false,false,false,false,false,0,0,0,0,42,53,52,42,945,945,944,946,940,940,940,940,0.0,0.0,0.0,0.0,1552.1,1546.0,1544.7,1552.1,0.0,0.0,0.0,0.0,0,0,0,0,-45.0,9.295105530980754,62.64870661701954,0,495.18393,495.34695,0.09068941,-0.012665718,-0.977326,0.98160636,0.36839446,0.09285146,-0.01109142,0.3800775,121,-408,1470,1530.0,8.1595185E-4,-9.949945E-4,-4.0898434E-4,0.0013502073,0.001286775618843132,-0.001286775618843132,0.7859745921852503,5.139136977073905,58.425292331717756,58.42529233171774,0.7653935906547932,2.577397650476277,0.21118086051715595,59.55079782679099,1.986608708358169,1.955719895647094,-0.8333247460523601,1.7609943428371269,30.36,NONE,0.0,0.0,0.0,NONE,2.9183749847005297E-10,4.4324937330552794E-11,0.0,,,,,,15.599,15.599,5.572,1.3127837,0,1822,3.896,12.0,1.331,54,23.5,OK,22,0,0,0,0,0,65,100,0.0,0,0.0,-4.761091E-26,2.66E-43,0.0,-5.9807744E7,62,8.640172E-13,-8.640208E-13,1.5511479E-35,False,False,0,None,7.794403E34,1.0842106E-19,Firmware Date| Oct 17 2018
98369561,1.002,9.29510560797298,62.64870698014057,13,495.28278,495.39764,0.09178172,-0.015052317,-0.97797936,0.982392,-0.114158705,0.09798663,0.5238819,0.5450558,121,-414,1470,1531.0,-0.0056951633,-0.013914341,0.019098146,0.024306027,0.015034752273001096,0.003505514061646585,0.7418033241904622,5.285107932480924,63.32038242171638,63.320382421716374,0.2601044566239015,2.926813787705509,0.07431529674258774,59.467564344029924,1.9491595079730417,1.86263328482504,-87.13390503219567,-84.53958594330618,30.66,-0.13436912109375498,,9.2951062,62.6487073,20190821,195946,2019-08-21T19:59:46Z,585.338,0.87,1.53,10.57,6,7,13,-0.01,0.02,0.01,0,0,0,0,4,4,9.295094275814265,62.648723718289865,120,3329672,114,80,334,2731,3455,4162,4173,-13,16649,30,3459,2,0,false,false,false,false,false,false,false,false,false,false,280,277,272,265,46,58,57,46,1393,1400,1396,1396,1382,1382,1382,1382,0.1,0.1,0.1,0.1,1526.4,1520.2,1519.6,1525.8,7.23,6.68,7.41,6.83,0,0,0,0,168.69006752597977,9.295105400451556,62.64870661262396,0,495.28278,495.3331,0.09165619,-0.014918269,-0.97790974,0.982309,0.5992892,0.071034096,0.33132356,0.6884538,121,-414,1470,1531.0,0.004248836,0.001368599,0.01772579,0.018279204,0.004463817887275467,0.0022113052356418526,0.7885875426904133,5.108615343594453,58.368733419811115,58.36873341981112,0.6619933972309293,3.2110858432472043,0.1992820828507587,59.978898518804684,1.9851571587368781,2.024820756417619,-15.43788984910812,-12.843570760218633,30.67,NONE,0.0,0.0,0.0,NONE,1.511535440735041E-10,2.962162327671248E-10,9.1552734E-5,1,22.5,22.5,22.5,22.5,15.582,15.582,5.482,1.3120222,0,1822,3.897,12.0,1.322,54,23.5,OK,23,0,0,0,0,0,65,100,0.0,0,0.0,-5.476371E-27,2.66E-43,0.0,-5.9807744E7,62,8.640172E-13,-8.640208E-13,6.881823E-35,False,False,0,None,1.2440216E36,1.0842106E-19,ACType|MavicEnterprise
102271035,2.016,9.295105152517833,62.648707123525874,13,495.28278,495.39297,0.08508812,-0.01077362,-0.98794407,0.99166,0.96894825,0.9534835,2.6309402,2.9613912,124,-411,1467,1528.0,0.004605202,0.0015569258,0.01594407,0.01666869,0.0048612655633323894,0.022956599119815776,0.6881754023592092,5.195990594457355,63.240363893393734,63.24036389339375,0.6939311851024259,2.5472856264749213,1.2720777454280365,59.16069229374823,1.9271034999110688,1.9147138288153531,-114.75601655354541,-112.16169746465592,30.92,-0.13436912109375498,,9.2951062,62.6487074,20190821,195947,2019-08-21T19:59:47Z,585.343,0.87,1.53,10.44,6,7,13,0.02,0.0,-0.01,0,0,0,0,4,4,9.295094275814265,62.648723718289865,120,3357272,114,76,335,2600,3456,4124,4135,-14,16498,29,3455,3,0,false,false,false,false,false,false,false,false,false,false,2073,2102,2174,2163,47,58,58,47,1209,1208,1215,1220,1200,1201,1211,1208,0.0,0.0,0.0,0.0,1548.4,1542.9,1541.7,1548.4,0.0,0.04,0.08,0.01,0,0,0,0,13.869686438505028,9.295105241693111,62.64870684797491,0,495.28278,495.30823,0.093468845,-0.019717883,-0.9733008,0.9779774,2.038254,5.6703887,3.5168204,6.9768057,124,-411,1470,1531.0,0.0027083324,0.005756466,0.010696274,0.0124451695,0.006361758289346919,0.020658474266499853,0.8008404037433658,5.104570168278602,58.21008468759526,58.21008468759527,-0.9815390148635315,3.494042878330906,1.2164515934160778,59.539507818171494,1.9577607414816531,2.1315093014363757,33.1584874103241,35.752806499213584,30.92,NONE,0.0,0.0,0.0,NONE,-9.087602772824424E-11,-1.842557165708099E-10,6.1035156E-5,2,10.36,10.0,12.54,13.07,15.384,15.384,5.554,1.3831894,0,1821,3.896,12.0,4.841,54,23.5,OK,24,0,0,0,0,0,65,100,0.0,0,0.0,-4.1534513E-27,2.66E-43,0.0,-5.9807744E7,62,8.640172E-13,-8.640208E-13,6.078373E-35,False,False,0,None,1.0370396E36,1.0842106E-19,geoDeclination|259 degrees
106126513,3.018,9.29510596093586,62.648707100977624,13,495.28278,495.408,-0.017865317,0.010055163,-1.0291631,1.0293673,-2.3455815,-48.393295,5.9823995,48.81805,218,-414,1449,1522.0,-0.02041902,0.016158434,-0.08369714,0.08765411,0.026039035237003617,0.015253939189707886,0.6575637675836852,-1.4793391014118586,63.42179518661394,63.42179518661396,2.3658930396981788,1.9175493064028295,-7.708148537924602,67.24117642913492,1.9418011168957237,1.9991577343926552,103.39855248617579,105.99287157506528,31.23,-0.13436912109375498,,9.2951063,62.6487071,20190821,195948,2019-08-21T19:59:48Z,585.29,0.87,1.53,10.34,6,7,13,0.0,0.0,0.01,0,0,0,5419,4,4,9.295094275814265,62.648723718289865,120,3376172,114,73,336,2504,3461,4098,4109,-14,16396,29,3456,1,0,false,false,false,false,false,false,false,false,false,false,2073,2102,2174,2163,47,58,58,47,1209,1208,1215,1220,1200,1201,1211,1208,0.0,0.0,0.0,0.0,1548.4,1542.9,1541.7,1548.4,0.0,0.04,0.08,0.01,0,0,0,0,13.869686438505028,9.295105586785782,62.64870651661418,0,495.28278,495.32315,-0.016365906,0.008980491,-1.0310252,1.0311942,-8.322935,-51.21106,3.064801,51.973423,197,-414,1449,1519.0,-0.012127333,0.01790137,-0.09678955,0.09917534,0.021622471334753698,0.019141423540180617,0.6750177489155881,-1.4259940486745055,58.42092784400226,58.42092784400228,-1.880417577273044,3.5184567994441402,-4.081462724938015,69.5182563466593,1.9981206357889458,2.2183028745809623,-160.2686125879045,-157.67429349901502,31.25,NONE,0.0,0.0,0.0,NONE,8.051386564011297E-10,-2.7147926242710336E-10,-2.1362305E-4,2,59.58,60.97,41.25,43.39,15.505,15.505,5.444,1.5852869,0,1820,3.838,12.0,2.319,54,23.5,OK,25,0,0,0,0,0,65,100,0.0,0,0.0,-3.6964444E-26,2.66E-43,0.0,-5.9807744E7,62,8.640172E-13,-8.640208E-13,7.18275E-35,False,False,0,None,1.3215815E36,1.0842106E-19,geoInclination|7433 degrees
110007114,4.026,9.295106051020078,62.64870659592467,13,496.34464,496.1225,-0.013679813,0.008341723,-1.0738522,1.0739717,2.5413926,-4.0796504,-1.9377987,5.1824017,259,-454,1437,1529.0,-0.0023619076,-0.030598184,-1.5740712,1.5743703,0.030689207969635104,0.025180643165166543,-0.7828890000411669,-0.2167213885182863,63.719496938733286,63.7194969387333,1.3514394756595698,-4.845586727320259,-7.697417060586192,59.72539441823855,0.042771238711902554,2.1144882688602564,-125.6245881795584,-123.03026909066891,31.52,0.92749000976562,,9.2951067,62.648707,20190821,195949,2019-08-21T19:59:49Z,585.876,0.87,1.53,10.25,6,7,13,-0.06,0.05,-0.62,0,0,0,6363,4,4,9.29510536395507,62.64870681571952,120,3383672,114,72,337,2460,3448,4088,4099,-14,16355,30,3461,3,0,false,false,false,false,false,false,true,false,false,false,6296,6370,5105,5239,45,56,56,45,1668,1675,1523,1548,1658,1665,1519,1532,0.0,0.0,0.0,0.0,1483.4,1476.7,1477.3,1483.4,5.61,4.88,3.51,3.2,0,0,0,0,-178.51981827943803,9.295106400200547,62.64870609996611,0,496.64322,496.27182,-0.013485291,0.0033921106,-1.0152436,1.0153389,7.9930897,0.5808903,5.953047,9.983271,256,-451,1419,1510.0,-0.04076014,-0.024613423,-1.6853094,1.6859819,0.047615226692716395,0.014092683351769525,-0.5136427509575238,-0.4190566114973765,59.198880530925074,59.19888053092507,0.2244944197305089,8.16945022532404,-4.313999463720381,60.735306973404896,0.09558702691288593,2.3960745715227416,-143.4697673674393,-140.8754482785498,31.62,NONE,0.0,0.0,0.0,NONE,1.0615979531702573E-9,-7.369475172998988E-10,-0.0033874512,2,64.36,65.37,47.54,50.14,15.272,15.272,5.295,1.8747829,0,1819,3.884,12.0,4.823,54,23.5,OK,26,0,0,0,0,0,65,100,0.0,0,0.0,7.3016368E16,2.68E-43,0.0,-5.9807744E7,62,2.229994E-12,-1.4215091E-12,2.2047788E-38,False,False,0,None,4.144101E29,1.7549879E-19,geoIntensity|5165645 nanoTesla
113865586,5.029,9.295102381339241,62.648705762452835,13,497.9032,497.6912,-0.013819542,0.013828347,-1.1055608,1.1057336,14.06427,1.0055335,8.871164,16.6587,276,-448,1413,1507.0,0.041024018,-0.020658722,-1.6938727,1.6944953,0.04593204728676572,0.16261706780399215,-0.6307784639113561,-0.8058023276958073,63.69481590981267,63.69481590981269,0.3048098543626573,-7.055292007903783,-8.788837361577711,59.37035518514075,0.19218470430283444,2.344027274402941,-96.0034971475296,-93.40917805864011,31.89,2.486053242187495,,9.2951041,62.648706,20190821,195950,2019-08-21T19:59:50Z,587.384,0.87,1.53,10.12,6,7,13,-0.03,-0.06,-1.08,0,0,0,6589,4,4,9.29510536395507,62.64870681571952,120,3402070,114,69,338,2368,3442,4065,4075,-15,16264,30,3448,2,0,false,false,false,false,false,false,true,false,false,false,5691,5856,4651,4827,45,56,56,44,1577,1599,1468,1485,1569,1580,1458,1477,0.0,0.0,0.0,0.0,1503.1,1495.7,1497.6,1502.5,3.99,3.56,2.67,2.3,0,0,0,0,-179.69538538593767,9.295102570576317,62.648705512560525,0,497.87943,497.4502,-0.014659515,0.017632995,-1.101834,1.1020726,-8.214845,2.4110615,-5.912943,10.404796,279,-451,1416,1512.0,-0.0077218777,-0.010184327,-1.5587802,1.5588326,0.012780763335533003,0.19290594978877287,-0.5198428539451398,-0.7796010850296611,59.098376654262076,59.0983766542621,0.4739092217141393,9.96255039296808,-4.793560038843989,59.34760945460199,0.20337878101638446,2.709976171137653,-112.53030322225196,-109.93598413336247,31.88,NONE,0.0,0.0,0.0,NONE,-5.65685321506204E-10,-2.3450339980895883E-10,-0.0035705566,2,69.65,70.79,52.48,53.8,14.948,14.948,5.275,2.3640893,0,1817,3.805,12.0,10.653,53,23.5,OK,27,0,0,0,0,0,65,100,0.0,0,0.0,1.1298621E28,8.8E-44,0.0,-5.9807744E7,62,1.0185186E-11,-3.0011694E-12,5.3900637E-38,False,False,0,None,2.1288313E30,3.5410777E-19,dateTime|2019-8-21 19:59:35 GMT
117732198,6.034,9.29509913557021,62.64870467232683,12,502.01962,500.94266,-0.01699836,0.017186344,-1.0593973,1.0596731,-3.3847015,-86.84572,-2.0797307,86.93653,-307,-485,1404,1516.0,-0.57299745,-1.2809736,-4.218891,4.4461513,1.403288753953712,-1.1988923281132817,-1.1401138210851574,16.798784572435153,63.71832294264957,63.71832294264959,-1.1138524584149707,-6.484802040176538,6.489294162976686,75.9236570490829,0.3975570105420067,2.5823120812796407,-114.87517336894663,-112.28085428005714,32.23,6.60247780273437,,9.2951016,62.6487062,20190821,195952,2019-08-21T19:59:52Z,590.711,0.88,1.61,10.0,6,6,12,-0.19,-0.37,-2.72,0,-7957,-282,10000,4,4,9.29510536395507,62.64870681571952,120,3420764,114,66,339,2275,3458,4045,4056,-14,16187,30,3442,4,0,false,false,false,false,false,false,true,false,false,false,6700,6868,5704,5941,44,57,57,43,1727,1723,1609,1653,1718,1718,1604,1635,0.0,0.0,0.0,0.0,1457.7,1451.5,1452.2,1457.7,6.27,5.58,4.68,4.72,0,0,0,0,-177.94502680481136,9.295099983345668,62.64870456253788,0,501.9245,500.37692,-0.016592655,0.016317494,-1.0587128,1.0589685,0.93867886,-86.5501,0.43337977,86.55628,-322,-485,1398,1514.0,-0.7220051,-1.0568813,-3.9903488,4.190605,1.2799568163024568,-1.1115806966701955,-0.7302259588234258,17.144412463479345,59.064439900229374,59.06443990022939,2.209127741943281,10.789856798239569,14.962553938187588,77.19203885980897,0.3719312278553096,3.106298880163304,-123.78878266727352,-121.19446357838403,32.25,NONE,0.0,0.0,0.0,NONE,-7.948506331352295E-9,-2.4796853409599907E-9,-0.009399414,2,74.26,74.94,60.39,61.82,14.795,14.795,5.225,3.2404947,0,1814,3.805,12.0,11.34,53,23.5,OK,28,0,0,0,0,0,65,100,0.0,0,0.0,7.5460627E18,8.8E-44,0.0,3.3654391E38,63,2.5880809E-10,-1.4636408E-11,1.5389121E-37,False,False,0,None,1.4811643E31,1.58867E-18,
121774169,7.084,9.295083046299593,62.64870598433566,13,505.52463,504.79956,0.006854429,0.005671369,-0.55489284,0.5549642,1.5883904,1.8524687,-1.6113766,2.9242365,372,-408,1431,1533.0,0.013133175,-0.35654226,-2.4271574,2.4532404,0.35678406386891737,0.43790595972551183,0.057178565660850236,-3.6485508873558286,63.22078032627797,63.220780326277975,-2.767219722257157,-6.553334281459782,-14.591414230431718,55.612629389761196,1.1439047414861028,3.4769793641120055,-60.09749863484624,-57.503179545956755,32.48,10.10748268554687,,9.2950862,62.6487069,20190821,195952,2019-08-21T19:59:52Z,594.59,0.87,1.53,9.83,6,7,13,-0.05,-0.55,-3.52,0,0,0,0,4,4,9.29510536395507,62.64870681571952,120,3438857,114,64,340,2196,3459,4015,4029,-12,16072,30,3458,2,0,false,false,false,false,false,false,true,false,false,false,4953,5006,3972,4075,45,58,58,44,1507,1512,1407,1414,1496,1499,1396,1409,0.0,0.0,0.0,0.0,1511.1,1504.9,1504.9,1510.4,3.1,2.62,1.94,1.49,0,0,0,0,-178.50202081080548,9.295084590838725,62.64870597413735,0,505.3555,504.12024,0.00682339,0.0047692033,-0.5562552,0.5563175,-0.8134532,4.606224,-0.18583925,4.6811905,372,-408,1434,1536.0,-0.0667233,-0.29481664,-2.2565167,2.2766721,0.3022728139377869,0.46106960382603296,0.5864863410634165,-4.016221619944341,66.99219038212846,66.99219038212846,2.184197797212353,13.980848230430805,-5.576937736924197,57.33769487954673,1.0653736144082029,4.112302973776045,-56.41358218460059,-53.81926309571111,32.5,NONE,0.0,0.0,0.0,NONE,-1.46700765076454E-8,-9.056212201438987E-10,-0.006866455,2,46.86,46.45,32.67,35.17,14.788,14.788,5.408,4.4886866,0,1811,3.755,12.0,13.792,53,23.6,OK,29,0,0,0,0,0,65,100,0.0,0,0.0,-0.33441925,8.8E-44,0.0,3.3654391E38,63,3.585228E-8,-1.806209E-10,1.4563736E-35,False,False,0,None,7.1839027E34,1.5828189E-17,
125624314,8.085,9.295083889373466,62.64870984341166,13,506.45532,505.66675,2.915177E-4,0.008369882,-0.96471953,0.9647559,2.2496474,2.9761813,3.4110954,5.05511,335,-390,1437,1526.0,0.08770865,-0.2223823,-0.12463687,0.26959422,0.2390537559555705,0.19193820025390068,0.6541100531182453,-2.4769097722687197,64.33241083779558,64.33241083779558,-2.0546569998287967,-4.093171535940502,-13.423130140551649,56.128638926870664,1.1475860465215588,3.92850936246814,34.069321004116325,36.66364009300581,32.8,11.038177265624995,,9.2950851,62.6487095,20190821,195954,2019-08-21T19:59:54Z,595.523,0.87,1.53,9.69,6,7,13,0.05,-0.3,-1.7,0,0,0,0,4,4,9.29510536395507,62.64870681571952,120,3455147,114,62,341,2125,3455,3992,4003,-14,15976,29,3459,2,0,false,false,false,false,false,false,false,false,false,false,5771,5919,4448,4732,45,58,58,45,1615,1634,1464,1496,1608,1621,1456,1491,0.0,0.0,0.0,0.0,1489.6,1481.6,1481.6,1489.0,4.79,4.52,2.96,2.53,0,0,0,0,-176.89856020834844,9.295084622177662,62.648709665353216,0,506.3866,505.01892,-4.041337E-4,0.009565973,-0.9629387,0.96298635,1.3143561,-2.393449,-1.3441323,3.0434885,335,-390,1434,1523.0,0.058396388,-0.15055838,-0.0081929015,0.16169444,0.16148673405098377,0.2487002147974033,1.4781977111951863,-2.98659264634728,66.96620006169451,66.96620006169451,2.299877164725529,14.007559445047159,-3.954621032070675,58.61746765027852,1.1060159516881185,4.5756921928096475,19.75491658888232,22.34923567777181,32.78,NONE,0.0,0.0,0.0,NONE,-9.898134935685244E-9,9.077626450691048E-10,-2.4414062E-4,2,61.51,64.1,42.84,45.62,15.084,15.084,5.348,5.8437433,0,1807,3.662,12.0,6.642,53,23.6,OK,30,0,0,0,0,0,65,100,0.0,0,0.0,-1.08187055E26,8.8E-44,0.0,3.3654391E38,63,1.5326077E-7,-3.7085543E-10,2.866095E-35,False,False,0,None,2.5915849E35,3.0872025E-17,
129473509,9.085,9.295093838330281,62.64871126973482,13,506.5097,505.76147,-0.008376901,0.0072868885,-0.9681518,0.96821547,6.1389766,8.26549,2.434048,10.579695,261,-439,1428,1516.0,-0.051249035,0.2045989,0.072159894,0.22292201,0.21091982979407786,0.3213149227875929,-1.0390339457383604,0.018292457205405184,64.52183205854764,64.52183205854766,0.7261570107017881,-3.716698734488004,-6.8066793242032695,57.665355472891996,0.7694126280549329,4.489986333853599,80.20370340924595,82.79802249813544,33.1,11.092559589843745,,9.2950942,62.648711,20190821,195955,2019-08-21T19:59:55Z,595.407,0.87,1.53,9.57,6,7,13,-0.13,0.33,-0.6,0,0,0,0,4,4,9.29510536395507,62.64870681571952,120,3468787,81,60,342,2074,3455,3980,3987,-14,15924,29,1053,5,0,false,false,false,false,false,false,false,false,false,false,5807,5926,4502,4763,46,58,57,46,1622,1626,1463,1497,1609,1622,1463,1487,0.0,0.0,0.0,0.0,1485.3,1479.1,1478.5,1483.4,4.88,4.1,2.75,2.68,0,0,0,0,-176.70703381129096,9.295093762467888,62.648710642185435,0,506.3221,505.1879,-0.008098884,0.0070131896,-0.9680472,0.9681065,-7.773753,-4.1963816,-3.9592044,9.680711,261,-439,1425,1513.0,-0.072528906,0.19707243,0.10932175,0.23674719,0.2099952048793064,0.2692435929049567,-0.7147487404838413,-0.2620855758085438,66.98968694209499,66.98968694209498,0.2919542444737211,11.484423158548251,-3.995138806926074,58.86246467653613,0.7296059924452296,5.14605090808414,62.689952253895875,65.28427134278536,33.1,NONE,0.0,0.0,0.0,NONE,8.979871554379635E-9,-1.4054124703732994E-9,2.1362305E-4,2,61.19,63.47,44.49,45.26,15.044,15.044,5.313,6.9408975,0,1806,3.655,12.0,7.656,53,23.7,OK,31,0,0,0,0,0,65,100,0.0,0,0.0,1.4287664E-33,9.0E-44,0.0,3.3654391E38,63,1.9577419E-7,-4.1237244E-10,7.767862E-36,False,False,0,None,2.1055043E34,3.5490896E-17,
133373544,10.099,9.295102664358849,62.648711730799015,12,506.40775,505.58527,-0.0047843587,0.013269885,-0.97622913,0.97633106,9.738771,6.8345857,7.271124,13.943618,224,-467,1434,1524.0,-0.013549501,0.12084977,0.12205524,0.1722955,0.12160697742369482,0.3261121094516083,-1.8928495544409978,1.2334757322904528,64.66653709105613,64.66653709105611,5.766163136218075,3.951514040550242,-1.7596538460815445,58.685476029104336,0.5636649406977773,4.978016460471642,133.44202887531458,136.03634796420405,33.42,10.99060036132812,,9.295103,62.6487118,20190821,195955,2019-08-21T19:59:55Z,595.19,0.87,1.53,9.43,6,7,13,-0.07,0.23,-0.13,0,0,0,0,4,4,9.29510536395507,62.64870681571952,120,3548157,181,60,343,2053,3446,3980,3987,0,15922,22,58118,1,0,false,false,false,false,false,false,false,false,false,false,5866,5942,4619,4772,46,59,58,46,1635,1637,1482,1502,1627,1623,1466,1496,0.0,0.0,0.0,0.0,1481.0,1474.9,1474.9,1481.0,5.0,4.36,3.08,2.72,0,0,0,0,-178.17530682234374,9.295102889676098,62.64871129895484,0,506.43417,505.15375,-0.0041943453,0.011906457,-0.9768316,0.9769132,-3.9788098,-1.246495,-5.911894,7.234305,224,-467,1431,1521.0,-0.016299391,0.0965629,0.10154845,0.14107499,0.09792886828767289,0.36771207836156594,-1.67073066269971,1.124847550392386,66.918822501162,66.91882250116203,-4.976975962041732,3.603392147901939,-6.860429956239691,59.30894146870034,0.5142894724309081,5.676375166283929,58.414602017949896,61.00892110683938,33.41,NONE,0.0,0.0,0.0,NONE,3.4528108469147516E-9,-2.6528833641702666E-10,2.4414062E-4,2,62.29,63.99,44.44,45.61,14.962,14.962,5.293,7.7044353,0,1803,3.799,12.0,8.791,53,23.7,OK,32,0,0,0,0,0,65,100,0.0,0,0.0,4.2073225E-8,9.0E-44,0.0,3.3654391E38,63,1.8526407E-7,-4.021122E-10,2.664022E-36,False,False,0,None,3.0545626E33,3.4349095E-17,
137270374,11.112,9.295105619003653,62.64871357168493,13,506.29373,505.4623,-0.0032204571,0.01218678,-0.969826,0.9699079,-4.0118756,-0.3586321,-3.6508634,5.4362273,232,-454,1431,1519.0,0.027283046,-0.06435796,0.16895516,0.18284464,0.06990215646825805,0.1812253833898414,-1.334779145509868,0.599318341622128,64.78063461476584,64.78063461476586,4.462422446941523,0.11954210061900117,-0.9923163733486591,59.56646805084503,0.7513420695760792,5.247829422578516,10.802160246645515,13.396479335535002,33.69,10.87658668945312,,9.2951058,62.6487134,20190821,195956,2019-08-21T19:59:56Z,595.045,0.87,1.53,9.31,6,7,13,0.01,-0.02,0.02,0,0,0,0,4,4,9.29510536395507,62.64870681571952,120,3548157,181,60,343,2053,3446,3980,3987,0,15922,22,58118,1,0,false,false,false,false,false,false,false,false,false,false,5902,5925,4557,4765,47,58,58,47,1638,1633,1473,1511,1628,1622,1466,1501,0.0,0.0,0.0,0.0,1478.5,1474.3,1474.3,1478.5,5.0,4.23,2.86,2.71,0,0,0,0,-175.77624304637547,9.2951051183488,62.64871280261081,0,506.03485,505.14124,-0.003612049,0.015422362,-0.981896,0.9820237,9.953417,-0.20800138,5.720248,11.481942,235,-454,1428,1516.0,0.024220726,-0.09123444,0.11217156,0.14660431,0.09439473679194774,0.10533982920965423,-0.9446268712328317,0.4113958375977824,66.98155731300935,66.98155731300938,-1.3222037564810587,12.189954377234484,-6.180215118970172,60.31949826873373,0.6658301755353534,5.961453474804798,-27.334511047140563,-24.740191958251074,33.75,NONE,0.0,0.0,0.0,NONE,-2.998340408077924E-9,3.303388572200892E-10,2.4414062E-4,2,63.24,64.2,43.93,46.27,14.937,14.937,5.296,8.2622795,0,1798,3.742,12.0,8.973,53,23.7,OK,33,0,0,0,0,0,65,100,0.0,0,0.0,19717.5,9.0E-44,0.0,3.3654391E38,63,1.8806531E-7,-4.048478E-10,5.0948737E-36,False,False,0,None,9.856934E33,3.4654027E-17,
141135776,12.116,9.29510484687754,62.648715312126185,13,505.98486,505.25854,-0.0019519832,0.017077249,-0.9869366,0.9870863,2.8819788,3.3307765,2.5828981,5.106,247,-448,1425,1514.0,0.021456564,-0.10647571,0.17155449,0.2030478,0.10861612062081853,0.08798681945012214,-0.9492410963766277,-0.04435647948785944,64.8039862437325,64.80398624373248,2.198943957187848,-1.2393398447321602,-2.8305882206176243,59.90858909237569,0.9451265583406981,5.462771110637145,-27.242427987477804,-24.648108898588315,33.95,10.567718281249995,,9.2951056,62.6487154,20190821,195957,2019-08-21T19:59:57Z,594.8,0.87,1.53,9.27,6,7,13,0.01,-0.11,0.1,0,0,0,0,4,4,9.29510536395507,62.64870681571952,120,4757759,181,60,345,1987,3434,3971,3978,0,15886,24,58118,0,0,false,false,false,false,false,false,false,false,false,false,5924,5949,4580,4805,46,60,59,47,1638,1635,1474,1512,1633,1624,1461,1504,0.0,0.0,0.0,0.0,1478.5,1473.0,1471.8,1479.7,5.01,4.29,2.85,2.76,0,0,0,0,-175.40411230813527,9.295104445385414,62.64871468587953,0,506.13284,505.05347,-9.4173563E-4,0.016255476,-0.9820282,0.9821632,1.2479726,-1.2562209,-1.4373943,2.2807078,250,-448,1428,1517.0,0.001910106,-0.11949658,0.09310566,0.15149833,0.11951184286630728,0.09172969554228105,-0.627987777176926,-0.07800787624939597,66.92775754667696,66.92775754667696,-0.2290461267653465,14.426226931287472,-6.555902325720228,60.15452155225559,0.8763791980120639,6.193766156423463,-5.132851255743324,-2.5385321668538365,34.02,NONE,0.0,0.0,0.0,NONE,-5.858009578982924E-9,3.185601669316565E-11,2.4414062E-4,2,63.69,63.24,43.6,47.34,14.918,14.918,5.291,8.673431,0,1796,3.728,12.0,8.97,53,23.7,OK,34,0,0,0,0,0,65,100,0.0,0,0.0,1735.8125,9.0E-44,0.0,3.3654391E38,63,1.6899139E-7,-3.8622447E-10,1.1427139E-35,False,False,0,None,4.770803E34,3.2582184E-17,
145101870,13.147,9.295101793525344,62.64871680734381,13,505.8265,505.0725,-0.0037071884,0.015509144,-0.98885566,0.9889842,-1.6373434,-3.5691624,-0.20505007,3.932157,261,-436,1428,1515.0,-0.036218513,-0.11885267,0.14065336,0.18767287,0.12424869056564306,0.09692663598279228,-0.5357242873643839,-0.4611960263803404,64.7049753605181,64.70497536051812,3.421271439361859,0.17652433988488495,-3.438403486953103,59.447967429425454,1.12589197670854,5.771669535658351,-78.7101352941259,-76.11581620523641,34.3,10.40936256835937,,9.2951038,62.6487162,20190821,195958,2019-08-21T19:59:58Z,594.764,0.87,1.53,9.21,6,7,13,0.0,-0.13,0.12,0,0,0,0,4,4,9.29510536395507,62.64870681571952,120,5362560,181,60,346,1951,3443,3964,3974,0,15865,23,58118,2,0,false,false,false,false,false,false,false,false,false,false,5962,5898,4638,4770,46,58,60,46,1639,1630,1486,1500,1630,1627,1487,1499,0.0,0.0,0.0,0.0,1476.1,1469.3,1468.1,1475.5,5.14,4.22,2.98,2.67,0,0,0,0,-175.42979369694496,9.295101631635744,62.648715922219175,0,505.86615,504.9732,-0.003370286,0.0141657,-0.9893455,0.98945266,0.17559414,1.8955828,0.18833905,1.9129921,259,-436,1425,1512.0,-0.045015328,-0.10626899,0.06434117,0.13213351,0.11541004045977411,0.0775567626087726,-0.29359796073236905,-0.4650747998969004,66.88076617071206,66.88076617071204,0.3254291694572938,15.685979544817467,-4.5724930474158745,60.00990687770927,1.030392796243009,6.470952859047598,-134.8441919458873,-132.24987285699783,34.28,NONE,0.0,0.0,0.0,NONE,-5.0725913934195315E-9,-5.621650038376819E-10,1.2207031E-4,2,64.65,63.22,45.1,47.31,14.904,14.904,5.281,8.961652,0,1793,3.725,12.0,9.002,53,23.7,OK,35,0,0,0,0,0,65,100,0.0,0,0.0,0.025800705,9.0E-44,0.0,3.3654391E38,63,1.5282058E-7,-3.704291E-10,2.1516786E-35,False,False,0,None,1.5016843E35,3.082459E-17,
148951439,14.148,9.295100669415195,62.64871615833387,13,505.8634,504.94934,-0.007153676,0.019617919,-0.988519,0.98873955,6.275184,-1.500378,3.4136188,7.299443,259,-448,1425,1516.0,-0.04519608,-0.080801,0.078283,0.12124239,0.09258233012535873,-3.9887242270213175E-4,-1.1007118406597987,-0.5284715020809021,64.71362537077076,64.71362537077073,1.7080943659681989,-1.0123661388190066,-4.353929860528879,59.69766566505277,1.066176612407749,5.901199520029431,-65.7946554619246,-63.200336373035114,34.64,10.446258320312495,,9.2951012,62.6487163,20190821,195959,2019-08-21T19:59:59Z,594.546,0.87,1.53,9.13,6,7,13,-0.06,-0.08,0.11,0,0,0,0,4,4,9.29510536395507,62.64870681571952,120,5967361,181,60,347,1921,3439,3958,3970,0,15840,21,58118,2,0,false,false,false,false,false,false,false,false,false,false,6005,5921,4656,4775,47,59,59,47,1642,1635,1484,1506,1638,1627,1480,1499,0.0,0.0,0.0,0.0,1475.5,1470.5,1469.9,1475.5,5.16,4.25,2.94,2.71,0,0,0,0,-175.34850529777057,9.295099950450327,62.648715531258695,0,505.87927,504.9258,-0.007748002,0.019745577,-0.9870979,0.9873258,-3.8617551,-5.4697165,-2.844347,7.2747,259,-448,1425,1516.0,-0.056719154,-0.0705419,0.00518546,0.090664834,0.09051642285164421,0.005700448179366532,-0.9199867326582577,-0.5271821535055522,66.8568320307923,66.8568320307923,0.4079315648579659,14.825810567027087,-5.501490732743337,59.959236851372644,1.0078139172214002,6.632467499310666,-131.7501622051381,-129.15584311624863,34.61,NONE,0.0,0.0,0.0,NONE,-3.4737870374336034E-9,-1.3028843406026818E-9,3.0517578E-5,2,64.42,63.83,45.1,46.39,14.889,14.889,5.28,9.151128,0,1791,3.722,12.0,9.103,53,23.8,OK,36,0,0,0,0,0,65,100,0.0,0,0.0,1.0059914E-5,9.0E-44,0.0,3.3654391E38,63,1.405715E-7,-3.5847067E-10,1.9831788E-35,False,False,0,None,1.2846371E35,2.9493902E-17,
152882066,15.169,9.295098372011337,62.64871525916369,13,505.6673,504.85648,-0.0093297465,0.014737078,-0.99893576,0.99908805,-2.8430278,-3.563747,-3.5794635,5.796176,270,-457,1428,1523.0,-0.04243406,-0.024293287,0.050836578,0.07053489,0.04889594136998068,0.1020337080515886,-1.3487987133120365,-0.6096080101470818,64.73237664684332,64.7323766468433,3.8919624966364155,0.12692128796927737,-3.1980980762574425,58.964101188267556,1.0045238068683164,6.074603078128751,-168.78833004307674,-166.19401095418726,34.94,10.250152363281245,,9.2950995,62.6487157,20190821,200001,2019-08-21T20:00:01Z,594.474,0.87,1.53,9.08,6,7,13,-0.03,-0.04,0.08,0,0,0,0,4,4,9.29510536395507,62.64870681571952,120,6572162,181,60,348,1891,3433,3951,3965,0,15815,23,58118,1,0,false,false,false,false,false,false,false,false,false,false,6005,5921,4656,4775,47,59,59,47,1642,1635,1484,1506,1638,1627,1480,1499,0.0,0.0,0.0,0.0,1475.5,1470.5,1469.9,1475.5,5.16,4.25,2.94,2.71,0,0,0,0,-175.34850529777057,9.295098388044243,62.64871469890792,0,505.65936,504.86533,-0.0095397215,0.017712548,-1.000786,1.0009881,1.0201215,6.375562,4.67475,7.971307,270,-461,1425,1521.0,-0.054782137,-0.033495285,-5.8547314E-4,0.06421339,0.0642107176456106,0.05542916362097601,-1.1611708116657653,-0.5588948234449129,66.90770785642677,66.90770785642678,0.10642007833682027,14.768493573912403,-5.649463139636745,59.35106637259584,0.9462484436441474,6.769789739005078,101.81137500538239,104.40569409427188,34.93,NONE,0.0,0.0,0.0,NONE,-1.822543714670683E-9,-1.4886664978692323E-9,0.0,2,64.47,63.55,46.04,47.88,14.9,14.9,5.302,9.259805,0,1788,3.719,12.0,8.757,53,23.8,OK,37,0,0,0,0,0,65,100,0.0,0,0.0,9.2694563E-10,9.0E-44,0.0,3.3654391E38,63,1.2744567E-7,-3.4564537E-10,1.5250299E-35,False,False,0,None,7.626186E34,2.80675E-17,
156737549,16.171,9.295096641397143,62.64871547105926,13,505.44485,504.86517,-0.007867131,0.012599341,-0.98716575,0.9872775,0.63661194,5.4780784,0.9814176,5.6015887,270,-442,1437,1527.0,-0.025506128,-0.034621853,0.0030744097,0.043112494,0.043002735591002955,0.04831173475016054,-0.6173852239359975,-0.5706332807344967,64.80100342226137,64.80100342226137,5.294556252480314,4.067229003826824,-1.6155138842684957,59.062495425746235,1.0605876530154548,6.18258281781124,-65.11254990370847,-62.51823081481898,35.27,10.02770973632812,,9.2950976,62.6487158,20190821,200002,2019-08-21T20:00:02Z,594.525,0.87,1.53,9.03,6,7,13,-0.03,-0.04,0.05,0,0,0,0,4,4,9.29510536395507,62.64870681571952,120,7176963,181,60,349,1852,3427,3944,3958,0,15786,23,58118,0,0,false,false,false,false,false,false,false,false,false,false,5970,5952,4690,4809,47,59,60,47,1639,1637,1485,1506,1626,1628,1487,1496,0.0,0.0,0.0,0.0,1476.7,1470.5,1471.1,1476.7,5.14,4.34,3.04,2.79,0,0,0,0,-176.76385761925542,9.295096332431338,62.648714942357145,0,505.3841,504.89462,-0.008272808,0.012898565,-0.98804873,0.9881675,2.7933288,-2.8087127,0.7561361,4.0327773,270,-442,1437,1527.0,-0.032992408,-0.03880926,-0.046938017,0.06926641,0.05093778042993992,0.057293157424394295,-0.4425843249149597,-0.5683117407603716,66.95464350487678,66.9546435048768,-1.3328542200456754,11.695541860274203,-6.988382754434243,59.313941383301085,1.014622359339085,6.920381535738729,-62.559470543419245,-59.96515145452976,35.29,NONE,0.0,0.0,0.0,NONE,-1.9344134175591837E-9,-7.46876377513814E-10,-9.1552734E-5,2,63.88,63.32,44.57,46.6,14.91,14.91,5.305,9.291422,0,1786,3.713,12.0,8.526,53,23.8,OK,38,0,0,0,0,0,65,100,0.0,0,0.0,6.0718097E-13,9.0E-44,0.0,5.043573E-16,64,1.327935E-7,-3.5086786E-10,2.0097376E-35,False,False,0,None,1.3188383E35,2.8648563E-17,
160625262,17.182,9.295095110693788,62.6487161681821,13,505.50848,504.8667,-0.0052966876,0.01369872,-0.9823622,0.982472,-7.267469,0.32471916,-4.406876,8.505416,264,-448,1425,1516.0,-0.0446305,-0.021384643,0.007583817,0.050066944,0.04948923778098819,0.059487090797514346,-0.6857130462079166,-0.3490050578439349,64.84341304098022,64.84341304098024,2.615359599330556,-0.3901560425120011,-2.8108055836426025,59.3565562276415,1.1644199030762727,6.298083368199288,-36.75026438463536,-34.15594529574587,35.5,10.091338886718745,,9.2950965,62.6487161,20190821,200002,2019-08-21T20:00:02Z,594.581,0.87,1.53,8.97,6,7,13,-0.05,-0.03,0.03,0,0,0,0,4,4,9.29510536395507,62.64870681571952,120,7781764,181,60,350,1843,3445,3937,3952,0,15760,25,58118,0,0,false,false,false,false,false,false,false,false,false,false,5890,5918,4600,4798,47,61,61,48,1633,1635,1482,1507,1624,1628,1480,1502,0.0,0.0,0.0,0.0,1477.3,1470.5,1470.5,1476.1,4.99,4.26,2.95,2.82,0,0,0,0,-175.96507248386905,9.295095257460916,62.64871551304759,0,505.4398,504.8761,-0.0052811597,0.010676228,-0.9812613,0.9813336,4.743077,-3.7275689,1.4387194,6.2017303,264,-445,1422,1513.0,-0.052731834,-0.025578445,-0.011363628,0.059699543,0.05860804740993234,0.02445014605353569,-0.47346801791998816,-0.30526427803140593,67.03606243397807,67.03606243397809,2.0015229606043734,16.1657916745703,-4.950658258286969,59.38170279369679,1.0962966050729832,7.056548891872045,163.00152012543472,165.5958392143242,35.49,NONE,0.0,0.0,0.0,NONE,-1.3133035904682546E-9,-1.0078815612174423E-9,-9.1552734E-5,2,63.27,63.95,44.92,47.01,14.901,14.901,5.301,9.253785,0,1783,3.721,12.0,8.473,52,23.8,OK,39,0,0,0,0,0,65,100,0.0,0,0.0,1.068156E-13,9.0E-44,0.0,5.043573E-16,64,1.3158933E-7,-3.4969547E-10,2.7580228E-35,False,False,0,None,2.4522954E35,2.851812E-17,
164479243,18.183,9.295097098381156,62.648717782331346,13,505.51672,504.7965,-0.00676905,0.011512189,-0.99123603,0.991326,5.997765,5.626326,3.3408825,8.876386,264,-436,1434,1521.0,-0.031235697,-0.026296493,-0.050571635,0.06499742,0.040831045514744584,0.1650528891973938,-0.41047199266489887,-0.399976694943774,64.88431786191597,64.88431786191597,1.0582136082085893,-3.3653899316656526,-3.561110014144148,59.18172767455924,1.2904752155299273,6.522135521967897,25.54128242945292,28.13560151834241,35.79,10.099578632812495,,9.2950978,62.6487177,20190821,200003,2019-08-21T20:00:03Z,594.436,0.87,1.53,8.92,6,7,13,-0.05,-0.01,0.05,0,0,0,0,4,4,9.29510536395507,62.64870681571952,120,8386565,181,60,351,1823,3452,3929,3945,0,15733,26,58118,5,0,false,false,false,false,false,false,false,false,false,false,5920,6039,4635,4857,49,61,62,48,1635,1647,1488,1506,1624,1639,1480,1493,0.0,0.0,0.0,0.0,1476.1,1468.1,1469.9,1475.5,5.08,4.44,3.07,2.84,0,0,0,0,-177.6092258555196,9.295097569844701,62.64871760891473,0,505.64624,504.7978,-0.0068597905,0.008199616,-1.00163,1.001687,-9.287679,-8.24078,-5.5120854,13.585085,264,-439,1425,1514.0,-0.054349218,-0.021611223,-0.046111953,0.07447949,0.05848830988047684,0.2023674348744318,-0.33076658153703636,-0.3801957276477635,67.02164747002803,67.02164747002803,2.9574983242168864,19.087538790869093,-5.260046414468365,59.422934504985655,1.2644792666003137,7.332016245556067,38.47795833335712,41.07227742224661,35.85,NONE,0.0,0.0,0.0,NONE,-1.0569356348499622E-9,-1.2292675197087042E-9,-9.1552734E-5,2,63.6,64.32,43.99,47.67,14.892,14.892,5.296,9.168932,0,1781,3.72,12.0,8.52,52,23.8,OK,40,0,0,0,0,0,65,100,0.0,0,0.0,1.9264553E-7,9.0E-44,0.0,5.043573E-16,64,1.1533302E-7,-3.3003475E-10,5.2533227E-35,False,False,0,None,8.245002E35,2.7043328E-17,
168335864,19.186,9.295098144148591,62.64871910058404,13,505.43784,504.81958,-0.0050224224,0.013600904,-0.9879889,0.9880953,-11.3691435,-2.9261007,-3.7208633,12.315207,264,-445,1425,1516.0,-0.07093654,-0.014510964,-0.12583499,0.14517921,0.07240553148865592,0.08324936494790508,-0.750711746833258,-0.2663361715647231,64.86176582812087,64.86176582812084,1.9454283906936463,-2.0722228548946493,-2.675206738028735,58.88116433168321,1.4149355197216853,6.690499267600515,22.45885041583911,25.053169504728597,36.13,10.02069069335937,,9.2950984,62.6487186,20190821,200004,2019-08-21T20:00:04Z,594.288,0.87,1.53,8.92,6,7,13,-0.07,-0.01,0.0,0,0,0,0,4,4,9.29510536395507,62.64870681571952,120,8991366,181,60,352,1800,3454,3922,3937,0,15706,25,58118,3,0,false,false,false,false,false,false,false,false,false,false,5921,6024,4642,4865,47,61,61,48,1630,1641,1481,1515,1628,1637,1473,1500,0.0,0.0,0.0,0.0,1476.1,1469.3,1470.5,1476.1,4.97,4.39,2.91,2.76,0,0,0,0,-177.1821373103628,9.295098512716772,62.648718484557534,0,505.43256,504.7537,-0.004984333,0.014589972,-0.98824793,0.9883682,12.739818,2.4595788,6.7940583,14.646218,267,-445,1425,1516.0,-0.07298577,-0.022845121,-0.06319863,0.099211335,0.07647759269163114,0.03190182539024666,-0.5315520795316707,-0.20288632033533419,67.03798647190638,67.03798647190638,2.8436040398304407,19.283502606988943,-5.154807036155217,58.75591157621978,1.343896428308525,7.482545851674764,143.09744853223046,145.69176762111994,36.12,NONE,0.0,0.0,0.0,NONE,-1.0196457692419883E-9,-1.5515754762507477E-9,-9.1552734E-5,2,63.23,64.43,45.04,47.92,14.884,14.884,5.293,9.06264,0,1778,3.718,12.0,8.58,52,23.8,OK,41,0,0,0,0,0,65,100,0.0,0,0.0,2.681464E-5,9.0E-44,0.0,5.043573E-16,64,1.11747795E-7,-3.230288E-10,7.4578154E-35,False,False,0,None,1.455628E36,2.6653693E-17,
172214936,20.194,9.29509760460583,62.648718655218275,13,505.7524,504.89236,-0.005176682,0.010301,-0.97844523,0.9785132,7.1919017,0.5515574,4.524065,8.514389,267,-448,1422,1514.0,-0.058632977,-0.023898505,-0.14020298,0.15383705,0.06331638520503019,-0.007098042815316119,-0.6866054319419967,-0.31823414126564786,64.87761107127353,64.87761107127352,3.337171337191587,0.6691001056094503,-2.2435748075236073,58.98621928223461,1.3748788571485604,6.7994208949683275,-102.39841672231753,-99.80409763342804,36.39,10.33526588867187,,9.2950987,62.6487192,20190821,200005,2019-08-21T20:00:05Z,594.233,0.87,1.53,8.92,6,7,13,-0.04,-0.03,-0.09,0,0,0,0,4,4,9.29510536395507,62.64870681571952,120,9596167,181,60,353,1782,3452,3917,3931,0,15682,23,58118,3,0,false,false,false,false,false,false,false,false,false,false,5878,5971,4564,4822,48,61,61,48,1627,1640,1473,1512,1624,1635,1471,1496,0.0,0.0,0.0,0.0,1476.7,1469.3,1469.9,1475.5,4.98,4.26,2.83,2.84,0,0,0,0,-176.16739783264057,9.295098022089642,62.64871887024778,0,505.85284,504.84982,-0.005930352,0.011741084,-0.9739785,0.97406733,3.9739022,3.844607,4.205011,6.9465833,259,-442,1425,1514.0,-0.06337432,-0.03177141,-0.07700961,0.1046719,0.07089236025865177,-0.02161978502537911,-0.327323320295093,-0.18648832974139576,67.03971394536298,67.03971394536296,2.125282686687685,17.748495577735962,-5.305488405429017,59.61838512504147,1.3918922708505246,7.694320415273501,3.9443114657832443,6.538630554672731,36.47,NONE,0.0,0.0,0.0,NONE,-1.7759316011200507E-9,-1.18416046136684E-9,-1.8310547E-4,2,62.97,63.61,43.2,47.57,14.883,14.883,5.293,8.954213,0,1776,3.713,12.0,8.566,52,23.9,OK,42,0,0,0,0,0,65,100,0.0,0,0.0,1.116097E-5,9.0E-44,0.0,5.043573E-16,64,1.2042437E-7,-3.3878864E-10,8.757912E-35,False,False,0,None,2.1255154E36,2.7529949E-17,
176073697,21.197,9.295097119382083,62.64871895332737,13,505.6522,505.04465,-0.0047236225,0.010681874,-0.9785114,0.97858113,9.850371,1.053781,6.3296514,11.756052,259,-442,1422,1511.0,-0.05579869,-0.032414895,-0.06262341,0.08992169,0.06453075935232663,-0.02325734998118159,-0.4586839774943652,-0.18232726423326787,64.8754796112866,64.87547961128661,3.3211763107183683,4.1298773849242405,-4.361387218524734,59.41921509017832,1.4138377367660484,7.027117422673456,-151.41563257855304,-148.82131348966357,36.76,10.23504616210937,,9.295098,62.6487192,20190821,200006,2019-08-21T20:00:06Z,594.284,0.87,1.53,8.85,6,7,13,-0.08,-0.04,-0.08,0,0,0,0,4,4,9.29510536395507,62.64870681571952,120,9972946,48,60,354,1773,3454,3914,3927,0,15669,23,212,5,0,false,false,false,false,false,false,false,false,false,false,5857,5977,4575,4810,48,61,61,48,1626,1645,1479,1504,1621,1634,1467,1491,0.0,0.0,0.0,0.0,1476.1,1469.9,1469.3,1475.5,4.85,4.29,2.92,2.8,0,0,0,0,-177.31148305042294,9.29509691315699,62.6487182852733,0,505.64426,504.9385,-0.004555244,0.010290974,-0.97882277,0.97888744,-8.111857,-1.012896,-6.335991,10.342773,259,-442,1422,1511.0,-0.06909815,-0.041999605,-0.011284088,0.08164467,0.08086112476611797,0.0051503963358010135,-0.367788445927748,-0.13920443223177506,66.98684863661629,66.98684863661629,0.9628418584653492,13.359353413904145,-4.9708551913468115,59.44482565735309,1.3464499545005073,7.844020655790367,-128.71293061042942,-126.11861152153993,36.79,NONE,0.0,0.0,0.0,NONE,-1.7945765140778753E-9,-1.2979319382981125E-9,-3.0517578E-5,2,63.09,64.13,44.01,48.2,14.878,14.878,5.289,8.850774,0,1774,3.712,12.0,8.417,52,23.9,OK,43,0,0,0,0,0,65,100,0.0,0,0.0,2.0953667E-7,9.0E-44,0.0,5.043573E-16,64,1.4483521E-7,-3.6263445E-10,8.019555E-35,False,False,0,None,1.7450985E36,2.995723E-17,
180141961,22.254,9.295095500111726,62.64871837004861,13,505.77115,505.07535,-0.008150623,0.01529646,-0.9669507,0.96710604,4.099896,2.1982145,1.641034,4.9329796,267,-445,1422,1513.0,-0.06289864,-0.023251524,-0.030898182,0.07383475,0.06705872370601267,0.032360992483938714,-0.8343074397852797,-0.3405350369244051,64.75770892295121,64.75770892295122,1.5993963891229548,2.3487212969720264,-6.391872621334765,58.64483836778808,1.3800744619460898,7.13871448534592,-93.25424510140115,-90.65992601251166,37.05,10.35400368164062,,9.2950977,62.648719,20190821,200007,2019-08-21T20:00:07Z,594.305,0.88,1.61,8.84,6,6,12,-0.09,-0.04,-0.08,0,0,0,0,4,4,9.29510536395507,62.64870681571952,120,9972946,48,60,355,1773,3454,3914,3927,0,15669,23,212,5,0,false,false,false,false,false,false,false,false,false,false,5899,5936,4597,4822,49,62,61,50,1636,1640,1481,1512,1626,1628,1472,1499,0.0,0.0,0.0,0.0,1473.6,1467.5,1466.9,1474.9,5.04,4.21,2.86,2.86,0,0,0,0,-175.55051981887448,9.29509530407895,62.64871799473506,0,505.79758,504.99127,-0.00849545,0.0145501075,-0.9687463,0.9688928,-5.670788,-0.2008811,-3.368924,6.599078,270,-445,1422,1514.0,-0.07854805,-0.036553007,-0.0018913369,0.086657345,0.08663670615267471,-0.003100481513550399,-0.7320618646668788,-0.3025052138380797,66.89540729788378,66.89540729788376,2.621595122252794,15.134259025914595,-3.8083378950708155,58.41043986518385,1.345104224174278,8.008006257976094,-126.46238932061013,-123.86807023172064,37.07,NONE,0.0,0.0,0.0,NONE,-1.599969796822143E-9,-1.6930536136574664E-9,-3.0517578E-5,2,62.64,63.4,45.03,46.57,14.889,14.889,5.29,8.753282,0,1771,3.713,12.0,8.452,52,23.9,OK,44,0,0,0,0,0,65,100,0.0,0,0.0,9.46585E-10,9.0E-44,0.0,5.043573E-16,64,1.5292972E-7,-3.7053569E-10,8.0548196E-35,False,False,0,None,1.763231E36,3.083645E-17,
183992427,23.255,9.295094528072442,62.648719208077075,13,505.97168,505.11603,-0.013158335,-0.0010827542,-0.9765869,0.97667617,-9.224091,-4.6877885,-48.727528,49.813965,329,-414,1419,1514.0,-0.0683504,-0.016501002,0.039423168,0.0806117,0.07031400665682283,0.035200937118226305,-0.6640332425810397,-0.702722046581482,54.304875113699374,54.30487511369938,-7.922297859100216,4.419381566507987,-7.350463016353189,51.91666905751528,1.4850076711768228,7.258565247822897,22.290763877268176,24.885082966157665,37.35,10.554534687499995,,9.2950955,62.6487193,20190821,200009,2019-08-21T20:00:09Z,594.526,0.87,1.53,8.77,6,7,13,-0.06,-0.02,-0.01,0,0,-5301,0,4,4,9.29510536395507,62.64870681571952,120,9972946,48,60,356,1773,3454,3914,3927,0,15669,23,212,5,0,false,false,false,false,false,false,false,false,false,false,5549,6171,4199,5206,49,62,62,48,1608,1664,1461,1541,1598,1647,1462,1532,0.0,0.0,0.0,0.0,1473.0,1468.1,1466.9,1472.4,4.62,4.76,2.52,3.14,0,0,0,0,-170.55774636541395,9.295094382829356,62.648718588345105,0,505.79993,505.03647,-0.012104492,-0.0015637521,-0.97705084,0.9771271,6.3184543,4.602354,-34.57245,35.44515,326,-418,1419,1514.0,-0.08233754,-0.032637153,0.048098896,0.10078769,0.08857005613191839,-0.007560809739878591,-0.5058057776218647,-0.5898856221118572,56.6974991203637,56.697499120363716,-8.7486679587298,13.133170063433802,-4.319845751571488,52.48059404486155,1.4242024397669917,8.131911087859628,-76.96589745994774,-74.37157837105825,37.35,NONE,0.0,0.0,0.0,NONE,-2.179128571531405E-9,-1.42656061671558E-9,3.0517578E-5,2,59.1,67.21,38.89,53.51,14.883,14.883,5.291,8.665406,734,1769,3.714,12.0,8.43,52,23.9,OK,45,0,0,0,0,0,65,100,0.0,0,0.0,2.339675E-10,9.0E-44,0.0,5.043573E-16,64,1.6915874E-7,-3.863879E-10,1.0774952E-34,False,False,0,None,3.0810603E36,3.2599972E-17,
187841488,24.255,9.29509410208758,62.64871936546842,13,505.75995,505.06802,-0.014450559,0.009913824,-0.99100536,0.9911603,-8.80852,-2.2138417,-4.3661246,10.077409,390,-378,1419,1519.0,-0.054744333,-0.02829432,0.07753611,0.099042214,0.06162394533647652,-0.0337070685134485,-0.6403449259609896,-0.9022794637434974,48.36778248012324,48.36778248012325,-13.330243537705588,3.772398020495304,-8.106164930416957,44.574125998332455,1.5094219169564567,7.3120065725158625,8.991494840664657,11.585813929554144,37.63,10.342803730468745,,9.2950959,62.6487204,20190821,200010,2019-08-21T20:00:10Z,594.506,0.87,1.53,8.68,6,7,13,-0.06,-0.02,0.07,0,0,0,0,4,4,9.29510536395507,62.64870681571952,120,9972946,48,60,357,1773,3454,3914,3927,0,15669,23,212,5,0,false,false,false,false,false,false,false,false,false,false,5887,5888,4768,4812,49,63,63,49,1632,1633,1496,1514,1627,1630,1494,1501,0.0,0.0,0.0,0.0,1472.4,1465.6,1466.9,1471.8,4.99,4.14,3.16,2.78,0,0,0,0,-178.87772053447813,9.295094595232163,62.64871923826004,0,505.79166,505.0118,-0.014163473,0.0072730538,-0.9907587,0.9908866,6.5217476,2.7177825,2.8834732,7.6311173,387,-378,1425,1524.0,-0.0661327,-0.0345319,0.073051944,0.10441539,0.07460553623729498,-0.0015539959370402118,-0.472372259624649,-0.7632732092375079,50.59000383750072,50.59000383750072,-14.008094834708142,14.967651863780837,-1.607727989504344,44.86709069104009,1.486849530173765,8.270933291368918,-21.285069182162744,-18.690750093273255,37.63,NONE,0.0,0.0,0.0,NONE,-1.968207623178915E-9,-1.490004954974901E-9,1.8310547E-4,2,63.43,63.49,47.06,48.19,14.87,14.87,5.283,8.665406,734,1769,3.71,12.0,8.43,52,23.9,OK,45,0,0,0,0,0,65,100,0.0,0,0.0,1.4315447E-9,9.0E-44,0.0,5.043573E-16,64,1.6456761E-7,-3.8190437E-10,1.4098075E-34,False,False,0,None,4.7934636E36,3.210107E-17,
191741471,25.269,9.29509584966962,62.64872177145413,13,505.70685,505.0102,-0.019092377,0.0063249227,-0.9795875,0.97979397,-6.92947,-5.123038,-5.9125385,10.450893,384,-378,1416,1515.0,-0.06746828,-0.039851736,0.03797654,0.08707668,0.078358979323996,0.1998974463744726,-0.6359356342699163,-1.038951417868051,48.417034305610144,48.41703430561017,-13.957352432617366,2.399205091750967,-6.364591578698479,45.32394025652549,1.7325802544497848,7.597385940208327,5.207737147947348,7.802056236836835,37.99,10.289703144531245,,9.2950963,62.6487214,20190821,200011,2019-08-21T20:00:11Z,594.485,0.87,1.53,8.6,6,7,13,-0.09,-0.03,0.07,0,0,0,0,4,4,9.29510536395507,62.64870681571952,120,9972949,114,52,358,1773,3454,3914,3927,0,15670,23,3455,17508,0,false,false,false,false,false,false,false,false,false,false,5826,5876,4718,4834,48,64,63,48,1630,1630,1497,1518,1619,1619,1491,1513,0.0,0.0,0.0,0.0,1473.0,1466.9,1466.9,1473.0,4.87,4.08,3.08,2.82,0,0,0,0,-178.24170498436163,9.295095850638166,62.648721144468425,0,505.69098,504.97324,-0.01963849,0.011823001,-0.9807549,0.9810228,7.3330894,4.366551,7.512754,11.370244,387,-378,1416,1515.0,-0.0809733,-0.03973708,0.030855484,0.0953298,0.09019817022304197,0.1282845807051308,-0.5246614964498475,-0.8797299874375886,50.658093743712705,50.6580937437127,-14.085692413248106,15.763523461412928,-3.92721145083027,44.98873527580094,1.6657628001610658,8.502187082544985,10.93840633370274,13.532725422592227,37.99,NONE,0.0,0.0,0.0,NONE,-2.0416222795678594E-9,-1.7910309515391321E-9,1.2207031E-4,2,62.89,62.94,46.54,49.3,14.872,14.872,5.284,8.590076,740,1767,3.709,12.0,8.405,52,23.9,OK,46,0,0,0,0,0,65,100,0.0,0,0.0,1.1138327E-6,9.0E-44,0.0,5.043573E-16,64,1.5357E-7,-3.7116096E-10,2.7829983E-34,False,False,0,None,1.7375697E37,3.0905906E-17,
195638359,26.281,9.295094828078538,62.64872061839344,13,505.78308,504.95068,-0.01904758,0.0071172165,-0.9836522,0.98386234,-3.9814901,1.10153,-5.011346,6.494553,387,-375,1413,1512.0,-0.05508804,-0.019966822,0.005321583,0.058836088,0.058594932146862955,0.07808771254763153,-0.5607612296589342,-0.8453680000820956,48.43000107056008,48.43000107056008,-13.017201764762207,4.210995806200186,-6.97398443872181,44.61359646093708,1.6264352864894562,7.786074928740032,-158.9938181893967,-156.39949910050723,38.27,10.365936054687495,,9.2950953,62.6487205,20190821,200012,2019-08-21T20:00:12Z,594.53,0.87,1.53,8.52,6,7,13,-0.09,-0.03,0.06,0,0,0,0,4,4,9.29510536395507,62.64870681571952,120,9972949,16,52,359,1773,3454,3914,3927,0,15670,23,1,17508,0,false,false,false,false,false,false,false,false,false,false,5811,5870,4696,4878,50,63,62,50,1625,1630,1493,1517,1618,1621,1481,1506,0.0,0.0,0.0,0.0,1472.4,1466.9,1466.9,1473.0,4.85,4.11,3.0,2.9,0,0,0,0,-176.65904521859272,9.295094664836459,62.648719827681546,0,505.8597,504.96365,-0.0191454,0.011706932,-0.9747503,0.97500855,-2.4909012,-1.8134694,1.329618,3.355763,387,-372,1416,1514.0,-0.081900984,-0.039916027,-0.021733146,0.093666375,0.09111015666089256,0.06534722241289437,-0.5174310827278749,-0.7489194172388259,50.69017820191821,50.69017820191823,-14.363971153979309,14.856419811850332,-2.334894347755819,44.27414217834066,1.546668320674681,8.76265432684683,-162.71224806203065,-160.11792897314118,38.31,NONE,0.0,0.0,0.0,NONE,-1.7234927309057909E-9,-1.6269323141730177E-9,0.0,2,61.94,62.61,45.75,48.34,14.853,14.853,5.281,8.485629,747,1762,3.707,12.0,8.496,52,24.0,OK,48,0,0,0,0,0,65,100,0.0,0,0.0,7.080871E-9,9.0E-44,0.0,1.05007105E-23,64,1.493172E-7,-3.670043E-10,1.7818514E-34,False,False,0,None,8.1038773E36,3.0443426E-17,
199497700,27.284,9.29509374068797,62.64871926182204,13,505.434,504.92935,-0.018385306,0.01243203,-0.9899357,0.9901844,9.453371,-0.12245585,5.635904,11.006572,387,-375,1413,1512.0,-0.07193187,-0.03536509,0.024813188,0.08390815,0.08015537025385301,0.08010786335002566,-0.5660674570671688,-0.779415680150668,48.36626965070964,48.366269650709626,-13.569353019347286,4.168419402035828,-7.720972693591882,44.475430716755035,1.5059575732667818,7.958357184025191,-151.12579652555178,-148.5314774366623,38.63,10.01684547851562,,9.2950949,62.6487198,20190821,200013,2019-08-21T20:00:13Z,594.531,0.87,1.53,8.42,6,7,13,-0.08,-0.03,0.07,0,0,0,0,4,4,9.29510536395507,62.64870681571952,120,9972949,18,52,360,1772,3443,3980,4003,2933,15947,23,1,16019,0,false,false,false,false,false,false,false,false,false,false,5867,5882,4696,4834,50,63,63,50,1636,1634,1493,1512,1619,1624,1493,1501,0.0,0.0,0.0,0.0,1473.0,1466.9,1468.1,1472.4,4.79,4.09,3.12,2.88,0,0,0,0,-176.82732023321398,9.295094000535503,62.64871881411499,0,505.41812,504.89722,-0.019446997,0.012272074,-0.98859876,0.9888662,-7.9023614,-0.63102615,-4.83047,9.283261,387,-375,1413,1512.0,-0.07959924,-0.041072603,0.028851258,0.09410309,0.08957118693148255,0.02777612392668183,-0.5405708429781013,-0.6562486963171239,50.62448516450703,50.62448516450701,-14.359426242535116,15.051413972115924,-2.200694029562733,44.288233623144166,1.4549927956067417,8.906751345069853,52.560931539909376,55.15525062879886,38.61,NONE,0.0,0.0,0.0,NONE,-1.982191352313025E-9,-1.7970541602215384E-9,6.1035156E-5,2,64.0,63.2,45.18,48.41,14.852,14.852,5.283,8.457128,748,1759,3.705,12.0,8.428,52,24.0,OK,49,0,0,0,0,0,65,100,0.0,0,0.0,1.0566126E-10,9.0E-44,0.0,1.05007105E-23,64,1.3846875E-7,-3.564172E-10,1.248941E-34,False,False,0,None,3.964481E36,2.926605E-17,
203527769,28.332,9.295095653981804,62.64872003545344,13,505.5263,504.83304,-0.016505927,0.011543355,-0.987505,0.9877104,5.6666565,3.463166,7.3434916,9.90108,390,-372,1416,1515.0,-0.06666317,-0.02762115,-0.05175642,0.088801086,0.07215889252924325,0.052158045024576785,-0.4912528439665077,-0.8478244593057245,48.44378092760151,48.443780927601495,-12.0725727527885,5.665561874805832,-6.839787669928686,44.28361583063468,1.551412880009888,8.14096573748022,27.624918545308894,30.219237634198382,38.91,10.109161152343745,,9.2950957,62.64872,20190821,200014,2019-08-21T20:00:14Z,594.453,0.87,1.53,8.32,6,7,13,-0.08,-0.01,0.04,0,0,0,0,4,4,9.29510536395507,62.64870681571952,120,9976599,48,99,361,3437,3437,4388,4400,179,17611,28,212,17613,0,false,false,false,false,false,false,true,false,false,false,5805,5931,4668,4906,50,63,63,50,1628,1637,1489,1516,1617,1635,1490,1508,0.0,0.0,0.0,0.0,1470.5,1465.6,1465.6,1470.5,4.87,4.18,3.08,2.88,0,0,0,0,-177.0345068891404,9.29509531193041,62.6487193227601,0,505.59238,504.81537,-0.016425122,0.009517626,-0.9879418,0.98812413,-3.6973064,0.42985454,-4.988998,6.224544,390,-372,1416,1515.0,-0.07440373,-0.040588785,-0.03417012,0.0913836,0.0847547347241077,-0.001044434559021798,-0.448753793545806,-0.7215436817077404,50.732225475453504,50.732225475453504,-15.540144781924539,14.240791536736378,-2.6597412003720757,44.12437176902376,1.4825049758861322,9.113526838966887,-40.89541334208223,-38.301094253192744,38.91,NONE,0.0,0.0,0.0,NONE,-2.247881969643378E-9,-1.6611976388271636E-9,-6.1035156E-5,2,62.07,63.9,46.06,48.82,14.852,14.852,5.274,8.441028,749,1757,3.704,12.0,8.585,52,24.0,OK,50,0,0,0,0,0,65,100,0.0,0,0.0,1.2582859E-8,9.0E-44,0.0,1.05007105E-23,64,1.2056262E-7,-3.3893074E-10,1.3642277E-34,False,False,0,None,4.558512E36,2.7537996E-17,
207416090,29.342,9.295095246403925,62.64871921501547,13,505.34656,504.83997,-0.0133211585,0.008213276,-0.984971,0.98509526,-5.526281,2.006024,-1.3922243,6.041705,381,-378,1416,1514.0,-0.073213294,-0.017621428,-0.0743901,0.105851725,0.07530405801533124,0.017293023719713682,-0.6774193124492033,-0.7365425820564848,48.30679111759853,48.30679111759855,-12.88385765015874,2.7562426052675937,-5.7144597756120685,44.88304812306501,1.472443726812545,8.26475734605899,-177.6404614878058,-175.04614239891632,39.24,9.929412617187495,,9.2950958,62.6487193,20190821,200015,2019-08-21T20:00:15Z,594.502,0.87,1.53,8.23,6,7,13,-0.08,-0.02,-0.03,0,0,0,0,4,4,9.29510536395507,62.64870681571952,120,9976599,48,99,362,3437,3437,4388,4400,179,17611,28,212,17613,0,false,false,false,false,false,false,true,false,false,false,5836,5900,4663,4858,49,64,64,49,1628,1638,1494,1513,1624,1628,1481,1504,0.0,0.0,0.0,0.0,1471.1,1465.0,1465.6,1470.5,4.88,4.18,3.02,2.8,0,0,0,0,-176.6153434616154,9.295095462151144,62.64871857047102,0,505.4285,504.82404,-0.01282866,0.012372904,-0.9853324,0.9854936,7.6616187,-1.8218322,3.3884494,8.573276,381,-378,1419,1517.0,-0.07589742,-0.03164293,-0.054931242,0.09888951,0.0822295165720572,8.949554181229002E-4,-0.6222961551486179,-0.6003120317000563,50.6655326292046,50.66553262920462,-14.998557110080418,16.821663787021464,-2.8636605727900735,44.7244927399531,1.4015440455410675,9.207784165335825,169.42104477951352,172.015363868403,39.23,NONE,0.0,0.0,0.0,NONE,-1.5393737749156193E-9,-1.7012184344775906E-9,-1.2207031E-4,2,63.23,63.72,45.34,48.07,14.839,14.839,5.28,8.441028,749,1757,3.704,12.0,8.585,52,24.0,OK,50,0,0,0,0,0,65,100,0.0,0,0.0,3.3300012E-9,9.0E-44,0.0,1.05007105E-23,64,1.19183824E-7,-3.375523E-10,9.353594E-35,False,False,0,None,2.43251E36,2.746134E-17,
211265546,30.343,9.295095286883905,62.64871781436447,13,505.61346,504.8879,-0.012735867,0.012441072,-0.98699516,0.98715574,-8.48213,-1.4663242,-4.408028,9.670954,381,-375,1413,1510.0,-0.0693006,-0.043860443,-0.053174756,0.097743884,0.08201409342144807,0.07367386792360255,-0.6502976855093321,-0.750068036771531,48.242357482631824,48.2423574826318,-12.761953038997776,3.7097295360339855,-6.443897622640959,44.72385627125822,1.3269323279767333,8.421979177848348,-173.49036414275724,-170.89604505386777,39.51,10.196319355468745,,9.2950958,62.6487182,20190821,200016,2019-08-21T20:00:16Z,594.558,0.87,1.53,8.13,6,7,13,-0.07,-0.04,-0.06,0,0,0,0,4,4,9.29510536395507,62.64870681571952,120,9976599,48,99,363,3437,3437,4388,4400,179,17611,28,212,17613,0,false,false,false,false,false,false,true,false,false,false,5865,5908,4671,4864,49,63,64,49,1630,1633,1491,1517,1622,1631,1487,1502,0.0,0.0,0.0,0.0,1470.5,1465.0,1465.0,1471.8,4.91,4.11,3.06,2.87,0,0,0,0,-176.1655352094483,9.295095248422298,62.648717204960384,0,505.56326,504.87317,-0.012101349,0.008412214,-0.986877,0.98698705,4.0663085,1.6276466,1.4110876,4.6016593,381,-375,1413,1510.0,-0.0746394,-0.046545923,-0.043584157,0.09816895,0.08796341848563365,0.06419708960517696,-0.52675720276315,-0.5926071683623231,50.68132132902935,50.681321329029345,-14.871329430461204,16.253901267387803,-2.1124914327616615,44.65885654785542,1.2655519156641086,9.366139842704746,-179.8386738429671,-177.24435475407762,39.51,NONE,0.0,0.0,0.0,NONE,-2.0078280797410972E-9,-1.6603945337850143E-9,-9.1552734E-5,2,62.89,63.32,44.75,47.59,14.844,14.844,5.276,8.437649,748,1755,3.7,12.0,8.512,52,24.0,OK,51,0,0,0,0,0,65,100,0.0,0,0.0,4.4027892E-11,9.0E-44,0.0,1.05007105E-23,64,1.2761302E-7,-3.458159E-10,5.597302E-35,False,False,0,None,9.131141E35,2.808698E-17,
