Tick#,offsetTime,IMU_ATTI(0):Longitude,IMU_ATTI(0):Latitude,IMU_ATTI(0):numSats,IMU_ATTI(0):barometer:Raw,IMU_ATTI(0):barometer:Smooth,IMU_ATTI(0):accel:X,IMU_ATTI(0):accel:Y,IMU_ATTI(0):accel:Z,IMU_ATTI(0):accel:Composite,IMU_ATTI(0):gyro:X,IMU_ATTI(0):gyro:Y,IMU_ATTI(0):gyro:Z,IMU_ATTI(0):gyro:Composite,IMU_ATTI(0):mag:X,IMU_ATTI(0):mag:Y,IMU_ATTI(0):mag:Z,IMU_ATTI(0):mag:Mod,IMU_ATTI(0):velN,IMU_ATTI(0):velE,IMU_ATTI(0):velD,IMU_ATTI(0):velComposite,IMU_ATTI(0):velH,IMU_ATTI(0):GPS-H,IMU_ATTI(0):roll,IMU_ATTI(0):pitch,IMU_ATTI(0):yaw,IMU_ATTI(0):yaw360,IMU_ATTI(0):totalGyro:Z,IMU_ATTI(0):totalGyro:X,IMU_ATTI(0):totalGyro:Y,IMU_ATTI(0):magYaw,IMU_ATTI(0):distanceHP,IMU_ATTI(0):distanceTravelled,IMU_ATTI(0):directionOfTravel[mag],IMU_ATTI(0):directionOfTravel[true],IMU_ATTI(0):temperature,General:relativeHeight,General:absoluteHeight,GPS(0):Long,GPS(0):Lat,GPS(0):Date,GPS(0):Time,GPS:dateTimeStamp,GPS(0):heightMSL,GPS(0):hDOP,GPS(0):pDOP,GPS(0):sAcc,GPS(0):numGPS,GPS(0):numGLNAS,GPS(0):numSV,GPS(0):velN,GPS(0):velE,GPS(0):velD,RC:Aileron,RC:Elevator,RC:Rudder,RC:Throttle,Controller:navHealth,Controller:ctrl_level,HP:Longitude,HP:Latitude,HP:rthHeight,OA:avoidObst,OA:emergBrake,OA:radiusLimit,OA:airportLimit,OA:groundForceLanding,OA:horizNearBoundary,OA:vertLowLimit,OA:vertAirportLimit,OA:roofLimit,OA:hitGroundLimit,Motor:Speed:RFront,Motor:Speed:LFront,Motor:Speed:LBack,Motor:Speed:RBack,Motor:EscTemp:RFront,Motor:EscTemp:LFront,Motor:EscTemp:LBack,Motor:EscTemp:RBack,Motor:PPMrecv:RFront,Motor:PPMrecv:LFront,Motor:PPMrecv:LBack,Motor:PPMrecv:RBack,Motor:PPMsend:RFront,Motor:PPMsend:LFront,Motor:PPMsend:LBack,Motor:PPMsend:RBack,Motor:V_out:RFront,Motor:V_out:LFront,Motor:V_out:LBack,Motor:V_out:RBack,Motor:Volts:RFront,Motor:Volts:LFront,Motor:Volts:LBack,Motor:Volts:RBack,Motor:Current:RFront,Motor:Current:LFront,Motor:Current:LBack,Motor:Current:RBack,Motor:Status:RFront,Motor:Status:LFront,Motor:Status:LBack,Motor:Status:RBack,Motor:thrustAngle,IMU_ATTI(1):Longitude,IMU_ATTI(1):Latitude,IMU_ATTI(1):numSats,IMU_ATTI(1):barometer:Raw,IMU_ATTI(1):barometer:Smooth,IMU_ATTI(1):accel:X,IMU_ATTI(1):accel:Y,IMU_ATTI(1):accel:Z,IMU_ATTI(1):accel:Composite,IMU_ATTI(1):gyro:X,IMU_ATTI(1):gyro:Y,IMU_ATTI(1):gyro:Z,IMU_ATTI(1):gyro:Composite,IMU_ATTI(1):mag:X,IMU_ATTI(1):mag:Y,IMU_ATTI(1):mag:Z,IMU_ATTI(1):mag:Mod,IMU_ATTI(1):velN,IMU_ATTI(1):velE,IMU_ATTI(1):velD,IMU_ATTI(1):velComposite,IMU_ATTI(1):velH,IMU_ATTI(1):GPS-H,IMU_ATTI(1):roll,IMU_ATTI(1):pitch,IMU_ATTI(1):yaw,IMU_ATTI(1):yaw360,IMU_ATTI(1):totalGyro:Z,IMU_ATTI(1):totalGyro:X,IMU_ATTI(1):totalGyro:Y,IMU_ATTI(1):magYaw,IMU_ATTI(1):distanceHP,IMU_ATTI(1):distanceTravelled,IMU_ATTI(1):directionOfTravel[mag],IMU_ATTI(1):directionOfTravel[true],IMU_ATTI(1):temperature,BattInfo:Voltage,BattInfo:BatVoltage,BattInfo:AdVoltage,BattInfo:AvgCurrent,BattInfo:R_time,BattInfo:R_CAP_MAH,BattInfo:LowCellVoltage,BattInfo:LowCellVolThreshold,BattInfo:BatCurrent,BattInfo:Remaining%,BattInfo:Temp,BattInfo:status,battery_info:BatDynCnt,battery_info:Vol1Protect,battery_info:Vol2Protect,battery_info:Cap1Protect,battery_info:Cap2Protect,battery_info:Batpresent,battery_info:sopPercentage,battery_info:sopValue,battery_info:sopScale,battery_info:sopFlg,BattInfo:WindHeading:WindDir,battery_info:home_dir,BattInfo:Wind:rangeMin,BattInfo:Wind:rangeMax,battery_info:cap_speed,battery_info:against_wind,battery_info:emergency_land_cap,battery_info:intel_bat_land_cap,battery_info:intel_bat_gh_cap,BattInfo:Smart:SmartGh,BattInfo:Smart:SmartLand,BattInfo:GoHome:CntDown,BattInfo:GoHome:GhCmd,BattInfo:GoHome:CapLevel,BattInfo:GoHome:LandCapLv,IMUEX(0):err,IMUEX(0):rtk_Longitude,IMUEX(0):rtk_Latitude,IMUEX(0):rtk_Alti,IMUEX(1):err,IMUEX(1):rtk_Longitude,IMUEX(1):rtk_Latitude,IMUEX(1):rtk_Alti,Attribute|Value,ConvertDatV3,3.6.6-Tablet
7461923,1.939,,,,,,,,,,,,,,,,,,,,,,,,,,,,,,,,,,,,,,,,,,,,,,,,,,,,,,,,,,,,,,,,,,,,,,,,,,,,,,,,,,,,,,,,,,,,,,,,,,,,,,,,,,,,,,,,,,,,,,,,,,,,,,,,,,,,,,,,,,,,,,,,,,,,,,,,,OK,,,,,,,,,,,,,,,,,,,,,,,,,,,,,,,,,,Firmware Date| Oct 17 2018
509899961,132.521,,,,,,,,,,,,,,,,,,,,,,,,,,,,,,,,,,,,,,,,,,,,,,,,,,,,,,,,,,,,,,,,,,,,,,,,,,,,,,,,,,,,,,,,,,,,,,,,,,,,,,,,,,,,,,,,,,,,,,,,,,,,,,,,,,,,,,,,,,,,,,,,,,,,,,,,,OK,,,,,,,,,,,,,,,,,,,,,,,,,,,,,,,,,,ACType|MavicEnterprise
513781544,133.530,,,0,7.0285707,6.954543,0.06133094,-0.006693705,-0.9946832,0.99659467,0.27654853,-0.19769764,-0.20762235,0.39833465,-281,305,1419,1478.0,-0.04932591,-0.059971385,-0.02176924,0.080644354,0.07765057877914715,-0.07765057877914715,0.36375629351205596,3.2009875617071515,-124.43384236050282,235.5661576394972,-0.14458238499070963,0.25979336900464073,-0.09563055522852584,-124.20909529363985,,0.0,,,64.06,,,0.0,0.0,20190425,113159,2019-04-25T11:31:59Z,-17.0,99.99,99.99,3.7500008E7,0,0,0,0.0,0.0,0.0,0,0,0,0,0,0,,,,false,false,false,false,false,false,false,false,false,false,0,0,0,0,52,66,65,50,943,945,944,943,940,940,940,940,0.0,0.0,0.0,0.0,1725.7,1720.8,1720.2,1725.0,0.0,0.0,0.0,0.0,0,0,0,0,-45.0,-3.853473084450429E-11,-4.7545131434936575E-11,0,7.345649,7.6769786,0.061498996,-0.0075473664,-0.9948488,0.9967764,0.31213298,-0.24936007,-0.22463964,0.4583344,-281,305,1423,1482.0,-7.335057E-4,-5.3187425E-4,9.4986975E-4,0.001312697,9.060468154332128E-4,-9.060468154332128E-4,0.40183118163430803,3.477298636545383,-121.70028060290473,238.29971939709526,-0.16602648995068878,0.2884212178865171,-0.10084944822931871,-123.33507337139984,,7.663145583524792E-5,,,64.05,17.366,17.366,6.208,1.2463773,0,3632,4.337,12.0,1.253,99,26.4,OK,126,0,0,0,0,0,65,100,0.0,0,0.0,589232.0,2.69E-43,0.0,-5.9807744E7,62,2.5940128E-5,-2.594025E-5,9.4E-44,False,False,0,None,0.0,1.0842022E-19,NONE,0.0,0.0,0.0,NONE,-1.8338716890822784E-11,-4.099439450959473E-13,-9.059906E-6,dateTime|2019-4-25 11:31:58 GMT
517758384,134.563,0.0,0.0,0,7.0840592,6.9723234,0.06242128,-0.0076829656,-0.99499506,0.9969807,0.1764665,-0.16042477,-0.15934959,0.28682542,-285,309,1423,1483.0,-0.0475018,-0.060840644,-0.04120458,0.087497555,0.0771881134282961,-0.0771881134282961,0.3727784119561706,3.201477306932336,-124.45886584713973,235.54113415286025,-0.29082715448953594,0.5401948366073849,-0.20509588580467053,-124.36628173283965,,0.0,,,64.25,,,0.0,0.0,20190425,113200,2019-04-25T11:32:00Z,-17.0,99.99,99.99,3.7500008E7,0,0,0,0.0,0.0,0.0,0,0,0,0,0,0,,,,false,false,false,false,false,false,false,false,false,false,0,0,0,0,50,66,65,51,943,945,944,944,940,940,940,940,0.0,0.0,0.0,0.0,1726.3,1720.2,1720.2,1725.7,0.0,0.0,0.0,0.0,0,0,0,0,-45.0,2.4847622796708795E-11,-1.1302740201465854E-11,0,7.131621,7.677343,0.061918918,-0.00666297,-0.9962023,0.99814695,0.2719,-0.090781495,-0.11965975,0.31062734,-285,305,1423,1482.0,-1.2063278E-4,3.593197E-4,-3.5133446E-4,5.1681604E-4,3.790289121292914E-4,-3.711739223572815E-4,0.4044442766977075,3.485846944554051,-121.69655164501806,238.30344835498192,-0.3361370602611717,0.543983734052125,-0.23484087050053262,-123.84993453697001,,1.578363442628177E-4,,,64.26,17.366,17.366,6.206,1.2471116,0,3632,4.336,12.0,1.246,99,26.4,OK,127,0,0,0,0,0,65,100,0.0,0,0.0,589232.0,2.69E-43,0.0,-5.9807744E7,62,2.5940128E-5,-2.594025E-5,9.4E-44,False,False,0,None,0.0,1.0842022E-19,NONE,0.0,0.0,0.0,NONE,8.031554843383624E-12,-7.010878082036955E-12,0.0,
521671756,135.580,0.0,0.0,0,7.213533,6.9802976,0.06326995,-0.007275481,-0.9942855,0.9963231,0.14270003,-0.13724653,-0.15532072,0.25164348,-281,305,1427,1486.0,-0.04649366,-0.060382538,-0.017707564,0.07823854,0.07620834125708989,-0.07620834125708989,0.36928488183249997,3.2101697681526193,-124.481646465614,235.518353534386,-0.5299354397416914,0.8304581393487843,-0.3595489438565866,-124.13601318156891,,0.0,,,64.39,,,0.0,0.0,20190425,113201,2019-04-25T11:32:01Z,-17.0,99.99,99.99,3.7500008E7,0,0,0,0.0,0.0,0.0,0,0,0,0,0,0,,,,false,false,false,false,false,false,false,false,false,false,0,0,0,0,52,65,65,51,943,945,944,944,940,940,940,940,0.0,0.0,0.0,0.0,1725.7,1719.6,1720.2,1725.0,0.0,0.0,0.0,0.0,0,0,0,0,-45.0,4.504363674232264E-11,-7.814033565625806E-12,0,7.6521583,7.6779523,0.060880665,-0.0076836525,-0.99375004,0.99564284,0.17409943,-0.07781459,-0.10126969,0.2159196,-285,305,1431,1490.0,-3.367037E-4,0.0020501795,-0.00145704,0.002537631,0.002077644232003448,-0.0020754035224555194,0.4003859607314102,3.486042849156353,-121.69740526114339,238.3025947388566,-0.4756893275835701,0.7920404848543907,-0.3610537264981653,-123.78017714080173,,2.1255107122831394E-4,,,64.44,17.365,17.365,6.208,1.2476538,0,3632,4.336,12.0,1.247,99,26.4,OK,128,0,0,0,0,0,65,100,0.0,0,0.0,589232.0,2.69E-43,0.0,-5.9807744E7,62,2.5940128E-5,-2.594025E-5,9.4E-44,False,False,0,None,0.0,1.0842022E-19,NONE,0.0,0.0,0.0,NONE,-2.1752127698666156E-12,-5.923271696406015E-12,-5.722046E-6,
525605676,136.603,0.0,0.0,0,7.2690215,6.9912033,0.061259996,-0.007336357,-0.994934,0.9968452,0.26266032,-0.1863282,-0.2606657,0.41431302,-285,305,1423,1482.0,-0.04561142,-0.05550877,-0.011573213,0.072770625,0.07184445234762639,-0.07184445234762639,0.3678614103312741,3.2247495102714496,-124.51098106220618,235.48901893779382,-0.6998606720781051,1.0887013549774187,-0.5049735270106391,-124.63856467591688,,0.0,,,64.55,,,0.0,0.0,20190425,113202,2019-04-25T11:32:02Z,-17.0,99.99,99.99,3.7500008E7,0,0,0,0.0,0.0,0.0,0,0,0,0,0,0,,,,false,false,false,false,false,false,false,false,false,false,0,0,0,0,51,65,65,51,943,944,943,944,940,940,940,940,0.0,0.0,0.0,0.0,1725.7,1720.2,1720.8,1725.0,0.0,0.0,0.0,0.0,0,0,0,0,-45.0,-3.5489432964291596E-11,-4.3144508674411065E-11,0,7.081417,7.6773243,0.06260494,-0.00744616,-0.99316984,0.9951689,0.12725909,-0.038453147,-0.35299546,0.3771993,-289,305,1427,1487.0,-6.611839E-4,-5.528474E-4,0.0015854951,0.0018046049,8.618610031001567E-4,-8.522966055407255E-4,0.3908809235499136,3.4879390549631726,-121.7089125963599,238.29108740364012,-0.5976787298801102,1.008653917064596,-0.4380213976681076,-124.31489215268964,,2.8740247989753666E-4,,,64.56,17.365,17.365,6.206,1.2477682,0,3631,4.336,12.0,1.239,99,26.4,OK,129,0,0,0,0,0,65,100,0.0,0,0.0,589232.0,2.69E-43,0.0,-5.9807744E7,62,2.5940128E-5,-2.594025E-5,9.4E-44,False,False,0,None,0.0,1.0842022E-19,NONE,0.0,0.0,0.0,NONE,6.157525379569297E-12,1.7560660015918417E-11,4.7683716E-7,
529584417,137.637,0.0,0.0,0,7.29016,7.025171,0.061474074,-0.007110319,-0.99392396,0.9958486,0.174556,-0.088759914,-0.17625281,0.2634638,-289,305,1427,1487.0,-0.046740107,-0.054637752,-0.020778997,0.07484443,0.07190216655028578,-0.07190216655028578,0.36977844651254327,3.225373140757718,-124.53102025619894,235.46897974380107,-0.8533857178119978,1.3276389821818222,-0.6282014480897103,-125.13426478524319,,0.0,,,64.68,,,0.0,0.0,20190425,113203,2019-04-25T11:32:03Z,-17.0,99.99,99.99,3.7500008E7,0,0,0,0.0,0.0,0.0,0,0,0,0,0,0,,,,false,false,false,false,false,false,false,false,false,false,0,0,0,0,51,64,65,51,943,945,944,944,940,940,940,940,0.0,0.0,0.0,0.0,1725.7,1720.2,1720.8,1725.7,0.0,0.0,0.0,0.0,0,0,0,0,-45.0,-4.942752709571529E-11,-1.8414012717953513E-11,0,7.2346716,7.67772,0.06264869,-0.008238675,-0.99486583,0.99687046,0.12730074,-0.14012535,-0.16455704,0.25083783,-285,305,1431,1490.0,-3.471987E-4,-7.2549446E-4,1.3788183E-4,8.160273E-4,8.042941839024165E-4,-8.012415660850757E-4,0.3970169596479313,3.4865929782269487,-121.71253974329292,238.28746025670708,-0.838555907468006,1.3120399753772567,-0.6172612973696616,-123.77089133461024,,3.5409483828541217E-4,,,64.67,17.367,17.367,6.211,1.2471973,0,3631,4.336,12.0,1.234,99,26.4,OK,130,0,0,0,0,0,65,100,0.0,0,0.0,589232.0,2.69E-43,0.0,-5.9807744E7,62,2.5940128E-5,-2.594025E-5,9.4E-44,False,False,0,None,0.0,1.0842022E-19,NONE,0.0,0.0,0.0,NONE,-1.554440510263932E-11,-2.2337761907452624E-11,2.3841858E-6,
533487433,138.651,0.0,0.0,0,7.2584524,7.033796,0.06298903,-0.0066537685,-0.99352413,0.9955411,0.26351282,-0.19191404,-0.18823922,0.37643594,-289,305,1431,1491.0,-0.05036216,-0.055670194,-0.007924856,0.075487226,0.07507008491638031,-0.07507008491638031,0.36075255440323467,3.2268395176600952,-124.54288237809261,235.4571176219074,-1.0437549887819257,1.5918024426653647,-0.765560599055321,-125.08242761065446,,0.0,,,64.72,,,0.0,0.0,20190425,113204,2019-04-25T11:32:04Z,-17.0,99.99,99.99,3.7500008E7,0,0,0,0.0,0.0,0.0,0,0,0,0,0,0,,,,false,false,false,false,false,false,false,false,false,false,0,0,0,0,52,66,65,50,943,944,943,943,940,940,940,940,0.0,0.0,0.0,0.0,1725.0,1720.2,1720.8,1725.7,0.0,0.0,0.0,0.0,0,0,0,0,-45.0,-1.3126572446953932E-10,-1.1143782345023988E-10,0,7.414349,7.6774383,0.0633212,-0.0070728585,-0.9933595,0.9954008,0.34729445,-0.009257648,-0.17797138,0.39034978,-285,305,1427,1486.0,-0.0017021183,-0.0020065738,6.2030717E-4,0.0027033915,0.0026312630508746934,-0.0026176813848360013,0.38889323299667955,3.4966713302382675,-121.70019450830294,238.29980549169704,-0.9941160843456929,1.596237040029212,-0.7192451112027423,-123.74914205048653,,4.3066003808539766E-4,,,64.72,17.365,17.365,6.208,1.2459314,0,3631,4.337,12.0,1.237,99,26.4,OK,131,0,0,0,0,0,65,100,0.0,0,0.0,589232.0,2.69E-43,0.0,-5.9807744E7,62,2.5940128E-5,-2.594025E-5,9.4E-44,False,False,0,None,0.0,1.0842022E-19,NONE,0.0,0.0,0.0,NONE,-4.0726676017645473E-11,-3.5455968151762845E-11,1.4305115E-6,
537341222,139.653,0.0,0.0,0,7.1844673,7.0289383,0.061723854,-0.0076499404,-0.9961366,0.9980764,0.43400672,-0.14176029,-0.2813283,0.5362867,-296,305,1427,1488.0,-0.048368778,-0.05647933,-0.007720839,0.07476005,0.07436029526757663,-0.07436029526757663,0.3439671535731083,3.2209800352823477,-124.54587960949591,235.4541203905041,-1.209079121519875,1.809118340990441,-0.9008109392668888,-125.98539738112909,,0.0,,,64.81,,,0.0,0.0,20190425,113205,2019-04-25T11:32:05Z,-17.0,99.99,99.99,3.7500008E7,0,0,0,0.0,0.0,0.0,0,0,0,0,0,0,,,,false,false,false,false,false,false,false,false,false,false,0,0,0,0,51,65,65,50,943,945,944,944,940,940,940,940,0.0,0.0,0.0,0.0,1726.3,1719.6,1720.8,1725.0,0.0,0.0,0.0,0.0,0,0,0,0,-45.0,-7.015897802576736E-11,-2.0070520901957534E-11,0,7.065563,7.6784654,0.063422784,-0.006855792,-0.9919612,0.99401027,0.29201588,-0.15678991,-0.2641465,0.42382747,-296,305,1423,1485.0,-3.5752764E-4,-0.0010923783,-0.003760223,0.003931971,0.001149398240390053,-0.0011371952016424453,0.3722369214962937,3.4908812984969204,-121.69111455848311,238.3088854415169,-1.1717674743108204,1.85882656093956,-0.8577004793352955,-125.2075205185303,,4.886623557217671E-4,,,64.84,17.363,17.363,6.205,1.2441207,0,3630,4.337,12.0,1.226,99,26.4,OK,132,0,0,0,0,0,65,100,0.0,0,0.0,589232.0,2.69E-43,0.0,-5.9807744E7,62,2.5940128E-5,-2.594025E-5,9.4E-44,False,False,0,None,0.0,1.0842022E-19,NONE,0.0,0.0,0.0,NONE,-1.3151671054975842E-11,-7.261864170304726E-12,-4.2915344E-6,
541198619,140.655,0.0,0.0,0,7.1104827,7.0104885,0.0625884,-0.007785087,-0.9921511,0.99415374,0.25569522,-0.25265387,-0.21584563,0.4192891,-289,309,1427,1488.0,-0.051946282,-0.056004852,1.2540778E-4,0.07638701,0.07638690930418096,-0.07638690930418096,0.3315044911144696,3.2221478727128874,-124.55628230388501,235.443717696115,-1.3852323379567404,2.0177553355015547,-1.0471997528534407,-124.69932423593833,,0.0,,,64.82,,,0.0,0.0,20190425,113206,2019-04-25T11:32:06Z,-17.0,99.99,99.99,3.7500008E7,0,0,0,0.0,0.0,0.0,0,0,0,0,0,0,,,,false,false,false,false,false,false,false,false,false,false,0,0,0,0,51,66,65,50,943,945,944,944,940,940,940,940,0.0,0.0,0.0,0.0,1725.0,1720.8,1718.9,1725.7,0.0,0.0,0.0,0.0,0,0,0,0,-45.0,7.178202141364271E-12,-7.444247395554695E-11,0,7.1025558,7.6772604,0.06252637,-0.0059478497,-0.99481183,0.9967926,0.2876182,-0.22335723,-0.1793681,0.4059379,-296,305,1427,1488.0,-0.0010848836,8.015649E-5,0.0016788021,0.0020004434,0.0010878407254914834,-0.00107735505540313,0.38355689675151033,3.4929859464137567,-121.69276925605496,238.30723074394504,-1.392338606873117,2.156297556228844,-1.0239689043904412,-125.19682285119679,,5.451878423980576E-4,,,64.86,17.363,17.363,6.206,1.2416643,0,3630,4.336,12.0,1.223,99,26.4,OK,133,0,0,0,0,0,65,100,0.0,0,0.0,589232.0,2.69E-43,0.0,-1.05007105E-23,62,2.5940128E-5,-2.594025E-5,9.4E-44,False,False,0,None,0.0,1.0842022E-19,NONE,0.0,0.0,0.0,NONE,2.7876188269706767E-11,-2.0723084737113947E-11,6.198883E-6,
545095769,141.668,0.0,0.0,0,7.179183,6.996259,0.062180277,-0.007836808,-0.9942954,0.99626863,0.31182376,-0.12097854,-0.09414295,0.3474662,-292,305,1423,1484.0,-0.05902147,-0.053583227,-0.004857671,0.07986422,0.07971634786755799,-0.07971634786755799,0.3283609244891814,3.221618004302287,-124.56513404098746,235.43486595901254,-1.592390973425938,2.3008921425193836,-1.2557634605528651,-125.46643521634778,,0.0,,,64.86,,,0.0,0.0,20190425,113207,2019-04-25T11:32:07Z,-17.0,99.99,99.99,3.7500008E7,0,0,0,0.0,0.0,0.0,0,0,0,0,0,0,,,,false,false,false,false,false,false,false,false,false,false,0,0,0,0,52,64,65,52,943,945,944,944,940,940,940,940,0.0,0.0,0.0,0.0,1725.7,1720.2,1720.2,1725.7,0.0,0.0,0.0,0.0,0,0,0,0,-45.0,-1.4808179242549444E-11,-3.799092764995312E-11,0,7.139548,7.6773143,0.06202505,-0.0069084684,-0.9946448,0.9966008,0.31016326,-0.2152437,-0.068645775,0.383723,-292,305,1427,1488.0,-0.0016658555,-6.683662E-4,9.175322E-4,0.0020158505,0.00179493395211946,-0.001790260561582624,0.3993294882452884,3.5001557883211745,-121.6914346236853,238.3085653763147,-1.5540522434988655,2.3483917088932804,-1.1927903826404547,-124.68782540538542,,5.937256327536233E-4,,,64.85,17.364,17.364,6.208,1.2386097,0,3630,4.336,12.0,1.221,99,26.4,OK,134,0,0,0,0,0,65,100,0.0,0,0.0,589232.0,2.69E-43,0.0,-1.05007105E-23,62,2.5940128E-5,-2.594025E-5,9.4E-44,False,False,0,None,0.0,1.0842022E-19,NONE,0.0,0.0,0.0,NONE,-1.248237481962957E-11,-4.2885156384330545E-11,3.8146973E-6,
549109291,142.711,0.0,0.0,0,7.2346716,6.988642,0.062105928,-0.007122367,-0.99439436,0.9963574,0.14865117,-0.178972,-0.21338128,0.31568927,-300,305,1435,1497.0,-0.062445812,-0.05240219,0.0049753184,0.08167143,0.08151974604336724,-0.08151974604336724,0.32458184916823685,3.2304920966470556,-124.57792322028045,235.42207677971953,-1.7980050941507182,2.574741132314312,-1.4430563368296612,-126.36152979216614,,0.0,,,64.91,,,0.0,0.0,20190425,113208,2019-04-25T11:32:08Z,-17.0,99.99,99.99,3.7500008E7,0,0,0,0.0,0.0,0.0,0,0,0,0,0,0,,,,false,false,false,false,false,false,false,false,false,false,0,0,0,0,51,66,65,52,943,946,945,944,940,940,940,940,0.0,0.0,0.0,0.0,1725.7,1720.2,1720.2,1725.7,0.0,0.0,0.0,0.0,0,0,0,0,-45.0,-4.549541170627057E-11,-4.1906310635658196E-11,0,7.2320294,7.6773844,0.06377541,-0.00726252,-0.9938286,0.99589926,0.19763985,-0.164252,-0.0065295673,0.25706586,-300,305,1431,1493.0,-6.3529017E-4,-7.365518E-4,-3.101137E-4,0.0010209176,9.726778524155887E-4,-9.693800489518931E-4,0.3893496983782118,3.5051830184704684,-121.69037569174692,238.3096243082531,-1.744922483770471,2.5930465558370566,-1.3856007956232832,-125.65547833662244,,6.615449006026295E-4,,,64.9,17.362,17.362,6.206,1.2353563,0,3629,4.336,12.0,1.225,99,26.4,OK,135,0,0,0,0,0,65,100,0.0,0,0.0,589232.0,2.69E-43,0.0,-1.05007105E-23,62,2.5940128E-5,-2.594025E-5,9.4E-44,False,False,0,None,0.0,1.0842022E-19,NONE,0.0,0.0,0.0,NONE,-1.0374091672949706E-11,-2.9867344574540685E-12,1.9073486E-6,
553086407,143.745,0.0,0.0,0,7.012717,6.962288,0.061795656,-0.0065748943,-0.9931564,0.9950987,0.41122785,-0.14131217,-0.28188998,0.5182079,-292,305,1427,1488.0,-0.063600056,-0.050572056,0.011645346,0.08208602,0.0812557696393848,-0.0812557696393848,0.3257733168765749,3.229457010041163,-124.58105967364567,235.41894032635435,-1.9870976796047186,2.8804406066548705,-1.5824225637471616,-125.40864673086395,,0.0,,,64.9,,,0.0,0.0,20190425,113209,2019-04-25T11:32:09Z,-17.0,99.99,99.99,3.7500008E7,0,0,0,0.0,0.0,0.0,0,0,0,0,0,0,,,,false,false,false,false,false,false,false,false,false,false,0,0,0,0,51,66,66,51,943,945,944,944,940,940,940,940,0.0,0.0,0.0,0.0,1725.7,1720.2,1720.8,1725.7,0.0,0.0,0.0,0.0,0,0,0,0,-45.0,-9.253020475348634E-12,-8.782003248619764E-11,0,7.229387,7.677662,0.0628823,-0.007061831,-0.9936871,0.9956998,0.23677881,-0.17779575,-0.279234,0.40699774,-289,305,1431,1491.0,-0.0013025106,-1.8957391E-4,-9.306952E-4,0.0016120378,0.001316234070530002,-0.0013099414532806394,0.3879303517441552,3.4956051376730417,-121.68546674922963,238.31453325077035,-1.952282967216724,2.819477417200005,-1.5314867684466982,-124.25291394317259,,6.858260968537755E-4,,,64.89,17.362,17.362,6.205,1.2322772,0,3629,4.336,12.0,1.221,99,26.4,OK,136,0,0,0,0,0,65,100,0.0,0,0.0,589232.0,2.69E-43,0.0,-1.05007105E-23,62,2.5940128E-5,-2.594025E-5,9.4E-44,False,False,0,None,0.0,1.0842022E-19,NONE,0.0,0.0,0.0,NONE,-1.447353112349485E-11,-1.7502096595578745E-11,-5.2452087E-6,
556999716,144.762,0.0,0.0,0,6.983651,6.8715,0.06368262,-0.0070177848,-0.9932465,0.99531066,0.22804724,-0.06725812,-0.09677951,0.2567011,-292,305,1423,1484.0,-0.063484184,-0.048332684,0.021341179,0.082593806,0.07978903528726805,-0.07978903528726805,0.31562860315665,3.2496565191819755,-124.5856103143316,235.4143896856684,-2.1383652331363483,3.1118857759263743,-1.767672985606954,-125.34782891809215,,0.0,,,64.92,,,0.0,0.0,20190425,113210,2019-04-25T11:32:10Z,-17.0,99.99,99.99,3.7500008E7,0,0,0,0.0,0.0,0.0,0,0,0,0,0,0,,,,false,false,false,false,false,false,false,false,false,false,0,0,0,0,52,66,66,52,943,945,944,944,940,940,940,940,0.0,0.0,0.0,0.0,1725.0,1720.2,1720.2,1725.7,0.0,0.0,0.0,0.0,0,0,0,0,-45.0,-9.192783815106667E-11,-1.0439348056507189E-10,0,7.147475,7.6769123,0.062486183,-0.007184562,-0.9936761,0.9956648,0.27556473,-0.22721563,-0.24368237,0.43237016,-292,305,1427,1488.0,-0.0015627001,-0.0013778216,0.0011700318,0.0023894347,0.002083368391997579,-0.0020741496668122993,0.3837593030720321,3.5070050255034295,-121.68213803622803,238.31786196377197,-2.117053255479042,3.0499098560547813,-1.6563839833550558,-124.63054690906935,,7.304815054923715E-4,,,64.93,17.361,17.361,6.207,1.2294766,0,3629,4.336,12.0,1.221,99,26.4,OK,137,0,0,0,0,0,65,100,0.0,0,0.0,589232.0,2.69E-43,0.0,-1.05007105E-23,62,2.5940128E-5,-2.594025E-5,9.4E-44,False,False,0,None,0.0,1.0842022E-19,NONE,0.0,0.0,0.0,NONE,-1.341436982910921E-10,-1.0775669414926198E-10,5.2452087E-6,
560981549,145.797,0.0,0.0,0,7.081417,6.7958717,0.06296418,-0.007068279,-0.99625045,0.9982632,0.35090417,-0.14550644,-0.18519689,0.42261535,-300,305,1423,1485.0,-0.06602911,-0.048176467,0.022014318,0.08464895,0.0817362556069794,-0.0817362556069794,0.3023026370871665,3.259980849342132,-124.58757485199658,235.41242514800342,-2.3666319852705793,3.3607014006570095,-1.957266785575288,-126.29703760913642,,0.0,,,64.95,,,0.0,0.0,20190425,113211,2019-04-25T11:32:11Z,-17.0,99.99,99.99,3.7500008E7,0,0,0,0.0,0.0,0.0,0,0,0,0,0,0,,,,false,false,false,false,false,false,false,false,false,false,0,0,0,0,51,68,67,52,944,945,944,945,940,940,940,940,0.0,0.0,0.0,0.0,1725.7,1720.8,1719.6,1725.7,0.0,0.0,0.0,0.0,0,0,0,0,-45.0,-3.652684213300101E-11,-1.5498390987490696E-10,0,6.949301,7.6770735,0.062794864,-0.007021418,-0.994772,0.99677676,0.23896009,-0.17705022,-0.15344708,0.3346561,-300,305,1419,1482.0,-0.0023533253,-5.170491E-4,7.5529044E-4,0.002525063,0.002409456225873245,-0.002401394914143713,0.3657070854577331,3.5168620943938738,-121.67419849255151,238.3258015074485,-2.3190346663853125,3.2790427040669727,-1.8707879003285741,-125.65153108651967,,7.97358322040475E-4,,,64.93,17.362,17.362,6.208,1.2269993,0,3628,4.336,12.0,1.221,99,26.4,OK,138,0,0,0,0,0,65,100,0.0,0,0.0,589232.0,2.69E-43,0.0,-1.05007105E-23,62,2.5940128E-5,-2.594025E-5,9.4E-44,False,False,0,None,0.0,1.0842022E-19,NONE,0.0,0.0,0.0,NONE,-1.1645754523373794E-11,-4.8682935037005826E-11,1.9073486E-6,
564989215,146.838,0.0,0.0,0,6.9360895,6.7202554,0.061166745,-0.006816999,-0.9950245,0.99692607,0.2926744,-0.19948503,-0.16358091,0.39014265,-300,305,1427,1489.0,-0.06483208,-0.044855747,0.031265482,0.084810175,0.07883676902136653,-0.07883676902136653,0.3053828316722752,3.2694311558662075,-124.57326054823221,235.4267394517678,-2.524370576990832,3.6428924575316213,-2.0971277220990676,-126.24763186319005,,0.0,,,64.99,,,0.0,0.0,20190425,113212,2019-04-25T11:32:12Z,-17.0,99.99,99.99,3.7500008E7,0,0,0,0.0,0.0,0.0,0,0,0,0,0,0,,,,false,false,false,false,false,false,false,false,false,false,0,0,0,0,52,67,66,50,944,945,944,945,940,940,940,940,0.0,0.0,0.0,0.0,1726.9,1720.2,1719.6,1725.7,0.0,0.0,0.0,0.0,0,0,0,0,-45.0,-1.7943832111458E-10,-6.706348293801163E-11,0,7.0787745,7.677744,0.06238887,-0.0068127783,-0.9950722,0.99704933,0.19404557,-0.0049912226,-0.2649165,0.32841948,-296,305,1423,1485.0,-9.89045E-4,-0.0026710907,-0.0028984929,0.0040637664,0.002848321536431569,-0.0028304087835020553,0.39055201547684004,3.50354410499625,-121.65537525983444,238.34462474016556,-2.454817522015228,3.495299837117356,-2.0193505876932987,-125.20717293634205,,8.490910632427534E-4,,,64.98,17.361,17.361,6.205,1.2248682,0,3628,4.336,12.0,1.218,99,26.4,OK,139,0,0,0,0,0,65,100,0.0,0,0.0,589232.0,2.69E-43,0.0,-1.05007105E-23,62,2.5940128E-5,-2.594025E-5,9.4E-44,False,False,0,None,0.0,1.0842022E-19,NONE,0.0,0.0,0.0,NONE,-2.959962607767034E-11,-3.861839287013179E-11,-5.2452087E-6,
568903776,147.856,0.0,0.0,0,6.7960463,6.72034,0.06308977,-0.0072234627,-0.99601847,0.99804074,0.21211977,-0.16056931,-0.19683327,0.33093902,-308,305,1427,1491.0,-0.063384846,-0.038789265,-6.135949E-5,0.07431184,0.07431181293182762,-0.07431181293182762,0.31271269667677537,3.2946547706944607,-124.56731923762146,235.43268076237854,-2.6950091567841428,3.899391966098737,-2.271031214852343,-127.17467822000566,,0.0,,,64.98,,,0.0,0.0,20190425,113213,2019-04-25T11:32:13Z,-17.0,99.99,99.99,3.7500008E7,0,0,0,0.0,0.0,0.0,0,0,0,0,0,0,,,,false,false,false,false,false,false,false,false,false,false,0,0,0,0,52,65,65,51,944,945,944,944,940,940,940,940,0.0,0.0,0.0,0.0,1725.0,1720.8,1719.6,1726.3,0.0,0.0,0.0,0.0,0,0,0,0,-45.0,2.0145816731962645E-11,-1.1793836315219162E-10,0,7.0364976,7.677401,0.06348003,-0.0076980283,-0.99413604,0.9961905,0.34963313,-0.19364223,-0.26803845,0.48123303,-300,305,1427,1489.0,-0.0018099134,2.7827054E-4,-4.780711E-4,0.0018925573,0.0018311802254795864,-0.0018086690020705915,0.38738165868080726,3.5082441155065327,-121.64830438731721,238.3516956126828,-2.6744300389127886,3.7578502002626215,-2.1878878998847693,-125.66998339145997,,9.183970491143355E-4,,,64.98,17.36,17.36,6.203,1.2230098,0,3628,4.336,12.0,1.218,99,26.5,OK,140,0,0,0,0,0,65,100,0.0,0,0.0,589232.0,2.69E-43,0.0,-1.05007105E-23,62,2.5940128E-5,-2.594025E-5,9.4E-44,False,False,0,None,0.0,1.0842022E-19,NONE,0.0,0.0,0.0,NONE,1.5226489390257022E-11,-4.33201989355774E-11,-1.9073486E-6,
572847346,148.880,0.0,0.0,0,6.8568196,6.673226,0.06323156,-0.00821539,-0.9940191,0.9960621,0.16973391,-0.24864481,-0.10434905,0.31862608,-304,305,1419,1482.0,-0.060313895,-0.036225684,0.0053434595,0.07055933,0.07035670612728191,-0.07035670612728191,0.30931468584672056,3.3086763767327265,-124.55954316524559,235.4404568347544,-2.8159495732964532,4.0852328421867,-2.4411645791986314,-126.68449237493896,,0.0,,,65.03,,,0.0,0.0,20190425,113214,2019-04-25T11:32:14Z,-17.0,99.99,99.99,3.7500008E7,0,0,0,0.0,0.0,0.0,0,0,0,0,0,0,,,,false,false,false,false,false,false,false,false,false,false,0,0,0,0,52,65,65,52,944,945,943,945,940,940,940,940,0.0,0.0,0.0,0.0,1725.0,1718.9,1719.6,1725.0,0.0,0.0,0.0,0.0,0,0,0,0,-45.0,3.413410808224445E-11,-7.410782583150035E-11,0,6.8594623,7.6777396,0.06362344,-0.007402527,-0.9948543,0.99691415,0.20156966,-0.10083424,-0.2684982,0.3505555,-300,305,1431,1493.0,-0.0011820608,5.121856E-4,-0.0026545366,0.0029506215,0.001288255340102343,-0.0012832637911487116,0.3840026021134493,3.517895562341186,-121.64318206634819,238.35681793365183,-2.881229174442433,3.995879386594322,-2.430486717754049,-125.60221227115713,,9.705998424101808E-4,,,64.98,17.361,17.361,6.203,1.2214354,0,3627,4.336,12.0,1.219,99,26.4,OK,141,0,0,0,0,0,65,100,0.0,0,0.0,589232.0,2.69E-43,0.0,-1.05007105E-23,62,2.5940128E-5,-2.594025E-5,9.4E-44,False,False,0,None,0.0,1.0842022E-19,NONE,0.0,0.0,0.0,NONE,-4.0542619550953976E-11,-1.6138405512544413E-11,-6.67572E-6,
576757262,149.897,0.0,0.0,0,6.587303,6.560268,0.06327236,-0.0060561756,-0.9956849,0.99771166,0.35423934,-0.13980599,-0.095996656,0.3927424,-300,305,1423,1485.0,-0.05666756,-0.034354664,0.028719649,0.072223775,0.06626805483440755,-0.06626805483440755,0.3066854878746428,3.3287328996715555,-124.55266308291158,235.44733691708842,-2.9404025365878335,4.27283309660984,-2.586661897457981,-126.09016836456938,,0.0,,,65.01,,,0.0,0.0,20190425,113215,2019-04-25T11:32:15Z,-17.0,99.99,99.99,3.7500008E7,0,0,0,0.0,0.0,0.0,0,0,0,0,0,0,,,,false,false,false,false,false,false,false,false,false,false,0,0,0,0,52,66,65,52,943,944,943,943,940,940,940,940,0.0,0.0,0.0,0.0,1723.8,1719.6,1720.2,1725.7,0.0,0.0,0.0,0.0,0,0,0,0,-45.0,-6.376719896929349E-11,-4.626510237473012E-12,0,6.6216536,7.6779394,0.06372146,-0.005993435,-0.9952133,0.9972692,0.30962005,-0.05327932,-0.28051928,0.42118207,-304,305,1423,1486.0,-4.8268674E-5,-0.00101978,-0.0035149357,0.0036601988,0.0010209216629686205,-0.0010077849810614002,0.37724432858123147,3.5111113281893047,-121.63459651479492,238.3654034852051,-3.1049142141314676,4.284643167715832,-2.5688165113704313,-126.17431496818884,,0.0010636159636186564,,,64.99,17.361,17.361,6.21,1.2201496,0,3627,4.335,12.0,1.216,99,26.5,OK,142,0,0,0,0,0,65,100,0.0,0,0.0,589232.0,2.69E-43,0.0,-1.05007105E-23,62,2.5940128E-5,-2.594025E-5,9.4E-44,False,False,0,None,0.0,1.0842022E-19,NONE,0.0,0.0,0.0,NONE,4.3654847054331794E-11,-3.140672591835216E-11,-6.198883E-6,
580642384,150.906,0.0,0.0,0,6.505391,6.4847383,0.06281172,-0.0067574736,-0.9953044,0.9973073,0.19548178,-0.19390206,-0.2359596,0.36261284,-300,309,1427,1490.0,-0.052632153,-0.032424115,0.0276262,0.06771022,0.06181801369009875,-0.06181801369009875,0.3001865924232344,3.3440776679642954,-124.54687161791611,235.4531283820839,-3.1287947172946557,4.509294257121276,-2.7890762518428636,-125.63633889836107,,0.0,,,64.97,,,0.0,0.0,20190425,113216,2019-04-25T11:32:16Z,-17.0,99.99,99.99,3.7500008E7,0,0,0,0.0,0.0,0.0,0,0,0,0,0,0,,,,false,false,false,false,false,false,false,false,false,false,0,0,0,0,53,65,66,52,944,944,944,945,940,940,940,940,0.0,0.0,0.0,0.0,1725.7,1720.2,1720.8,1723.8,0.0,0.0,0.0,0.0,0,0,0,0,-45.0,-1.6143425236009706E-10,5.038127423883212E-11,0,6.5344567,7.677021,0.064223334,-0.006133457,-0.9951404,0.99722946,0.31644484,-0.18830726,-0.09367971,0.37996426,-300,305,1427,1489.0,7.595762E-4,-0.0024894506,-2.88946E-5,0.002602913,0.0026027524573905133,-0.002590408405350152,0.38884628847464847,3.5027131812455456,-121.63084708548057,238.36915291451942,-3.270076694180854,4.52024046510375,-2.7597344412561755,-125.69113400769119,,0.0011501285737650908,,,65.02,17.36,17.36,6.205,1.219092,0,3626,4.336,12.0,1.218,99,26.5,OK,143,0,0,0,0,0,65,100,0.0,0,0.0,589232.0,2.69E-43,0.0,-1.05007105E-23,62,2.5940128E-5,-2.594025E-5,9.4E-44,False,False,0,None,0.0,1.0842022E-19,NONE,0.0,0.0,0.0,NONE,-4.869130124045216E-11,1.8246688660726146E-11,0.0,
584574460,151.928,0.0,0.0,0,6.2755094,6.3138504,0.063948356,-0.006524414,-0.99708134,0.99915123,0.36008987,-0.081296034,-0.04614279,0.37202543,-300,309,1444,1506.0,-0.050725684,-0.02851028,0.05193676,0.07799588,0.05818875338587848,-0.05818875338587848,0.2990085879259622,3.3680388525304945,-124.53843118493494,235.46156881506505,-3.3002010655587224,4.718552831168373,-2.9482255994447177,-125.4400666868654,,0.0,,,65.01,,,0.0,0.0,20190425,113217,2019-04-25T11:32:17Z,-17.0,99.99,99.99,3.7500008E7,0,0,0,0.0,0.0,0.0,0,0,0,0,0,0,,,,false,false,false,false,false,false,false,false,false,false,0,0,0,0,52,66,65,52,943,944,944,944,940,940,940,940,0.0,0.0,0.0,0.0,1725.7,1720.8,1720.2,1725.7,0.0,0.0,0.0,0.0,0,0,0,0,-45.0,-1.895781591210867E-11,-3.316362854174703E-11,0,6.6322227,7.6771593,0.063232444,-0.0060748,-0.99500877,0.99703443,0.024298765,-0.11659588,-0.25371337,0.28027755,-300,309,1439,1502.0,-4.6026183E-4,-3.1206748E-4,-8.4114645E-4,0.0010083424,5.560818840192678E-4,-5.381105312221497E-4,0.37986840808437844,3.5187139213213148,-121.62560329059657,238.3743967094034,-3.350192147522421,4.7160384371515,-2.91671516053177,-125.16830087837717,,0.001207818734172179,,,65.02,17.359,17.359,6.205,1.2182657,0,3626,4.336,12.0,1.217,99,26.5,OK,144,0,0,0,0,0,65,100,0.0,0,0.0,589232.0,2.69E-43,0.0,-1.05007105E-23,62,2.5940128E-5,-2.594025E-5,9.4E-44,False,False,0,None,0.0,1.0842022E-19,NONE,0.0,0.0,0.0,NONE,-8.550259427322448E-12,-3.9145463659923426E-11,-1.4305115E-6,
588487715,152.945,0.0,0.0,0,6.3600636,6.1889315,0.06245822,-0.007122814,-0.9973858,0.9993649,0.2618879,-0.11502329,-0.20173678,0.3500191,-296,305,1419,1481.0,-0.049614184,-0.020489745,0.03453451,0.063828126,0.05367864591736946,-0.05367864591736946,0.28993817523648696,3.391660325079434,-124.53353731205199,235.46646268794802,-3.448798021674325,4.932334167711935,-3.122285462683865,-125.37382713872438,,0.0,,,64.99,,,0.0,0.0,20190425,113218,2019-04-25T11:32:18Z,-17.0,99.99,99.99,3.7500008E7,0,0,0,0.0,0.0,0.0,0,0,0,0,0,0,,,,false,false,false,false,false,false,false,false,false,false,0,0,0,0,52,66,65,52,943,944,944,944,940,940,940,940,0.0,0.0,0.0,0.0,1725.7,1720.8,1720.2,1725.7,0.0,0.0,0.0,0.0,0,0,0,0,-45.0,1.17428024775263E-10,-4.380543870926739E-11,0,6.272867,7.677198,0.06299954,-0.006932654,-0.9942047,0.99622285,0.32697603,-0.18074471,-0.15962534,0.4062785,-296,309,1444,1506.0,-6.6763104E-4,0.0017549925,-7.546412E-4,0.0020236634,0.0018776927618402526,-0.0018627360767211447,0.3711099595801169,3.516828246683914,-121.62439084111782,238.37560915888218,-3.494902705531101,4.892872162153866,-3.060828939615661,-124.60466496288034,,0.0012672229493427378,,,65.0,17.358,17.358,6.202,1.217674,0,3626,4.335,12.0,1.218,99,26.5,OK,145,0,0,0,0,0,65,100,0.0,0,0.0,589232.0,2.69E-43,0.0,-1.05007105E-23,62,2.5940128E-5,-2.594025E-5,9.4E-44,False,False,0,None,0.0,1.0842022E-19,NONE,0.0,0.0,0.0,NONE,1.3369192333087971E-11,-2.3015424348138303E-11,-2.861023E-6,
592410419,153.965,0.0,0.0,0,6.37856,6.1090302,0.062187944,-0.007428392,-0.9956965,0.9976643,0.3328845,-0.033920143,-0.21594094,0.39823756,-300,309,1435,1498.0,-0.04785281,-0.014422294,0.021283403,0.05432198,0.04997893547234471,-0.04997893547234471,0.29424077349087613,3.3968896930743684,-124.52360654058708,235.47639345941292,-3.62235091379234,5.191431484513269,-3.2774817461226875,-125.39978406769444,,0.0,,,64.99,,,0.0,0.0,20190425,113219,2019-04-25T11:32:19Z,-17.0,99.99,99.99,3.7500008E7,0,0,0,0.0,0.0,0.0,0,0,0,0,0,0,,,,false,false,false,false,false,false,false,false,false,false,0,0,0,0,52,65,64,51,944,944,944,944,940,940,940,940,0.0,0.0,0.0,0.0,1723.8,1719.6,1720.2,1723.8,0.0,0.0,0.0,0.0,0,0,0,0,-45.0,-7.655075710193874E-11,-5.17449653197258E-11,0,6.330998,7.6772623,0.063367456,-0.0070884596,-0.9962589,0.99829733,0.17384925,-0.19858073,-0.32765198,0.42072996,-304,309,1448,1511.0,-8.214115E-4,-0.0011508772,-0.0022373626,0.002646701,0.0014139431874300925,-0.0013927684351658048,0.37680625906761855,3.4993589072250417,-121.62547002980362,238.37452997019636,-3.692358384410293,5.195320129087762,-3.2141132431637796,-125.6668645714275,,0.0013239562482280278,,,64.99,17.358,17.358,6.204,1.2173008,0,3625,4.335,12.0,1.218,99,26.5,OK,146,0,0,0,0,0,65,100,0.0,0,0.0,589232.0,2.69E-43,0.0,-1.05007105E-23,62,2.5940128E-5,-2.594025E-5,9.4E-44,False,False,0,None,0.0,1.0842022E-19,NONE,0.0,0.0,0.0,NONE,-2.071471853405738E-11,-2.5567116252051437E-11,-1.4305115E-6,
596309559,154.978,0.0,0.0,0,6.420837,6.100666,0.06267252,-0.0076010567,-0.99609846,0.99809706,0.26272583,-0.012516745,-0.1990854,0.3298735,-304,305,1435,1498.0,-0.04801733,-0.013556723,-0.013993995,0.051819693,0.04989437601415798,-0.04989437601415798,0.293113407815284,3.422599026321696,-124.49933015302578,235.50066984697423,-3.777234726519575,5.390255572071791,-3.410320487000038,-126.18064906762847,,0.0,,,65.05,,,0.0,0.0,20190425,113220,2019-04-25T11:32:20Z,-17.0,99.99,99.99,3.7500008E7,0,0,0,0.0,0.0,0.0,0,0,0,0,0,0,,,,false,false,false,false,false,false,false,false,false,false,0,0,0,0,52,66,66,52,944,946,945,944,940,940,940,940,0.0,0.0,0.0,0.0,1725.0,1719.6,1719.6,1725.7,0.0,0.0,0.0,0.0,0,0,0,0,-45.0,-6.403491746841863E-11,-8.32269870624286E-11,0,6.402341,7.677504,0.06354817,-0.0065815803,-0.99647325,0.99851924,0.20763846,-0.10624102,-0.14463522,0.27444533,-300,305,1427,1489.0,-0.0012071606,-9.927234E-4,-0.0022498074,0.0027394106,0.0015629256408432669,-0.001559208203698536,0.36969552476461043,3.519722831854189,-121.60716809899542,238.39283190100457,-3.8425827287797145,5.450366808644057,-3.398567003960621,-125.59314681223326,,0.0013668821406801642,,,65.02,17.358,17.358,6.202,1.2171375,0,3625,4.335,12.0,1.219,99,26.5,OK,147,0,0,0,0,0,65,100,0.0,0,0.0,589232.0,2.69E-43,0.0,-1.05007105E-23,62,2.5940128E-5,-2.594025E-5,9.4E-44,False,False,0,None,0.0,1.0842022E-19,NONE,0.0,0.0,0.0,NONE,-2.971675291903978E-11,-4.54703130954339E-11,-6.198883E-6,
600181195,155.984,0.0,0.0,0,6.4551873,6.128784,0.06356388,-0.0073084338,-0.9956309,0.99768466,0.23390025,-0.15451229,-0.09543052,0.2961256,-300,305,1423,1485.0,-0.043158878,-0.010933063,-0.03579692,0.05712828,0.044522134366554826,-0.044522134366554826,0.2966392957095005,3.4408712987637085,-124.50036739479906,235.49963260520093,-3.9102426907649983,5.632162417490864,-3.5564959359666224,-125.71161000675842,,0.0,,,65.02,,,0.0,0.0,20190425,113221,2019-04-25T11:32:21Z,-17.0,99.99,99.99,3.7500008E7,0,0,0,0.0,0.0,0.0,0,0,0,0,0,0,,,,false,false,false,false,false,false,false,false,false,false,0,0,0,0,51,64,66,53,943,945,944,944,940,940,940,940,0.0,0.0,0.0,0.0,1725.0,1720.2,1720.2,1723.8,0.0,0.0,0.0,0.0,0,0,0,0,-45.0,-4.499343953025451E-11,-4.6959497226351544E-11,0,6.2834363,7.6771445,0.063371696,-0.0059663914,-0.99585646,0.9978886,0.18811724,-0.28451136,-0.17406213,0.38292614,-300,301,1427,1488.0,-6.9071E-4,-6.883272E-4,-1.4877158E-4,9.864115E-4,9.751279662965675E-4,-9.706013277260382E-4,0.3633443442332675,3.5054847602400088,-121.61095748248638,238.38904251751362,-3.969435862926238,5.685639393712898,-3.5320004351246745,-125.99498240790449,,0.001427109185152313,,,65.0,17.359,17.359,6.206,1.2171221,0,3625,4.335,12.0,1.217,99,26.5,OK,148,0,0,0,0,0,65,100,0.0,0,0.0,589232.0,2.69E-43,0.0,-1.05007105E-23,62,2.5940128E-5,-2.594025E-5,9.4E-44,False,False,0,None,0.0,1.0842022E-19,NONE,0.0,0.0,0.0,NONE,-2.9131118712960676E-11,-1.1913473017592189E-11,-2.861023E-6,
604157264,157.018,0.0,0.0,0,6.8303967,6.240321,0.062575065,-0.006687933,-0.9945858,0.9965748,0.20199698,-0.1803855,-0.14405027,0.30674452,-300,313,1448,1511.0,-0.039511885,-0.009152478,-0.046766546,0.06190369,0.04055806799291308,-0.04055806799291308,0.29436608853507534,3.467119207021035,-124.485863968396,235.51413603160398,-4.011145338295932,5.849396467036687,-3.707969162372044,-124.72642508680913,,0.0,,,65.02,,,0.0,0.0,20190425,113222,2019-04-25T11:32:22Z,-17.0,99.99,99.99,3.7500008E7,0,0,0,0.0,0.0,0.0,0,0,0,0,0,0,,,,false,false,false,false,false,false,false,false,false,false,0,0,0,0,53,65,66,52,944,945,944,945,940,940,940,940,0.0,0.0,0.0,0.0,1725.0,1719.6,1720.2,1723.8,0.0,0.0,0.0,0.0,0,0,0,0,-45.0,-2.8880132625512486E-11,-7.870923746837238E-11,0,6.497464,7.67708,0.063111745,-0.0070658014,-0.9963384,0.9983603,0.27403253,-0.2716436,-0.1269754,0.40621033,-304,313,1444,1508.0,-0.0011754138,-4.0765142E-4,3.266147E-4,0.001286256,0.0012440970224850403,-0.0012402657955095302,0.36120412691980314,3.5210410620883223,-121.59485964559272,238.40514035440728,-4.144182376691546,5.92027033830659,-3.680624692173296,-125.23172761900796,,0.0014790566883511175,,,65.02,17.359,17.359,6.204,1.2170622,0,3624,4.334,12.0,1.213,99,26.5,OK,149,0,0,0,0,0,65,100,0.0,0,0.0,589232.0,2.69E-43,0.0,-1.05007105E-23,62,2.5940128E-5,-2.594025E-5,9.4E-44,False,False,0,None,0.0,1.0842022E-19,NONE,0.0,0.0,0.0,NONE,-1.8589702981837615E-11,-3.721287077552372E-11,0.0,
608014034,158.020,0.0,0.0,0,6.692996,6.3417854,0.06346798,-0.0073610456,-0.9948816,0.99693114,0.1458489,-0.08284495,-0.038720075,0.17214654,-300,309,1431,1494.0,-0.037404303,-0.0074444795,-0.049828734,0.062748745,0.03813793685710001,-0.03813793685710001,0.29129482220921266,3.477572389622933,-124.46097062277633,235.53902937722367,-4.1423081754372655,6.03536269140268,-3.8999789285695265,-125.16339966632415,,0.0,,,64.97,,,0.0,0.0,20190425,113223,2019-04-25T11:32:23Z,-17.0,99.99,99.99,3.7500008E7,0,0,0,0.0,0.0,0.0,0,0,0,0,0,0,,,,false,false,false,false,false,false,false,false,false,false,0,0,0,0,52,66,66,52,943,945,944,944,940,940,940,940,0.0,0.0,0.0,0.0,1725.7,1720.2,1718.9,1723.2,0.0,0.0,0.0,0.0,0,0,0,0,-45.0,1.067862146156131E-10,-1.5694996757982618E-10,0,6.698281,7.676716,0.06338676,-0.006208912,-0.9949191,0.99695563,0.25794438,-0.24222927,-0.0866993,0.3643173,-304,309,1439,1502.0,-0.002343499,0.0016020207,0.0014065467,0.0031680958,0.002838742283434408,-0.0028213689008983207,0.34809428282655785,3.5300262121381234,-121.57890170188092,238.4210982981191,-4.272339150032791,6.122572028406376,-3.8480162086370724,-125.56825677144974,,0.0015258382389338968,,,64.95,17.358,17.358,6.204,1.2167978,0,3624,4.334,12.0,1.214,99,26.5,OK,150,0,0,0,0,0,65,100,0.0,0,0.0,589232.0,2.69E-43,0.0,-1.05007105E-23,62,2.5940128E-5,-2.594025E-5,9.4E-44,False,False,0,None,0.0,1.0842022E-19,NONE,0.0,0.0,0.0,NONE,4.417355164229548E-12,-2.130035274266748E-11,2.861023E-6,
611911774,159.033,0.0,0.0,0,6.8488927,6.3248744,0.06350794,-0.006002566,-0.99471396,0.9967573,0.25390628,-0.12704968,-0.179736,0.33602837,-300,305,1435,1497.0,-0.033713818,-0.005538004,-0.008774212,0.03527432,0.03416564005603509,-0.03416564005603509,0.2897942344670801,3.49038009445647,-124.44734483335874,235.55265516664127,-4.267597348836981,6.240007104296498,-4.047457267208006,-125.45048539246686,,0.0,,,64.99,,,0.0,0.0,20190425,113224,2019-04-25T11:32:24Z,-17.0,99.99,99.99,3.7500008E7,0,0,0,0.0,0.0,0.0,0,0,0,0,0,0,,,,false,false,false,false,false,false,false,false,false,false,0,0,0,0,53,66,66,52,944,944,944,944,940,940,940,940,0.0,0.0,0.0,0.0,1723.2,1719.6,1720.2,1723.8,0.0,0.0,0.0,0.0,0,0,0,0,-45.0,-2.7943117892872924E-12,4.142943706751698E-11,0,6.5238876,7.6772795,0.062141363,-0.006606106,-0.99697715,0.99893373,0.12197721,-0.18782595,-0.26334077,0.34569553,-300,305,1431,1493.0,6.491278E-4,1.3450035E-5,-0.0028548045,0.002927705,6.49267154886162E-4,-6.243903009140841E-4,0.3552108687833547,3.521993957976582,-121.56775822684611,238.4322417731539,-4.450095552291956,6.366012287310789,-4.010616030455674,-125.52410173595764,,0.001595214119738538,,,65.0,17.358,17.358,6.206,1.2164236,0,3624,4.334,12.0,1.216,99,26.5,OK,151,0,0,0,0,0,65,100,0.0,0,0.0,589232.0,2.69E-43,0.0,-1.05007105E-23,62,2.5940128E-5,-2.594025E-5,9.4E-44,False,False,0,None,0.0,1.0842022E-19,NONE,0.0,0.0,0.0,NONE,-7.52958266616245E-12,-2.659615921747826E-11,-1.4305115E-6,
615867297,160.061,0.0,0.0,0,6.5661645,6.389302,0.0637061,-0.0059902663,-0.99599344,0.9980467,0.22067662,-0.20064397,-0.2001758,0.35920262,-304,309,1444,1507.0,-0.030729687,-0.0025016249,-0.03616574,0.047524024,0.03083134427610806,-0.03083134427610806,0.2932567628299542,3.4970815357455223,-124.43844747020582,235.5615525297942,-4.388054073865601,6.507094444948723,-4.200853433608472,-125.51574275858373,,0.0,,,65.0,,,0.0,0.0,20190425,113225,2019-04-25T11:32:25Z,-17.0,99.99,99.99,3.7500008E7,0,0,0,0.0,0.0,0.0,0,0,0,0,0,0,,,,false,false,false,false,false,false,false,false,false,false,0,0,0,0,52,66,67,53,944,946,945,945,940,940,940,940,0.0,0.0,0.0,0.0,1725.0,1720.8,1719.6,1723.8,0.0,0.0,0.0,0.0,0,0,0,0,-45.0,-2.9900809387457444E-11,9.518229110271497E-11,0,6.3838444,7.6769614,0.06249729,-0.00625163,-0.9963164,0.99829423,0.41029176,-0.25878146,-0.041109882,0.48682356,-304,305,1439,1502.0,0.0014526903,-4.2340325E-4,-0.0012139527,0.0019399126,0.0015131356416449183,-0.0015066240937794332,0.37465957209006046,3.5132143509544544,-121.56845974093638,238.43154025906364,-4.597121446313153,6.595828445041539,-4.1951042614123555,-126.04742129815985,,0.0016692768041769823,,,65.01,17.358,17.358,6.206,1.2162098,0,3623,4.334,12.0,1.221,99,26.5,OK,152,0,0,0,0,0,65,100,0.0,0,0.0,589232.0,2.69E-43,0.0,-1.05007105E-23,62,2.5940128E-5,-2.594025E-5,9.4E-44,False,False,0,None,0.0,1.0842022E-19,NONE,0.0,0.0,0.0,NONE,-2.2404691532915845E-11,2.42619885905362E-11,-4.2915344E-6,
619765385,161.074,0.0,0.0,0,7.007432,6.452388,0.063799866,-0.0069609005,-0.9944852,0.9965539,0.18108654,-0.15471312,-0.07248474,0.2489629,-304,305,1431,1494.0,-0.030082306,-0.0022275974,-0.040579394,0.050562777,0.03016467032608087,-0.03016467032608087,0.3016024865387305,3.5093854068762727,-124.4346687213539,235.5653312786461,-4.523355175387225,6.744399814755206,-4.339344573061441,-125.95192119952195,,0.0,,,64.98,,,0.0,0.0,20190425,113226,2019-04-25T11:32:26Z,-17.0,99.99,99.99,3.7500008E7,0,0,0,0.0,0.0,0.0,0,0,0,0,0,0,,,,false,false,false,false,false,false,false,false,false,false,0,0,0,0,53,67,67,53,944,945,944,945,940,940,940,940,0.0,0.0,0.0,0.0,1723.8,1720.8,1719.6,1725.0,0.0,0.0,0.0,0.0,0,0,0,0,-45.0,9.621133406520732E-12,1.6707307315497306E-11,0,7.015359,7.677086,0.062404197,-0.005745777,-0.9947018,0.99667394,0.14796044,-0.075074755,-0.049923413,0.17326528,-300,305,1431,1493.0,3.2587134E-4,1.2615886E-4,-8.915991E-4,9.57631E-4,3.4943982346871216E-4,-3.3979594290173596E-4,0.3649560739913293,3.5172946267263248,-121.57647805186893,238.42352194813105,-4.704479868412386,6.863997597340657,-4.4353000910623175,-125.56124600618897,,0.0017480474791428126,,,64.99,17.355,17.355,6.205,1.2163167,0,3623,4.334,12.0,1.219,99,26.5,OK,153,0,0,0,0,0,65,100,0.0,0,0.0,589232.0,2.69E-43,0.0,-5.9807744E7,62,2.5940128E-5,-2.594025E-5,9.4E-44,False,False,0,None,0.0,1.0842022E-19,NONE,0.0,0.0,0.0,NONE,3.9990450159041285E-12,2.95661612682117E-11,-2.3841858E-6,
623650342,162.084,0.0,0.0,0,7.131621,6.6091995,0.064081095,-0.006571387,-0.99529284,0.99737525,0.0703342,-0.27209347,-0.04553602,0.28470212,-296,305,1431,1492.0,-0.028358947,0.0010298826,-0.059642598,0.06604945,0.02837764244094366,-0.02837764244094366,0.28920425542443157,3.5283480259075217,-124.42289683742524,235.57710316257476,-4.6553469397134455,6.970797165604245,-4.547971961388836,-124.84155896167452,,0.0,,,64.96,,,0.0,0.0,20190425,113227,2019-04-25T11:32:27Z,-17.0,99.99,99.99,3.7500008E7,0,0,0,0.0,0.0,0.0,0,0,0,0,0,0,,,,false,false,false,false,false,false,false,false,false,false,0,0,0,0,54,66,66,53,943,945,944,944,940,940,940,940,0.0,0.0,0.0,0.0,1723.2,1719.6,1718.9,1723.2,0.0,0.0,0.0,0.0,0,0,0,0,-45.0,1.9275731625204382E-11,-6.495519979951686E-11,0,6.973082,7.676982,0.06331775,-0.006866127,-0.9956915,0.9977263,0.29909754,-0.114645846,-0.040461514,0.32286242,-300,305,1431,1493.0,-9.59421E-4,2.6759846E-4,-0.0016583487,0.0019344813,9.960409186867652E-4,-9.869849109886558E-4,0.3517918762153984,3.5189637743579003,-121.58160666663251,238.41839333336748,-4.818687598269804,7.084473108280628,-4.601113158569455,-125.52623535207266,,0.001816378225986517,,,64.99,17.356,17.356,6.205,1.2165606,0,3623,4.334,12.0,1.215,99,26.5,OK,154,0,0,0,0,0,65,100,0.0,0,0.0,589232.0,2.69E-43,0.0,-5.9807744E7,62,2.5940128E-5,-2.594025E-5,9.4E-44,False,False,0,None,0.0,1.0842022E-19,NONE,0.0,0.0,0.0,NONE,2.459663670899693E-12,-1.9158604783538425E-11,-4.2915344E-6,
627567335,163.102,0.0,0.0,0,7.0602784,6.7074623,0.061998006,-0.0062145377,-0.996247,0.99819356,0.072617896,-0.30731708,-0.028373426,0.31705233,-300,313,1464,1526.0,-0.029310692,0.005882609,-0.04615887,0.054994207,0.02989517961882115,-0.02989517961882115,0.292090079446862,3.5348894147824175,-124.41486152480601,235.585138475194,-4.758059305421945,7.1959525976138945,-4.7386094781186765,-124.38271342092092,,0.0,,,65.03,,,0.0,0.0,20190425,113228,2019-04-25T11:32:28Z,-17.0,99.99,99.99,3.7500008E7,0,0,0,0.0,0.0,0.0,0,0,0,0,0,0,,,,false,false,false,false,false,false,false,false,false,false,0,0,0,0,53,66,67,53,944,945,944,945,940,940,940,940,0.0,0.0,0.0,0.0,1723.8,1718.9,1720.2,1725.0,0.0,0.0,0.0,0.0,0,0,0,0,-45.0,3.89865058049978E-12,-3.9312787720533196E-11,0,7.3271527,7.6768923,0.06508354,-0.0071337647,-0.9974367,0.9995833,0.07386484,-0.18568368,-0.23950523,0.311925,-300,313,1473,1535.0,-0.0017906665,1.3719243E-4,-0.0017373047,0.0024987068,0.0017959143406877933,-0.0017926484683408793,0.35859648886664824,3.499097627498572,-121.58200292590156,238.41799707409842,-4.9313930094650225,7.321116777004516,-4.727431765312061,-124.58227508821255,,0.0018797204370474667,,,65.05,17.356,17.356,6.203,1.2167923,0,3622,4.334,12.0,1.221,99,26.5,OK,155,0,0,0,0,0,65,100,0.0,0,0.0,589232.0,2.69E-43,0.0,-5.9807744E7,62,2.5940128E-5,-2.594025E-5,9.4E-44,False,False,0,None,0.0,1.0842022E-19,NONE,0.0,0.0,0.0,NONE,4.484284787932343E-11,-2.3776748819596485E-11,-9.536743E-7,
631422502,164.104,0.0,0.0,0,6.809258,6.80621,0.062489007,-0.0058346405,-0.995742,0.9977179,0.1913277,-0.12883498,-0.21261378,0.31370264,-300,309,1448,1510.0,-0.029359793,0.008052506,-0.052385326,0.060589295,0.03044405281651078,-0.03044405281651078,0.30202698777548087,3.5508345778690042,-124.40274503173062,235.5972549682694,-4.878767147288011,7.404453727806805,-4.926922445649684,-124.82451256303365,,0.0,,,65.02,,,0.0,0.0,20190425,113229,2019-04-25T11:32:29Z,-17.0,99.99,99.99,3.7500008E7,0,0,0,0.0,0.0,0.0,0,0,0,0,0,0,,,,false,false,false,false,false,false,false,false,false,false,0,0,0,0,53,66,67,53,944,944,944,945,940,940,940,940,0.0,0.0,0.0,0.0,1725.7,1718.9,1718.9,1723.8,0.0,0.0,0.0,0.0,0,0,0,0,-45.0,-7.549661553669568E-11,1.611330690643572E-11,0,6.909666,7.6765895,0.06284323,-0.0068176766,-0.9965368,0.9985396,0.2097448,-0.16523913,-0.035230342,0.26932883,-300,305,1448,1509.0,2.6275273E-4,-0.0011106281,4.761312E-4,0.0012366222,0.0011412860056264603,-0.0011305400780122607,0.3778620562464909,3.505838422002803,-121.57486891416015,238.42513108583984,-5.061485771972754,7.5532804508108535,-4.909593258004154,-125.50434457347146,,0.0019654641603336965,,,65.02,17.355,17.355,6.203,1.2169375,0,3622,4.334,12.0,1.21,99,26.5,OK,156,0,0,0,0,0,65,100,0.0,0,0.0,589232.0,2.69E-43,0.0,-5.9807744E7,62,2.5940128E-5,-2.594025E-5,9.4E-44,False,False,0,None,0.0,1.0842022E-19,NONE,0.0,0.0,0.0,NONE,-2.5801369937375177E-11,5.63882079694905E-12,9.536743E-7,
635278480,165.106,0.0,0.0,0,7.121052,6.800747,0.06352855,-0.00733497,-0.9948625,0.99691576,0.08907158,-0.1828755,-0.1309628,0.24192654,-300,305,1427,1489.0,-0.026670706,0.007866503,-0.003115239,0.027980585,0.027806624938235366,-0.027806624938235366,0.2903680789560822,3.5668263101716207,-124.38953094765193,235.61046905234807,-4.995499979549235,7.628445532421415,-5.082585975026069,-125.26378216661543,,0.0,,,64.99,,,0.0,0.0,20190425,113230,2019-04-25T11:32:30Z,-17.0,99.99,99.99,3.7500008E7,0,0,0,0.0,0.0,0.0,0,0,0,0,0,0,,,,false,false,false,false,false,false,false,false,false,false,0,0,0,0,53,67,65,53,944,945,944,945,940,940,940,940,0.0,0.0,0.0,0.0,1723.8,1718.9,1719.6,1723.2,0.0,0.0,0.0,0.0,0,0,0,0,-45.0,2.956616126978108E-11,-9.225412006844254E-11,0,6.9677973,7.676785,0.06309216,-0.00722053,-0.9953956,0.99741924,0.23633789,-0.1664236,-0.17611648,0.33848107,-300,305,1427,1489.0,-0.0013707273,4.5329734E-4,7.402721E-5,0.001445632,0.0014437353538896529,-0.0014269880630580795,0.35092015366860463,3.526510431836745,-121.57092982287759,238.4290701771224,-5.169140266929135,7.764211220291903,-5.058786077190765,-125.5291124053747,,0.0020304584785760353,,,65.0,17.356,17.356,6.205,1.2168347,0,3622,4.334,12.0,1.217,99,26.5,OK,157,0,0,0,0,0,65,100,0.0,0,0.0,589232.0,2.69E-43,0.0,-5.9807744E7,62,2.5940128E-5,-2.594025E-5,9.4E-44,False,False,0,None,0.0,1.0842022E-19,NONE,0.0,0.0,0.0,NONE,2.1752127703022785E-12,-3.8191716524730385E-11,-4.7683716E-7,
639175714,166.119,0.0,0.0,0,7.210891,6.7941723,0.06345993,-0.0064902944,-0.9975589,0.9995964,0.038169164,-0.12006325,-0.010365693,0.12641011,-300,305,1427,1489.0,-0.026372537,0.011535783,-0.011259571,0.030908946,0.02878515251592932,-0.02878515251592932,0.29665782733531454,3.5672923397389127,-124.37409583559419,235.62590416440582,-5.1259145731922775,7.882968309955006,-5.246429866460548,-125.27624359813092,,0.0,,,65.02,,,0.0,0.0,20190425,113231,2019-04-25T11:32:31Z,-17.0,99.99,99.99,3.7500008E7,0,0,0,0.0,0.0,0.0,0,0,0,0,0,0,,,,false,false,false,false,false,false,false,false,false,false,0,0,0,0,53,67,67,52,944,945,944,945,940,940,940,940,0.0,0.0,0.0,0.0,1723.2,1719.6,1718.3,1723.2,0.0,0.0,0.0,0.0,0,0,0,0,-45.0,5.536753120714327E-11,-2.1191592104517057E-11,0,7.147475,7.676699,0.063016206,-0.006340927,-0.9963675,0.9983784,0.21033464,-0.21267192,-0.12305213,0.3234375,-296,309,1427,1489.0,-2.952866E-4,8.3685346E-4,-0.0016518694,0.0018751507,8.874220397804367E-4,-8.791223786115052E-4,0.36400283568824304,3.513424812518536,-121.56947382136505,238.43052617863495,-5.262410618370292,7.977896339370019,-5.230065191732075,-124.72518584214386,,0.0020977220914404605,,,64.98,17.354,17.354,6.203,1.2168221,0,3621,4.334,12.0,1.226,99,26.6,OK,158,0,0,0,0,0,65,100,0.0,0,0.0,589232.0,2.69E-43,0.0,-5.9807744E7,62,2.5940128E-5,-2.594025E-5,9.4E-44,False,False,0,None,0.0,1.0842022E-19,NONE,0.0,0.0,0.0,NONE,1.0775669416231272E-11,-1.771125167248572E-11,-2.3841858E-6,
643157578,167.154,0.0,0.0,0,7.189752,6.8717937,0.0639795,-0.0068016625,-0.994757,0.99683553,0.26199085,-0.2571431,-0.031203652,0.36842293,-300,305,1427,1489.0,-0.023571856,0.015074177,-0.029466333,0.040634073,0.027979693296456075,-0.027979693296456075,0.295276208800413,3.5793370330937853,-124.35762974384039,235.6423702561596,-5.1915211941194555,8.112825322138338,-5.392386013035989,-125.23419498623399,,0.0,,,65.02,,,0.0,0.0,20190425,113232,2019-04-25T11:32:32Z,-17.0,99.99,99.99,3.7500008E7,0,0,0,0.0,0.0,0.0,0,0,0,0,0,0,,,,false,false,false,false,false,false,false,false,false,false,0,0,0,0,53,67,67,52,944,945,944,944,940,940,940,940,0.0,0.0,0.0,0.0,1725.0,1718.9,1718.9,1723.2,0.0,0.0,0.0,0.0,0,0,0,0,-45.0,3.461934786169134E-11,3.8676956298839795E-11,0,7.0259285,7.676323,0.06315666,-0.0067553706,-0.99709123,0.99911225,0.19973274,-0.1553443,-0.023512373,0.25412172,-300,305,1431,1493.0,5.910272E-4,5.18443E-4,2.9873158E-4,8.4103324E-4,7.861910036035187E-4,-7.793828721009155E-4,0.3704357131304194,3.5116590467262787,-121.55934848280123,238.44065151719877,-5.378914155324359,8.163437927368001,-5.369526395030271,-125.59184089009321,,0.0021522720417581336,,,64.98,17.352,17.352,6.203,1.2176918,0,3621,4.334,12.0,1.242,99,26.6,OK,159,0,0,0,0,0,65,100,0.0,0,0.0,589232.0,2.69E-43,0.0,-5.9807744E7,62,2.5940128E-5,-2.594025E-5,9.4E-44,False,False,0,None,0.0,1.0842022E-19,NONE,0.0,0.0,0.0,NONE,1.8907618695317103E-12,-1.3553248799298102E-12,4.7683716E-7,
647007184,168.154,0.0,0.0,0,7.179183,6.8974404,0.06430672,-0.0069142547,-0.9975626,0.9996571,0.24263318,-0.299884,0.022800518,0.3864209,-300,309,1448,1510.0,-0.023610063,0.014702603,-0.031169627,0.04177496,0.027813695213200717,-0.027813695213200717,0.28892320162565904,3.584500982411639,-124.35383198626222,235.6461680137378,-5.309917728551549,8.34188372520092,-5.5775146951921535,-124.685111161986,,0.0,,,65.03,,,0.0,0.0,20190425,113233,2019-04-25T11:32:33Z,-17.0,99.99,99.99,3.7500008E7,0,0,0,0.0,0.0,0.0,0,0,0,0,0,0,,,,false,false,false,false,false,false,false,false,false,false,0,0,0,0,52,67,67,53,943,946,945,944,940,940,940,940,0.0,0.0,0.0,0.0,1725.7,1718.9,1719.6,1725.0,0.0,0.0,0.0,0.0,0,0,0,0,-45.0,-7.683520800754527E-11,-9.670494004346862E-11,0,6.9783664,7.6768556,0.06366601,-0.0063446597,-0.996144,0.9981966,0.25070065,-0.044605434,-0.21986221,0.33642215,-300,309,1452,1514.0,-0.0014235356,-0.0011771091,-0.0023022261,0.0029516579,0.0018471706485306595,-0.001827681399371759,0.35788211234440503,3.511078333850439,-121.56286713852643,238.43713286147357,-5.462367335828744,8.35175588283702,-5.511366247419848,-125.04974621935229,,0.002229129372042639,,,64.99,17.352,17.352,6.204,1.2190573,0,3621,4.333,12.0,1.201,99,26.6,OK,160,0,0,0,0,0,65,100,0.0,0,0.0,589232.0,2.69E-43,0.0,-5.9807744E7,62,2.5940128E-5,-2.594025E-5,9.4E-44,False,False,0,None,0.0,1.0842022E-19,NONE,0.0,0.0,0.0,NONE,-2.508187648169402E-11,-3.036095055105657E-11,-6.198883E-6,
650869243,169.158,0.0,0.0,0,7.10784,6.8751993,0.06394264,-0.0058667185,-0.9956663,0.99773467,0.3646738,-0.28831857,-0.030698672,0.46589375,-304,309,1444,1507.0,-0.020724963,0.015813624,0.007222791,0.027051128,0.026069039373288225,-0.026069039373288225,0.2874244861908538,3.5925720707786835,-124.34441671306536,235.65558328693464,-5.45373630091432,8.559318491133055,-5.745566333597246,-125.19506641822804,,0.0,,,64.99,,,0.0,0.0,20190425,113234,2019-04-25T11:32:34Z,-17.0,99.99,99.99,3.7500008E7,0,0,0,0.0,0.0,0.0,0,0,0,0,0,0,,,,false,false,false,false,false,false,false,false,false,false,0,0,0,0,54,68,66,53,944,945,944,945,940,940,940,940,0.0,0.0,0.0,0.0,1723.2,1719.6,1718.3,1725.0,0.0,0.0,0.0,0.0,0,0,0,0,-45.0,-5.722482826141426E-12,-5.710770141994353E-11,0,7.3430066,7.6770835,0.0631719,-0.0066464404,-0.99753994,0.9995603,0.20640893,-0.16631389,-0.14865163,0.3039116,-304,313,1452,1516.0,-8.7516056E-4,-4.275817E-5,-0.002370873,0.0025276022,8.762044645617892E-4,-8.671875296549956E-4,0.3357957448012307,3.5075194977144735,-121.56696821102577,238.43303178897423,-5.614287831600806,8.585940258823177,-5.704710573284527,-125.1618733410989,,0.002307697232652634,,,64.97,17.352,17.352,6.202,1.2190573,0,3621,4.333,12.0,1.201,99,26.6,OK,160,0,0,0,0,0,65,100,0.0,0,0.0,589232.0,2.69E-43,0.0,-5.9807744E7,62,2.5940128E-5,-2.594025E-5,9.4E-44,False,False,0,None,0.0,1.0842022E-19,NONE,0.0,0.0,0.0,NONE,9.872119495870651E-12,1.3310628913500174E-11,-4.2915344E-6,
654751016,170.167,0.0,0.0,0,7.480407,6.8870783,0.06359743,-0.006159118,-0.9951337,0.99718285,0.08670774,-0.15192509,-0.1259617,0.2155593,-304,313,1452,1516.0,-0.019850595,0.01519283,1.2799335E-4,0.02499769,0.024997363938740687,-0.024997363938740687,0.28693684929079244,3.5814037359907784,-124.33495697635696,235.66504302364302,-5.575772221758676,8.77240574915383,-5.90114495056262,-124.81566332973874,,0.0,,,64.99,,,0.0,0.0,20190425,113235,2019-04-25T11:32:35Z,-17.0,99.99,99.99,3.7500008E7,0,0,0,0.0,0.0,0.0,0,0,0,0,0,0,,,,false,false,false,false,false,false,false,false,false,false,0,0,0,0,54,67,66,53,943,945,945,945,940,940,940,940,0.0,0.0,0.0,0.0,1722.6,1718.9,1717.7,1722.6,0.0,0.0,0.0,0.0,0,0,0,0,-45.0,-1.0009325224984136E-10,3.8417604006291505E-11,0,7.163329,7.6764374,0.06381885,-0.005197156,-0.9956326,0.99768937,0.1636122,-0.11182795,0.11556715,0.22941275,-308,309,1439,1503.0,5.666659E-4,-0.0015321717,8.5132784E-4,0.0018421237,0.0016336035319789017,-0.0016188034180765307,0.36104311957044966,3.4951358435451234,-121.55972006932379,238.4402799306762,-5.728996937192819,8.766678463789056,-5.843069906142487,-126.2087600818643,,0.0023711475621686793,,,64.98,17.353,17.353,6.204,1.2195872,0,3620,4.334,12.0,1.215,99,26.6,OK,161,0,0,0,0,0,65,100,0.0,0,0.0,589232.0,2.69E-43,0.0,-1.05007105E-23,62,2.5940128E-5,-2.594025E-5,9.4E-44,False,False,0,None,0.0,1.0842022E-19,NONE,0.0,0.0,0.0,NONE,-1.0993190694164471E-11,-6.224455004915044E-12,4.2915344E-6,
658685287,171.189,0.0,0.0,0,7.0444245,6.926852,0.06272757,-0.0055639097,-0.99721843,0.9992048,0.33284536,-0.16145718,-0.102849185,0.38396928,-300,309,1444,1506.0,-0.018981297,0.0112079205,-0.012819721,0.025500046,0.02204330068366559,-0.02204330068366559,0.28248313923958585,3.575079365943539,-124.3264632323173,235.67353676768272,-5.713641850949592,9.004129617203548,-6.071725380542544,-124.73206938261038,,0.0,,,64.99,,,0.0,0.0,20190425,113236,2019-04-25T11:32:36Z,-17.0,99.99,99.99,3.7500008E7,0,0,0,0.0,0.0,0.0,0,0,0,0,0,0,,,,false,false,false,false,false,false,false,false,false,false,0,0,0,0,53,67,68,53,944,945,944,945,940,940,940,940,0.0,0.0,0.0,0.0,1723.8,1718.9,1719.6,1722.6,0.0,0.0,0.0,0.0,0,0,0,0,-45.0,-2.8378160451457223E-11,-1.9719140384458926E-11,0,7.121052,7.676254,0.06374196,-0.005837394,-0.99644357,0.9984973,0.060822383,-0.0761879,0.07155355,0.12092919,-300,309,1439,1502.0,-3.0883282E-4,-4.4039122E-4,4.645798E-4,7.1074365E-4,5.378867398519045E-4,-5.278471376826277E-4,0.33473268712088383,3.501674550731344,-121.56424510732808,238.43575489267192,-5.83931461808797,8.929632181857677,-5.982291232723594,-125.1234222682219,,0.002433287335113166,,,64.97,17.353,17.353,6.202,1.2192171,0,3620,4.334,12.0,1.212,99,26.6,OK,162,0,0,0,0,0,65,100,0.0,0,0.0,589232.0,2.69E-43,0.0,-1.05007105E-23,62,2.5940128E-5,-2.594025E-5,9.4E-44,False,False,0,None,0.0,1.0842022E-19,NONE,0.0,0.0,0.0,NONE,-2.5316130166816013E-11,-1.710888505986079E-11,3.8146973E-6,
