Tick#,offsetTime,IMU_ATTI(0):Longitude,IMU_ATTI(0):Latitude,IMU_ATTI(0):numSats,IMU_ATTI(0):barometer:Raw,IMU_ATTI(0):barometer:Smooth,IMU_ATTI(0):accel:X,IMU_ATTI(0):accel:Y,IMU_ATTI(0):accel:Z,IMU_ATTI(0):accel:Composite,IMU_ATTI(0):gyro:X,IMU_ATTI(0):gyro:Y,IMU_ATTI(0):gyro:Z,IMU_ATTI(0):gyro:Composite,IMU_ATTI(0):mag:X,IMU_ATTI(0):mag:Y,IMU_ATTI(0):mag:Z,IMU_ATTI(0):mag:Mod,IMU_ATTI(0):velN,IMU_ATTI(0):velE,IMU_ATTI(0):velD,IMU_ATTI(0):velComposite,IMU_ATTI(0):velH,IMU_ATTI(0):GPS-H,IMU_ATTI(0):roll,IMU_ATTI(0):pitch,IMU_ATTI(0):yaw,IMU_ATTI(0):yaw360,IMU_ATTI(0):totalGyro:Z,IMU_ATTI(0):totalGyro:X,IMU_ATTI(0):totalGyro:Y,IMU_ATTI(0):magYaw,IMU_ATTI(0):distanceHP,IMU_ATTI(0):distanceTravelled,IMU_ATTI(0):directionOfTravel[mag],IMU_ATTI(0):directionOfTravel[true],IMU_ATTI(0):temperature,General:relativeHeight,General:absoluteHeight,GPS(0):Long,GPS(0):Lat,GPS(0):Date,GPS(0):Time,GPS:dateTimeStamp,GPS(0):heightMSL,GPS(0):hDOP,GPS(0):pDOP,GPS(0):sAcc,GPS(0):numGPS,GPS(0):numGLNAS,GPS(0):numSV,GPS(0):velN,GPS(0):velE,GPS(0):velD,RC:Aileron,RC:Elevator,RC:Rudder,RC:Throttle,Controller:navHealth,Controller:ctrl_level,HP:Longitude,HP:Latitude,HP:rthHeight,BatBlackBox:tick,BatBlackBox:id,BatBlackBox:rsoc,BatBlackBox:index,BatBlackBox:rm,BatBlackBox:fcc,BatBlackBox:cell_min,BatBlackBox:cell_max,BatBlackBox:current,BatBlackBox:voltage,BatBlackBox:temp,BatBlackBox:flag,BatBlackBox:reserve,BatBlackBox:user_data,OA:avoidObst,OA:emergBrake,OA:radiusLimit,OA:airportLimit,OA:groundForceLanding,OA:horizNearBoundary,OA:vertLowLimit,OA:vertAirportLimit,OA:roofLimit,OA:hitGroundLimit,Motor:Speed:RFront,Motor:Speed:LFront,Motor:Speed:LBack,Motor:Speed:RBack,Motor:EscTemp:RFront,Motor:EscTemp:LFront,Motor:EscTemp:LBack,Motor:EscTemp:RBack,Motor:PPMrecv:RFront,Motor:PPMrecv:LFront,Motor:PPMrecv:LBack,Motor:PPMrecv:RBack,Motor:PPMsend:RFront,Motor:PPMsend:LFront,Motor:PPMsend:LBack,Motor:PPMsend:RBack,Motor:V_out:RFront,Motor:V_out:LFront,Motor:V_out:LBack,Motor:V_out:RBack,Motor:Volts:RFront,Motor:Volts:LFront,Motor:Volts:LBack,Motor:Volts:RBack,Motor:Current:RFront,Motor:Current:LFront,Motor:Current:LBack,Motor:Current:RBack,Motor:Status:RFront,Motor:Status:LFront,Motor:Status:LBack,Motor:Status:RBack,Motor:thrustAngle,IMU_ATTI(1):Longitude,IMU_ATTI(1):Latitude,IMU_ATTI(1):numSats,IMU_ATTI(1):barometer:Raw,IMU_ATTI(1):barometer:Smooth,IMU_ATTI(1):accel:X,IMU_ATTI(1):accel:Y,IMU_ATTI(1):accel:Z,IMU_ATTI(1):accel:Composite,IMU_ATTI(1):gyro:X,IMU_ATTI(1):gyro:Y,IMU_ATTI(1):gyro:Z,IMU_ATTI(1):gyro:Composite,IMU_ATTI(1):mag:X,IMU_ATTI(1):mag:Y,IMU_ATTI(1):mag:Z,IMU_ATTI(1):mag:Mod,IMU_ATTI(1):velN,IMU_ATTI(1):velE,IMU_ATTI(1):velD,IMU_ATTI(1):velComposite,IMU_ATTI(1):velH,IMU_ATTI(1):GPS-H,IMU_ATTI(1):roll,IMU_ATTI(1):pitch,IMU_ATTI(1):yaw,IMU_ATTI(1):yaw360,IMU_ATTI(1):totalGyro:Z,IMU_ATTI(1):totalGyro:X,IMU_ATTI(1):totalGyro:Y,IMU_ATTI(1):magYaw,IMU_ATTI(1):distanceHP,IMU_ATTI(1):distanceTravelled,IMU_ATTI(1):directionOfTravel[mag],IMU_ATTI(1):directionOfTravel[true],IMU_ATTI(1):temperature,IMUEX(0):err,IMUEX(0):rtk_Longitude,IMUEX(0):rtk_Latitude,IMUEX(0):rtk_Alti,IMUEX(1):err,IMUEX(1):rtk_Longitude,IMUEX(1):rtk_Latitude,IMUEX(1):rtk_Alti,BattInfo:Voltage,BattInfo:BatVoltage,BattInfo:AdVoltage,BattInfo:AvgCurrent,BattInfo:R_time,BattInfo:R_CAP_MAH,BattInfo:LowCellVoltage,BattInfo:LowCellVolThreshold,BattInfo:BatCurrent,BattInfo:Remaining%,BattInfo:Temp,BattInfo:status,battery_info:BatDynCnt,battery_info:Vol1Protect,battery_info:Vol2Protect,battery_info:Cap1Protect,battery_info:Cap2Protect,battery_info:Batpresent,battery_info:sopPercentage,battery_info:sopValue,battery_info:sopScale,battery_info:sopFlg,BattInfo:WindHeading:WindDir,battery_info:home_dir,BattInfo:Wind:rangeMin,BattInfo:Wind:rangeMax,battery_info:cap_speed,battery_info:against_wind,battery_info:emergency_land_cap,battery_info:intel_bat_land_cap,battery_info:intel_bat_gh_cap,BattInfo:Smart:SmartGh,BattInfo:Smart:SmartLand,BattInfo:GoHome:CntDown,BattInfo:GoHome:GhCmd,BattInfo:GoHome:CapLevel,BattInfo:GoHome:LandCapLv,Attribute|Value,ConvertDatV3,3.6.6-Tablet
6882847,1.530,,,,,,,,,,,,,,,,,,,,,,,,,,,,,,,,,,,,,,,,,,,,,,,,,,,,,,,,,,,,,,,,,,,,,,,,,,,,,,,,,,,,,,,,,,,,,,,,,,,,,,,,,,,,,,,,,,,,,,,,,,,,,,,,,,,,,,,,,,,,,,,,,,,,,,,,,,,,,,,,,,,,,,,,,,,,,,,OK,,,,,,,,,,,,,,,,,,,,,,,,,,Firmware Date|Y^QBy~q?|yx?
108215798,24.048,,,,,,,,,,,,,,,,,,,,,,,,,,,,,,,,,,,,,,,,,,,,,,,,,,,,,,,,,,,,,,,,,,,,,,,,,,,,,,,,,,,,,,,,,,,,,,,,,,,,,,,,,,,,,,,,,,,,,,,,,,,,,,,,,,,,,,,,,,,,,,,,,,,,,,,,,,,,,,,,,,,,,,,,,,,,,,,OK,,,,,,,,,,,,,,,,,,,,,,,,,,ACType|UNKNOWN
112762331,25.058,,,0,55.42794,55.28289,0.06701691,-0.0035795248,-0.979224,0.9815212,0.49138713,0.0647157,0.035004348,0.4968649,175,334,1591,1635.0,-0.12545143,0.122119196,0.0162232,0.17582478,0.17507472571597035,-0.17507472571597035,0.19037094412832659,4.237498947673297,-49.961597908725246,310.03840209127475,0.10453896408522875,0.33872028365903095,-0.004221662618217187,-48.3688927738898,,0.0,,,31.87,,,0.0,0.0,20151018,27,2015-10-18T00:00:27Z,-17.0,99.99,99.99,3.75E7,0,0,0,0.0,0.0,0.0,0,0,0,0,0,0,,,,2163135,20,100,228,3541,3556,4354,4365,-599,17392,20,2,16759,0,false,false,false,false,false,false,false,false,false,false,0,0,0,0,41,53,53,41,943,944,944,944,940,940,940,940,0.0,0.0,0.0,0.0,1590.2,1584.0,1584.0,1590.8,0.0,0.0,0.0,0.0,0,0,0,0,-45.0,2.5637618294188986E-10,-3.225649010265302E-10,0,55.422657,55.53585,0.066208325,-0.0039578127,-0.97826487,0.9805108,0.4846418,-0.02454133,0.1946147,0.52283347,175,334,1591,1635.0,-0.01440488,0.011446923,0.016068075,0.024427762,0.018399255763726887,-0.018399255763726887,0.15105927823772414,4.49733213971478,-41.83782524877934,318.1621747512207,0.1069647188199866,0.34417931854760647,-0.036907642056542345,-47.7774919121727,,7.257221932664466E-5,,,31.92,NONE,0.0,0.0,0.0,NONE,1.5973889755486703E-10,-1.7550070565675354E-10,1.9073486E-5,15.978,15.978,5.713,1.2385453,0,2460,3.985,12.0,1.264,67,22.2,OK,27,0,0,0,0,0,65,100,0.0,0,0.0,589232.0,2.69E-43,0.0,-5.9807744E7,62,1.15966424E-4,-1.1596691E-4,9.4E-44,False,False,0,None,0.0,1.0842022E-19,dateTime|2015-10-18 0:0:26 GMT
117379541,26.084,0.0,0.0,0,55.702744,55.283005,0.06638519,-0.0035354942,-0.97721213,0.9794708,0.2814965,-0.053496495,-0.043022648,0.2897466,175,331,1600,1643.0,-0.20190506,0.19297259,0.013758518,0.27963078,0.2792920865802168,-0.2792920865802168,0.18880697692106047,4.2691635421541365,-49.97010851426221,310.0298914857378,0.22421128963762935,0.7528059374738371,0.002567494879044359,-47.95947034051839,,0.0,,,32.24,,,0.0,0.0,20151018,28,2015-10-18T00:00:28Z,-17.0,99.99,99.99,3.75E7,0,0,0,0.0,0.0,0.0,0,0,0,0,0,0,,,,2163137,114,100,229,3540,3556,4274,4298,-2939,17430,20,3544,17059,0,false,false,false,false,false,false,false,false,false,false,0,0,0,0,41,52,52,42,943,945,944,944,940,940,940,940,0.0,0.0,0.0,0.0,1590.2,1583.4,1584.0,1588.9,0.0,0.0,0.0,0.0,0,0,0,0,-45.0,5.870520570027167E-11,-2.726381294284675E-11,0,55.54156,55.534508,0.06705995,-0.004335368,-0.9778603,0.9801666,0.42870376,-0.019592484,0.1756882,0.46372095,175,331,1597,1640.0,-0.0012325619,0.0026313306,2.8294037E-4,0.002919446,0.0029057029160746146,-0.002867192411472644,0.1402970778918345,4.485532459375596,-41.92266632212358,318.0773336778764,0.23898729683819492,0.6908061130682097,-0.06765086549472167,-47.52831552273672,,1.8186504383183356E-4,,,32.24,NONE,0.0,0.0,0.0,NONE,4.1108075585702643E-11,-2.1353200262302318E-11,3.8146973E-6,15.976,15.976,5.71,1.2425737,0,2460,3.985,12.0,1.264,67,22.2,OK,28,0,0,0,0,0,65,100,0.0,0,0.0,589232.0,2.69E-43,0.0,-1.05007105E-23,62,1.15966424E-4,-1.1596691E-4,9.4E-44,False,False,0,None,0.0,1.0842022E-19,
122026102,27.117,0.0,0.0,0,55.549488,55.293957,0.06692372,-0.003334756,-0.9779447,0.98023754,0.35958308,-0.10403133,0.11411584,0.39133736,172,331,1603,1645.0,-0.09899196,0.093970105,0.009042766,0.13679022,0.13649098634128554,-0.13649098634128554,0.1867411809517091,4.255671124255565,-49.97068597811849,310.02931402188153,0.3354916297806766,1.1448895261108911,-0.010586906635910505,-48.270053953590605,,0.0,,,32.64,,,0.0,0.0,20151018,29,2015-10-18T00:00:29Z,-17.0,99.99,99.99,3.75E7,0,0,0,0.0,0.0,0.0,0,0,0,0,0,0,,,,2163538,48,96,230,3552,3717,4292,4301,-1092,17170,26,212,17168,0,false,false,false,false,false,false,false,false,false,false,0,0,0,0,41,53,53,41,943,945,944,944,940,940,940,940,0.0,0.0,0.0,0.0,1590.2,1582.8,1582.8,1589.5,0.0,0.0,0.0,0.0,0,0,0,0,-45.0,7.033832369609497E-11,-1.1665745889008008E-10,0,55.45172,55.528687,0.06717093,-0.0044171205,-0.97887295,0.98118484,0.4708454,0.06622453,0.1836457,0.5097125,172,331,1600,1642.0,-0.0052015674,0.003136022,0.005202146,0.007997078,0.006073791126243044,-0.006064083366053113,0.1340431249224662,4.459827068619149,-42.038394578425276,317.96160542157475,0.37281749158571575,1.0691667785233192,-0.05355836146692953,-47.875256406827525,,6.014116881448955E-4,,,32.62,NONE,0.0,0.0,0.0,NONE,7.590598999217044E-11,-1.0726855804938955E-10,1.1444092E-5,15.974,15.974,5.711,1.2467983,0,2459,3.985,12.0,1.26,67,22.2,OK,29,0,0,0,0,0,65,100,0.0,0,0.0,589232.0,2.69E-43,0.0,-1.05007105E-23,62,1.15966424E-4,-1.1596691E-4,9.4E-44,False,False,0,None,0.0,1.0842022E-19,
126548195,28.122,0.0,0.0,0,55.668392,55.27405,0.066844486,-0.004267924,-0.9787591,0.9810483,0.37763965,-0.0750288,0.09085639,0.39559564,172,334,1600,1643.0,-0.14896888,0.14292146,0.015193095,0.20700024,0.20644193121415622,-0.20644193121415622,0.1792773220333878,4.274486067267864,-49.9785002792614,310.0214997207386,0.4522117832716819,1.5261178424585633,-0.02502884244308582,-48.52083289217747,,0.0,,,33.01,,,0.0,0.0,20151018,30,2015-10-18T00:00:30Z,-17.0,99.99,99.99,3.75E7,0,0,0,0.0,0.0,0.0,0,0,0,0,0,0,,,,2163538,17,96,231,3552,3717,4292,4301,-1019,17171,26,0,17168,0,false,false,false,false,false,false,false,false,false,false,0,0,0,0,42,54,54,42,944,945,944,944,940,940,940,940,0.0,0.0,0.0,0.0,1588.9,1583.4,1584.0,1589.5,0.0,0.0,0.0,0.0,0,0,0,0,-45.0,1.0881001955517627E-10,-1.3598324295323968E-10,0,55.509853,55.518795,0.06716981,-0.0035802634,-0.9785264,0.9808356,0.38864708,-0.14815882,0.23765849,0.47903982,172,334,1594,1637.0,-0.006070931,0.0048779245,0.0048164274,0.009156873,0.007787833631996685,-0.007783069749879793,0.14183702611216642,4.502931797328057,-41.85233530321406,318.1476646967859,0.4994548227751097,1.44769322093353,-0.08051641691267758,-48.048194297755906,,6.762519360419242E-4,,,33.02,NONE,0.0,0.0,0.0,NONE,1.0591115197163624E-10,-1.3274554669093979E-10,1.1444092E-5,15.974,15.974,5.711,1.2506282,0,2459,3.984,12.0,1.259,67,22.2,OK,30,0,0,0,0,0,65,100,0.0,0,0.0,589232.0,2.69E-43,0.0,-1.05007105E-23,62,1.15966424E-4,-1.1596691E-4,9.4E-44,False,False,0,None,0.0,1.0842022E-19,
131106066,29.135,0.0,0.0,0,55.54156,55.27812,0.06762858,-0.0038392274,-0.97844857,0.9807905,0.4160695,-0.018390594,0.21816395,0.47015694,175,337,1588,1632.0,-0.20486006,0.2021066,0.014956094,0.28816384,0.28777547368260925,-0.28777547368260925,0.17733261271328019,4.250467283818878,-49.97226343749086,310.0277365625091,0.569833762820348,1.879546182021317,-0.023636455250358034,-48.646470869755596,,0.0,,,33.35,,,0.0,0.0,20151018,32,2015-10-18T00:00:32Z,-17.0,99.99,99.99,3.75E7,0,0,0,0.0,0.0,0.0,0,0,0,0,0,0,,,,2163601,20,96,233,3393,3558,4285,4303,-1386,17264,25,2,17033,0,false,false,false,false,false,false,false,false,false,false,0,0,0,0,42,53,54,42,943,945,944,944,940,940,940,940,0.0,0.0,0.0,0.0,1588.9,1582.2,1583.4,1590.2,0.0,0.0,0.0,0.0,0,0,0,0,-45.0,-1.350834253457902E-11,2.974215132333749E-11,0,55.594406,55.51935,0.06720135,-0.0035016998,-0.97783226,0.980145,0.4507034,-0.08466907,0.057589848,0.46218938,178,334,1612,1655.0,0.001331707,-6.0223707E-4,0.0033672962,0.0036708058,0.0014615515504210522,-0.0014389387149769419,0.15342953964674802,4.428963532343213,-42.05402463565295,317.9459753643471,0.5992634249539317,1.807912328934961,-0.12001054175351725,-47.50731036089467,,7.048119702167083E-4,,,33.26,NONE,0.0,0.0,0.0,NONE,2.6326151703217218E-11,-3.2353955723926835E-11,7.6293945E-6,15.972,15.972,5.707,1.2562137,0,2458,3.983,12.0,1.266,67,22.2,OK,32,0,0,0,0,0,65,100,0.0,0,0.0,589232.0,2.69E-43,0.0,-1.05007105E-23,62,1.15966424E-4,-1.1596691E-4,9.4E-44,False,False,0,None,0.0,1.0842022E-19,
135629200,30.140,0.0,0.0,0,55.486073,55.233505,0.06687017,-0.0033328175,-0.97990924,0.9821939,0.46115366,-0.022091005,0.13621946,0.48135898,178,334,1609,1652.0,-0.1260604,0.13578323,0.011660168,0.18564554,0.18527900031157643,-0.18527900031157643,0.17919782666897896,4.272844470175075,-49.97435675319629,310.0256432468037,0.7072527514385547,2.259378287523717,-0.024515655504746908,-47.87899330291522,,0.0,,,33.69,,,0.0,0.0,20151018,33,2015-10-18T00:00:33Z,-17.0,99.99,99.99,3.75E7,0,0,0,0.0,0.0,0.0,0,0,0,0,0,0,,,,2164765,48,13,234,440,3529,3689,3693,-1168,14775,46,212,14771,0,false,false,false,false,false,false,false,false,false,false,0,0,0,0,41,52,52,43,943,945,944,944,940,940,940,940,0.0,0.0,0.0,0.0,1588.9,1582.2,1582.8,1588.9,0.0,0.0,0.0,0.0,0,0,0,0,-45.0,1.6736463514497452E-10,-2.11040070174934E-10,0,55.56006,55.508556,0.06661636,-0.0038731657,-0.97737056,0.97964585,0.4760919,-0.017502606,0.14015378,0.49660134,178,334,1603,1647.0,-0.009406268,0.0074877962,0.012379343,0.017256683,0.012022685214493069,-0.011989370170092486,0.17113334792100393,4.489845184117161,-41.84632746186394,318.15367253813605,0.7011510389910994,2.188540268224187,-0.15292191827081764,-47.372352363402605,,7.526095722163764E-4,,,33.59,NONE,0.0,0.0,0.0,NONE,1.0623324849318481E-10,-1.6095617166170913E-10,1.5258789E-5,15.969,15.969,5.706,1.2588894,0,2458,3.984,12.0,1.29,67,22.2,OK,33,0,0,0,0,0,65,100,0.0,0,0.0,589232.0,2.69E-43,0.0,-1.05007105E-23,62,1.15966424E-4,-1.1596691E-4,9.4E-44,False,False,0,None,0.0,1.0842022E-19,
140162885,31.147,0.0,0.0,0,55.557415,55.2379,0.06687971,-0.004801967,-0.9791208,0.981414,0.42334154,0.0114915045,0.10262079,0.43575352,175,331,1603,1646.0,0.0,0.0,-3.8344643E-4,3.8344643E-4,0.0,0.0,0.1770155741124791,4.270677849773012,-50.0035987505125,309.9964012494875,0.8298284446337572,2.659848737177502,-0.057643881920855414,-47.96223077243255,,0.0,,,34.04,,,0.0,0.0,20151018,34,2015-10-18T00:00:34Z,-17.0,99.99,99.99,3.75E7,0,0,0,0.0,0.0,0.0,0,0,0,0,0,0,,,,2164765,48,13,234,440,3529,3689,3693,-1168,14775,46,212,14771,0,false,false,false,false,false,false,false,false,false,false,0,0,0,0,42,53,53,43,944,944,944,944,940,940,940,940,0.0,0.0,0.0,0.0,1588.3,1582.8,1582.8,1588.9,0.0,0.0,0.0,0.0,0,0,0,0,-45.0,1.1608999971772746E-11,-4.3203271015070723E-13,0,55.636684,55.505028,0.06653713,-0.004644391,-0.97881156,0.9810815,0.34816557,-0.018738842,0.06901725,0.35543466,178,334,1603,1647.0,-5.767421E-5,5.0117844E-4,-0.0012659994,0.0013628134,5.044859951380753E-4,-4.7557537143828795E-4,0.17225336172685635,4.436314813853249,-42.003310739480014,317.99668926052,0.8233488122657099,2.6664387155118923,-0.1620517737224671,-47.50944581439472,,7.834157558445884E-4,,,34.02,NONE,0.0,0.0,0.0,NONE,4.2457900208754864E-11,-4.0665716107060793E-11,0.0,15.967,15.967,5.707,1.2626429,0,2457,3.983,12.0,1.291,67,22.2,OK,34,0,0,0,0,0,65,100,0.0,0,0.0,589232.0,2.69E-43,0.0,-1.05007105E-23,62,1.15966424E-4,-1.1596691E-4,9.4E-44,False,False,0,None,0.0,1.0842022E-19,
144697188,32.155,0.0,0.0,0,55.51778,55.31656,0.06655597,-0.0038065864,-0.9792364,0.981503,0.36441702,0.031109788,0.16642296,0.40182605,181,334,1606,1650.0,-0.11088985,0.10752411,-0.018270675,0.15553717,0.1544603314935069,-0.1544603314935069,0.18624369926891401,4.274217270194713,-50.014695878254884,309.9853041217451,0.9233474081766274,3.008681929165354,-0.047048447436700606,-47.5946188089981,,0.0,,,34.37,,,0.0,0.0,20151018,35,2015-10-18T00:00:35Z,-17.0,99.99,99.99,3.75E7,0,0,0,0.0,0.0,0.0,0,0,0,0,0,0,,,,2170199,48,13,236,444,3533,3742,3743,0,14971,29,212,5,0,false,false,false,false,false,false,false,false,false,false,0,0,0,0,42,53,54,42,943,944,944,943,940,940,940,940,0.0,0.0,0.0,0.0,1589.5,1580.9,1582.8,1588.9,0.0,0.0,0.0,0.0,0,0,0,0,-45.0,9.539700557774094E-11,-1.321285442845504E-10,0,55.65254,55.497917,0.067093424,-0.0038723461,-0.9798929,0.98219484,0.3162446,-0.080452956,0.09008815,0.33852503,178,334,1606,1649.0,-0.005883471,0.0042607617,0.009422062,0.011897251,0.007264249637250977,-0.0072470244156346945,0.17374636311464445,4.457252203841626,-41.97017700357225,318.02982299642775,0.938608704667695,3.0953349325739286,-0.1925311068386815,-47.42816912489652,,8.340425404353431E-4,,,34.37,NONE,0.0,0.0,0.0,NONE,2.9134037586875014E-11,-6.424986543890401E-11,7.6293945E-6,15.964,15.964,5.703,1.2673882,0,2457,3.982,12.0,1.295,67,22.3,OK,35,0,0,0,0,0,65,100,0.0,0,0.0,589232.0,2.69E-43,0.0,-1.05007105E-23,62,1.15966424E-4,-1.1596691E-4,9.4E-44,False,False,0,None,0.0,1.0842022E-19,
149213495,33.159,0.0,0.0,0,55.509853,55.292156,0.06699788,-0.0038654637,-0.97897846,0.981276,0.2910573,0.047941018,0.18619144,0.34882653,178,334,1600,1644.0,-0.16713607,0.16565116,0.009859138,0.2355249,0.2353184466984742,-0.2353184466984742,0.17658455275222704,4.299419145498059,-50.018165761869895,309.9818342381301,1.0572267386135725,3.3812507857029144,-0.03522242059139983,-47.88175423877383,,0.0,,,34.77,,,0.0,0.0,20151018,36,2015-10-18T00:00:36Z,-17.0,99.99,99.99,3.75E7,0,0,0,0.0,0.0,0.0,0,0,0,0,0,0,,,,2170199,48,13,237,444,3533,3742,3743,0,14971,29,212,5,0,false,false,false,false,false,false,false,false,false,false,0,0,0,0,43,54,53,42,943,945,943,944,940,940,940,940,0.0,0.0,0.0,0.0,1588.9,1582.2,1582.8,1588.3,0.0,0.0,0.0,0.0,0,0,0,0,-45.0,2.5790300555256767E-10,-3.703355644010109E-10,0,55.692173,55.48573,0.066827685,-0.0038074665,-0.9790017,0.9812873,0.32965216,-0.17622218,0.017279271,0.37419698,181,331,1606,1649.0,-0.016526414,0.011497922,0.014773818,0.024971789,0.02013267405937522,-0.020100725799676745,0.1542684959439359,4.520558691626418,-41.801087491224244,318.1989125087758,1.0433383975608326,3.4466465922250693,-0.25047830913444263,-46.77032301530579,,9.037613492922908E-4,,,34.69,NONE,0.0,0.0,0.0,NONE,2.0958854550598377E-10,-2.7860083641604527E-10,3.0517578E-5,15.964,15.964,5.706,1.2725693,0,2457,3.982,12.0,1.295,67,22.2,OK,36,0,0,0,0,0,65,100,0.0,0,0.0,589232.0,2.69E-43,0.0,-1.05007105E-23,62,1.15966424E-4,-1.1596691E-4,9.4E-44,False,False,0,None,0.0,1.0842022E-19,
153913119,34.203,0.0,0.0,0,55.60762,55.291096,0.06677284,-0.0045210607,-0.9783624,0.98064876,0.25804663,-0.07664768,0.11657728,0.29334822,178,331,1603,1646.0,-0.22703336,0.22538269,0.0053507746,0.31995332,0.31990858523161264,-0.31990858523161264,0.18055198784922832,4.273896006851428,-50.022921918299815,309.9770780817002,1.210342021268851,3.762604246498476,-0.044990251259518096,-47.656193138216416,,0.0,,,35.18,,,0.0,0.0,20151018,37,2015-10-18T00:00:37Z,-17.0,99.99,99.99,3.75E7,0,0,0,0.0,0.0,0.0,0,0,0,0,0,0,,,,2170199,48,13,238,444,3533,3742,3743,0,14971,29,212,5,0,false,false,false,false,false,false,false,false,false,false,0,0,0,0,42,54,55,43,943,944,944,943,940,940,940,940,0.0,0.0,0.0,0.0,1588.9,1582.2,1582.2,1587.7,0.0,0.0,0.0,0.0,0,0,0,0,-45.0,8.539423930166641E-11,-7.444714478423566E-11,0,55.50457,55.48718,0.066485286,-0.003741451,-0.9767768,0.979044,0.46195206,0.08267746,0.19833274,0.50948125,178,331,1603,1646.0,-0.0033093623,0.0038106905,0.0086014895,0.009972907,0.005047102176952553,-0.005010635140771015,0.18072870052934037,4.413374730543944,-42.09009338165047,317.9099066183495,1.1753000221347953,3.89718501599012,-0.2530340803450409,-47.287186114158864,,9.809562547900778E-4,,,35.17,NONE,0.0,0.0,0.0,NONE,4.857485602956398E-11,1.7621983556638476E-11,3.8146973E-6,15.963,15.963,5.705,1.277634,0,2456,3.981,12.0,1.292,67,22.2,OK,37,0,0,0,0,0,65,100,0.0,0,0.0,589232.0,2.69E-43,0.0,-5.9807744E7,62,1.15966424E-4,-1.1596691E-4,9.4E-44,False,False,0,None,0.0,1.0842022E-19,
158429491,35.207,0.0,0.0,0,55.430584,55.309917,0.066158004,-0.0040645134,-0.97908133,0.9813224,0.4961837,0.045562293,0.072207235,0.50347596,178,331,1600,1643.0,-0.13794874,0.14854898,0.003374744,0.20275117,0.20272308715090037,-0.20272308715090037,0.17294015626879003,4.2983909985474495,-50.020226534834066,309.9797734651659,1.3281908395388293,4.166392202702156,-0.04344801162500072,-47.63244169579935,,0.0,,,35.48,,,0.0,0.0,20151018,39,2015-10-18T00:00:39Z,-17.0,99.99,99.99,3.75E7,0,0,0,0.0,0.0,0.0,0,0,0,0,0,0,,,,2170199,48,13,239,444,3533,3742,3743,0,14971,29,212,5,0,false,false,false,false,false,false,false,false,false,false,0,0,0,0,43,54,54,43,943,945,944,944,940,940,940,940,0.0,0.0,0.0,0.0,1587.7,1580.9,1581.6,1587.7,0.0,0.0,0.0,0.0,0,0,0,0,-45.0,1.5768919479304759E-10,-2.519128495325069E-10,0,55.430584,55.47559,0.06621372,-0.003929523,-0.97738713,0.9796353,0.35984275,-0.020266619,0.034398645,0.36205083,178,331,1600,1643.0,-0.011273414,0.0070317197,0.012979444,0.0185742,0.013286645337719455,-0.013265414707649269,0.1868103456018216,4.484987722911371,-41.902406880082566,318.0975931199174,1.275447895810083,4.25649370306927,-0.27200282239375206,-47.107511972810386,,0.0010250996820535948,,,35.48,NONE,0.0,0.0,0.0,NONE,1.3025662073749447E-10,-1.295413157454873E-10,1.1444092E-5,15.96,15.96,5.706,1.282217,0,2456,3.98,12.0,1.298,67,22.3,OK,38,0,0,0,0,0,65,100,0.0,0,0.0,589232.0,2.69E-43,0.0,-5.9807744E7,62,1.15966424E-4,-1.1596691E-4,9.4E-44,False,False,0,None,0.0,1.0842022E-19,
163037274,36.231,0.0,0.0,0,55.60762,55.307755,0.06663044,-0.0045784395,-0.97870094,0.9809771,0.56122917,-0.113923565,0.15890871,0.5943137,181,334,1606,1650.0,0.0,0.0,0.0069188382,0.0069188382,0.0,0.0,0.17000460486180333,4.291876479439109,-50.02629978074249,309.9737002192575,1.418128111569539,4.612813719718896,-0.06248066863833535,-47.588280419951964,,0.0,,,35.82,,,0.0,0.0,20151018,40,2015-10-18T00:00:40Z,-17.0,99.99,99.99,3.75E7,0,0,0,0.0,0.0,0.0,0,0,0,0,0,0,,,,2170201,114,13,240,444,3533,3742,3743,0,14974,29,3555,4,0,false,false,false,false,false,false,false,false,false,false,0,0,0,0,42,55,55,42,943,945,944,943,940,940,940,940,0.0,0.0,0.0,0.0,1587.7,1581.6,1582.2,1587.0,0.0,0.0,0.0,0.0,0,0,0,0,-45.0,1.6589533261459493E-11,-4.8734335694134625E-11,0,55.665752,55.476025,0.066530585,-0.004113903,-0.9790737,0.98134017,0.27264622,-0.10352677,0.1543028,0.3299441,181,334,1603,1647.0,-0.0021964458,7.334152E-4,-0.0018979502,0.0029940754,0.002315658022471436,-0.002288795431104186,0.2001612469618559,4.433985257570223,-41.985270567161386,318.01472943283864,1.410659986461635,4.662620685933788,-0.2720462262653993,-47.1646551994702,,0.001107940000106208,,,35.8,NONE,0.0,0.0,0.0,NONE,3.4077511556329024E-11,-3.3571752233106964E-11,0.0,15.957,15.957,5.7,1.2859821,0,2456,3.98,12.0,1.282,67,22.3,OK,39,0,0,0,0,0,65,100,0.0,0,0.0,589232.0,2.69E-43,0.0,-5.9807744E7,62,1.15966424E-4,-1.1596691E-4,9.4E-44,False,False,0,None,0.0,1.0842022E-19,
167645358,37.255,0.0,0.0,0,55.581196,55.282673,0.06765327,-0.0028258194,-0.97832054,0.98066103,0.2465908,-0.11966171,0.20568763,0.3426855,178,331,1609,1652.0,-0.12596971,0.13170752,0.012641694,0.1826884,0.1822504859912604,-0.1822504859912604,0.17124540196336735,4.303591588205099,-50.04104964125168,309.9589503587483,1.5789996537466993,4.994436746389737,-0.09113395807058015,-47.55585776912238,,0.0,,,36.17,,,0.0,0.0,20151018,41,2015-10-18T00:00:41Z,-17.0,99.99,99.99,3.75E7,0,0,0,0.0,0.0,0.0,0,0,0,0,0,0,,,,2173963,18,13,242,443,3532,3793,3794,3553,15176,26,1,15278,0,false,false,false,false,false,false,false,false,false,false,0,0,0,0,43,53,52,44,943,945,944,944,940,940,940,940,0.0,0.0,0.0,0.0,1588.3,1580.9,1580.9,1588.3,0.0,0.0,0.0,0.0,0,0,0,0,-45.0,1.457841773586431E-10,-1.618973635279207E-10,0,55.33546,55.468445,0.0674204,-0.004190025,-0.97885436,0.98118246,0.2703494,-0.10799035,0.14418644,0.3248699,175,331,1609,1651.0,-0.007201388,0.006512057,0.007655978,0.012364501,0.009709112744834289,-0.00969046325492143,0.2028995541641196,4.472132753605461,-41.91170228075163,318.0882977192484,1.5099214546763942,4.952271161046809,-0.30461880407633085,-47.31521776811629,,0.0011663701220734084,,,36.14,NONE,0.0,0.0,0.0,NONE,9.25650675126096E-11,-1.3870433111674382E-10,1.1444092E-5,15.956,15.956,5.699,1.2907354,0,2455,3.98,12.0,1.329,67,22.3,OK,41,0,0,0,0,0,65,100,0.0,0,0.0,589232.0,2.69E-43,0.0,-5.9807744E7,62,1.15966424E-4,-1.1596691E-4,9.4E-44,False,False,0,None,0.0,1.0842022E-19,
172253282,38.279,0.0,0.0,0,55.179565,55.26001,0.06798114,-0.0037181186,-0.9791253,0.98148954,0.3367037,0.030873502,0.13383451,0.36364025,181,334,1606,1650.0,-0.189204,0.19577229,0.0085107125,0.27239197,0.2722589708169131,-0.2722589708169131,0.17555260605016668,4.314208108643459,-50.039300281715555,309.96069971828445,1.6706371566995157,5.3429968105550705,-0.06871448515735881,-47.515869792228195,,0.0,,,36.56,,,0.0,0.0,20151018,42,2015-10-18T00:00:42Z,-17.0,99.99,99.99,3.75E7,0,0,0,0.0,0.0,0.0,0,0,0,0,0,0,,,,2176836,19,92,243,3227,3532,4318,4329,-23,17344,30,1,17291,0,false,false,false,false,false,false,false,false,false,false,0,0,0,0,44,56,54,43,943,945,944,944,940,940,940,940,0.0,0.0,0.0,0.0,1585.8,1580.3,1580.3,1588.9,0.0,0.0,0.0,0.0,0,0,0,0,-45.0,6.649931182929398E-11,-2.151601344285695E-11,0,55.53099,55.460056,0.067523025,-0.0034586377,-0.97956294,0.9818935,0.2677162,0.04107007,0.2058821,0.34021488,181,334,1606,1650.0,-9.450725E-4,0.0029952922,0.0034626303,0.004674906,0.003140849734654838,-0.0031233423814373803,0.2061448842662103,4.485647472767219,-41.9591236235559,318.0408763764441,1.6874770368658645,5.410396910581688,-0.3496951972753872,-46.99316009101563,,0.0012500133205991966,,,36.57,NONE,0.0,0.0,0.0,NONE,6.29834413727887E-11,-1.832867739473532E-11,3.8146973E-6,15.951,15.951,5.695,1.2936972,0,2455,3.979,12.0,1.294,67,22.3,OK,42,0,0,0,0,0,65,100,0.0,0,0.0,589232.0,2.69E-43,0.0,-5.9807744E7,62,1.15966424E-4,-1.1596691E-4,9.4E-44,False,False,0,None,0.0,1.0842022E-19,
176861336,39.303,0.0,0.0,0,55.501926,55.255424,0.06781968,-0.004006117,-0.9781503,0.9805068,0.3235328,-0.1370493,0.054966766,0.3556365,178,331,1603,1646.0,-0.17872809,0.17988747,-0.0059490036,0.2536506,0.2535808238403509,-0.2535808238403509,0.17601922378118254,4.304164307122352,-50.06898795425261,309.93101204574737,1.7451054512188833,5.748299376333167,-0.1343720932464625,-47.58711734753482,,0.0,,,36.91,,,0.0,0.0,20151018,43,2015-10-18T00:00:43Z,-17.0,99.99,99.99,3.75E7,0,0,0,0.0,0.0,0.0,0,0,0,0,0,0,,,,2177135,48,92,244,3227,3532,4292,4303,0,17173,29,212,5,0,false,false,false,false,false,false,false,false,false,false,0,0,0,0,43,55,55,44,943,944,944,943,940,940,940,940,0.0,0.0,0.0,0.0,1587.0,1580.9,1580.3,1587.7,0.0,0.0,0.0,0.0,0,0,0,0,-45.0,1.3207834833165796E-10,-1.7790806485358686E-10,0,55.5627,55.45501,0.06676834,-0.004343492,-0.9783681,0.9806534,0.33110186,-0.031428076,0.1898331,0.3829527,178,331,1606,1649.0,-0.007937843,0.005882163,0.01021516,0.014211217,0.009879736360922946,-0.00986132154213081,0.1960069645375839,4.451640797978629,-42.02037841616953,317.97962158383046,1.8419423531581338,5.8192447447954345,-0.35722551308226536,-47.125786130482304,,0.0012844440129371614,,,36.96,NONE,0.0,0.0,0.0,NONE,4.776909238338384E-11,-6.569093352791006E-11,3.8146973E-6,15.952,15.952,5.699,1.2968863,0,2454,3.979,12.0,1.322,67,22.3,OK,43,0,0,0,0,0,65,100,0.0,0,0.0,589232.0,2.69E-43,0.0,-5.9807744E7,62,1.15966424E-4,-1.1596691E-4,9.4E-44,False,False,0,None,0.0,1.0842022E-19,
181469341,40.327,0.0,0.0,0,55.45172,55.2981,0.06702046,-0.0036813414,-0.97850305,0.9808025,0.3331588,0.035550408,0.042442303,0.33772764,175,328,1594,1636.0,-0.16070275,0.14855231,-0.011374485,0.21914046,0.2188450657811661,-0.2188450657811661,0.17861874859017488,4.327136217072965,-50.06329006960575,309.9367099303943,1.8506220245836442,6.090893526008549,-0.16465660373415222,-47.61156181994219,,0.0,,,37.23,,,0.0,0.0,20151018,44,2015-10-18T00:00:44Z,-17.0,99.99,99.99,3.75E7,0,0,0,0.0,0.0,0.0,0,0,0,0,0,0,,,,2177135,48,92,245,3227,3532,4292,4303,0,17173,29,212,5,0,false,false,false,false,false,false,false,false,false,false,0,0,0,0,43,56,55,43,943,943,943,944,940,940,940,940,0.0,0.0,0.0,0.0,1585.8,1580.9,1579.7,1587.0,0.0,0.0,0.0,0.0,0,0,0,0,-45.0,2.636170809942698E-10,-2.8055014897054413E-10,0,55.467575,55.44582,0.06720568,-0.0034884838,-0.97958976,0.9818986,0.32954332,-0.018587774,0.047254007,0.33343253,175,334,1606,1649.0,-0.012504853,0.011780964,0.010434761,0.020100914,0.017180293710121457,-0.01716217604292525,0.18718934448577437,4.531323749635111,-41.856304075951776,318.14369592404825,1.9212321147560092,6.1865625083164835,-0.3271142312525969,-47.483516032547776,,0.001339400731303815,,,37.25,NONE,0.0,0.0,0.0,NONE,1.3287104023657462E-10,-2.1255016044896202E-10,1.5258789E-5,15.951,15.951,5.7,1.2996837,0,2454,3.978,12.0,1.287,67,22.3,OK,44,0,0,0,0,0,65,100,0.0,0,0.0,589232.0,2.69E-43,0.0,-5.9807744E7,62,1.15966424E-4,-1.1596691E-4,9.4E-44,False,False,0,None,0.0,1.0842022E-19,
186169179,41.371,0.0,0.0,0,55.30111,55.282986,0.067128986,-0.0043099867,-0.9807455,0.98304963,0.39965838,-0.038874347,0.042338114,0.40377045,178,331,1603,1646.0,0.0,0.0,0.001069221,0.001069221,0.0,0.0,0.17390035478488453,4.317443959051426,-50.06244599168761,309.9375540083124,1.9612190857483884,6.490122246065534,-0.16499575147881362,-47.55720404312234,,0.0,,,37.63,,,0.0,0.0,20151018,46,2015-10-18T00:00:46Z,-17.0,99.99,99.99,3.75E7,0,0,0,0.0,0.0,0.0,0,0,0,0,0,0,,,,2177135,48,92,246,3227,3532,4292,4303,0,17173,29,212,5,0,false,false,false,false,false,false,false,false,false,false,0,0,0,0,44,54,55,44,944,945,944,945,940,940,940,940,0.0,0.0,0.0,0.0,1585.8,1580.9,1581.6,1587.0,0.0,0.0,0.0,0.0,0,0,0,0,-45.0,1.8212041672631747E-11,-5.570934395367121E-11,0,55.499283,55.446762,0.06714375,-0.0042967214,-0.9790781,0.98138714,0.30810264,0.07141857,0.1548652,0.35215208,178,331,1603,1646.0,-0.002484334,8.087625E-4,-6.7373837E-4,0.0026981356,0.0026126637633983774,-0.002577228192100866,0.16393230206458873,4.440534829908955,-42.08606834404107,317.91393165595895,2.0148997068452186,6.552130533915076,-0.22443456214124738,-47.25781448297709,,0.0013828136926519608,,,37.63,NONE,0.0,0.0,0.0,NONE,9.283696740656288E-11,-8.017742847691966E-11,-3.8146973E-6,15.949,15.949,5.696,1.3012822,0,2453,3.978,12.0,1.293,67,22.3,OK,45,0,0,0,0,0,65,100,0.0,0,0.0,589232.0,2.69E-43,0.0,-5.9807744E7,62,1.15966424E-4,-1.1596691E-4,9.4E-44,False,False,0,None,0.0,1.0842022E-19,
190685307,42.375,0.0,0.0,0,55.523064,55.202923,0.06620607,-0.003272895,-0.9794602,0.98170066,0.47236302,0.0073740263,0.11728777,0.4867624,178,328,1591,1634.0,-0.0923434,0.09277457,0.011047947,0.13136393,0.13089852672586386,-0.13089852672586386,0.1939750592670282,4.296949834924554,-50.07276578671586,309.9272342132841,2.036994172955156,6.908208746564046,-0.17136042363993584,-47.387288220415535,,0.0,,,38.0,,,0.0,0.0,20151018,47,2015-10-18T00:00:47Z,-17.0,99.99,99.99,3.75E7,0,0,0,0.0,0.0,0.0,0,0,0,0,0,0,,,,2177135,48,92,247,3227,3532,4292,4303,0,17173,29,212,5,0,false,false,false,false,false,false,false,false,false,false,0,0,0,0,44,55,55,43,943,944,943,945,940,940,940,940,0.0,0.0,0.0,0.0,1587.0,1580.3,1580.3,1585.2,0.0,0.0,0.0,0.0,0,0,0,0,-45.0,1.3062473188068998E-10,-1.66030237713404E-10,0,55.282616,55.434265,0.0668568,-0.0038753175,-0.9789737,0.9812616,0.42309397,0.043582957,0.026404878,0.42615163,178,328,1591,1634.0,-0.00740492,0.0058176694,0.012958394,0.01601868,0.009416906070305573,-0.009399455038790793,0.18516059525883924,4.419460012434136,-42.08076297666906,317.91923702333094,2.1761846120213595,7.000239258571565,-0.26725933771904836,-47.08728503247246,,0.0014067336113568493,,,38.01,NONE,0.0,0.0,0.0,NONE,3.4456471736645024E-11,-8.924580172102787E-12,7.6293945E-6,15.949,15.949,5.697,1.3017021,0,2453,3.978,12.0,1.302,67,22.3,OK,46,0,0,0,0,0,65,100,0.0,0,0.0,589232.0,2.69E-43,0.0,-5.9807744E7,62,1.15966424E-4,-1.1596691E-4,9.4E-44,False,False,0,None,0.0,1.0842022E-19,
195293272,43.399,0.0,0.0,0,55.293182,55.20665,0.06668096,-0.004906876,-0.9792333,0.98151326,0.30985093,0.11099093,-0.07017159,0.33652732,178,328,1594,1637.0,-0.18274455,0.18394223,0.002311817,0.25929838,0.25928809077229553,-0.25928809077229553,0.18576885906882382,4.326474675350272,-50.08444496002287,309.9155550399771,2.099297632082964,7.349640158795869,-0.16088238185190998,-47.30729829444341,,0.0,,,38.31,,,0.0,0.0,20151018,48,2015-10-18T00:00:48Z,-17.0,99.99,99.99,3.75E7,0,0,0,0.0,0.0,0.0,0,0,0,0,0,0,,,,2177138,18,92,249,3210,3520,4325,4335,2959,17303,29,1,17319,0,false,false,false,false,false,false,false,false,false,false,0,0,0,0,44,56,56,44,943,945,945,944,940,940,940,940,0.0,0.0,0.0,0.0,1585.2,1580.3,1580.9,1584.6,0.0,0.0,0.0,0.0,0,0,0,0,-45.0,1.0833733421508862E-10,-1.2750834478336352E-10,0,55.58384,55.425674,0.06569543,-0.0042426134,-0.9781757,0.9803885,0.39025813,-0.03723853,0.0956764,0.40353698,178,328,1591,1634.0,-0.005722474,0.0048642545,0.0050161234,0.009031566,0.007510504397922273,-0.007505671654316561,0.18516615987323976,4.4899139885418045,-41.94570203066001,318.05429796934,2.3021023147906425,7.371092503322846,-0.28760721206029183,-46.90364728808234,,0.0014866141631481862,,,38.27,NONE,0.0,0.0,0.0,NONE,1.5776030822860613E-10,-2.4083608171909026E-10,3.0517578E-5,15.947,15.947,5.694,1.3017141,0,2452,3.978,12.0,1.297,67,22.3,OK,47,0,0,0,0,0,65,100,0.0,0,0.0,589232.0,2.69E-43,0.0,-5.9807744E7,62,1.15966424E-4,-1.1596691E-4,9.4E-44,False,False,0,None,0.0,1.0842022E-19,
199901272,44.423,0.0,0.0,0,55.37774,55.20628,0.0666783,-0.0031157618,-0.977881,0.9801566,0.38922462,-0.07620549,0.09351126,0.40748918,178,331,1600,1643.0,-0.23997976,0.25086254,-0.005628707,0.34720883,0.3471632151003279,-0.3471632151003279,0.17841017693580663,4.287856126790807,-50.104341760056364,309.89565823994366,2.192188968346008,7.761877674949245,-0.18025185019488274,-47.64677365400687,,0.0,,,38.72,,,0.0,0.0,20151018,49,2015-10-18T00:00:49Z,-17.0,99.99,99.99,3.75E7,0,0,0,0.0,0.0,0.0,0,0,0,0,0,0,,,,2178775,48,99,250,3501,3501,4386,4394,171,17544,27,212,17543,0,false,false,false,false,false,false,false,false,false,false,0,0,0,0,44,54,56,43,943,944,944,944,940,940,940,940,0.0,0.0,0.0,0.0,1587.0,1580.3,1580.3,1585.8,0.0,0.0,0.0,0.0,0,0,0,0,-45.0,4.2770846684712034E-11,-2.636536837554995E-11,0,55.589123,55.42411,0.06676596,-0.00337764,-0.9792344,0.9815137,0.2719926,-0.001864695,0.12273498,0.298408,178,331,1600,1643.0,-0.0011684936,0.0019078122,0.005746089,0.006166252,0.00223721364119162,-0.0022241248097576768,0.18137115621563207,4.398945237454579,-42.126529797761414,317.8734702022386,2.4352860701889214,7.736697940320604,-0.3250940124097033,-47.34620738130924,,0.0015114278002278645,,,38.74,NONE,0.0,0.0,0.0,NONE,8.211889616395523E-12,-6.2657815829015985E-12,0.0,15.945,15.945,5.696,1.3013796,0,2452,3.976,12.0,1.306,67,22.4,OK,49,0,0,0,0,0,65,100,0.0,0,0.0,589232.0,2.69E-43,0.0,-5.9807744E7,62,1.15966424E-4,-1.1596691E-4,9.4E-44,False,False,0,None,0.0,1.0842022E-19,
204586601,45.464,0.0,0.0,0,55.51778,55.255455,0.066352315,-0.0036125504,-0.97816366,0.9804182,0.43020833,0.060883194,0.17598805,0.4687833,181,328,1588,1631.0,-0.11503732,0.1467919,-0.001866396,0.1865072,0.1864978513095305,-0.1864978513095305,0.1851580293866002,4.295129103373966,-50.11265294194411,309.88734705805587,2.283881116349635,8.161455957628247,-0.16143375078420313,-47.14994306088298,,0.0,,,39.05,,,0.0,0.0,20151018,51,2015-10-18T00:00:51Z,-17.0,99.99,99.99,3.75E7,0,0,0,0.0,0.0,0.0,0,0,0,0,0,0,,,,2178775,48,99,251,3501,3501,4386,4394,171,17544,27,212,17543,0,false,false,false,false,false,false,false,false,false,false,0,0,0,0,44,56,55,45,943,945,944,944,940,940,940,940,0.0,0.0,0.0,0.0,1585.2,1578.5,1579.1,1585.2,0.0,0.0,0.0,0.0,0,0,0,0,-45.0,2.707534001888809E-10,-2.6869532966246295E-10,0,55.589123,55.410133,0.06635849,-0.0032730089,-0.9800156,0.98226506,0.4983669,-0.0076362113,0.15459986,0.5218515,181,328,1585,1628.0,-0.011988479,0.012084923,0.01760389,0.024488077,0.01702260174314717,-0.01698706882135276,0.22407464110482447,4.45755068585212,-42.04859935806807,317.9514006419319,2.526596568595691,8.130029754790696,-0.3300843684952711,-46.6537934182486,,0.0015552258778103122,,,39.05,NONE,0.0,0.0,0.0,NONE,1.848080400260284E-11,-3.615322969522311E-11,1.1444092E-5,15.942,15.942,5.691,1.3014172,0,2451,3.977,12.0,1.299,67,22.3,OK,50,0,0,0,0,0,65,100,0.0,0,0.0,589232.0,2.69E-43,0.0,-5.9807744E7,62,1.15966424E-4,-1.1596691E-4,9.4E-44,False,False,0,None,0.0,1.0842022E-19,
209117276,46.471,0.0,0.0,0,55.64197,55.24675,0.06716282,-0.003188037,-0.97783536,0.9801444,0.4400995,-0.09881954,0.24875039,0.51510155,178,328,1588,1631.0,-0.18173794,0.22041795,0.0028614805,0.2856938,0.28567945478782825,-0.28567945478782825,0.16459317499841924,4.281686056059165,-50.12939130323097,309.870608696769,2.3841898391507996,8.536776066805988,-0.17203417678892333,-47.523322583233245,,0.0,,,39.39,,,0.0,0.0,20151018,52,2015-10-18T00:00:52Z,-17.0,99.99,99.99,3.75E7,0,0,0,0.0,0.0,0.0,0,0,0,0,0,0,,,,2178775,48,99,252,3501,3501,4386,4394,171,17544,27,212,17543,0,false,false,false,false,false,false,false,false,false,false,0,0,0,0,44,55,56,43,943,946,944,944,940,940,940,940,0.0,0.0,0.0,0.0,1584.6,1579.1,1579.1,1585.2,0.0,0.0,0.0,0.0,0,0,0,0,-45.0,2.2976820151255856E-11,-4.014387871178284E-11,0,55.623474,55.409554,0.06643915,-0.0037758038,-0.9787522,0.98101187,0.42296153,-0.049870424,0.06242981,0.4304428,175,328,1591,1633.0,-0.0017947935,0.0010352192,0.0013463286,0.0024709438,0.0020719465076371804,-0.00203471769651044,0.2156403038182681,4.42242926993517,-42.089519410185595,317.9104805898144,2.6488511158613366,8.524587700651598,-0.3867750702547072,-47.289220684412776,,0.0015937060430356058,,,39.4,NONE,0.0,0.0,0.0,NONE,1.7425493864214304E-11,-5.082456407878479E-11,0.0,15.943,15.943,5.692,1.3014078,0,2451,3.977,12.0,1.3,67,22.3,OK,51,0,0,0,0,0,65,100,0.0,0,0.0,589232.0,2.69E-43,0.0,-5.9807744E7,62,1.15966424E-4,-1.1596691E-4,9.4E-44,False,False,0,None,0.0,1.0842022E-19,
213725489,47.495,0.0,0.0,0,55.604977,55.22463,0.065817125,-0.001899167,-0.9798427,0.98205256,0.577098,0.4721273,0.16379876,0.7633979,175,328,1600,1642.0,-0.08246653,0.089710474,0.0024626614,0.121880114,0.1218552334968606,-0.1218552334968606,0.1665058340405254,4.250729975854524,-50.14476631283703,309.855233687163,2.495967349911219,8.897064953416407,-0.06456812582006229,-47.801186276721744,,0.0,,,39.84,,,0.0,0.0,20151018,53,2015-10-18T00:00:53Z,-17.0,99.99,99.99,3.75E7,0,0,0,0.0,0.0,0.0,0,0,0,0,0,0,,,,2178775,48,99,252,3501,3501,4386,4394,171,17544,27,212,17543,0,false,false,false,false,false,false,false,false,false,false,0,0,0,0,43,55,56,44,943,946,945,943,940,940,940,940,0.0,0.0,0.0,0.0,1585.2,1579.1,1579.7,1585.2,0.0,0.0,0.0,0.0,0,0,0,0,-45.0,5.977398133785301E-11,-6.139073796244311E-11,0,55.36717,55.403416,0.06762051,-0.004921261,-0.9793543,0.98169833,0.21057379,0.16117316,0.0023199965,0.26518577,175,328,1603,1645.0,-0.0027651058,0.0026718895,0.008342593,0.009186058,0.00384510130941717,-0.003840487508094791,0.22527347224454106,4.404815919854662,-42.113798226029225,317.88620177397075,2.7063988734569846,8.789091932445693,-0.41234493470922623,-47.21885390149967,,0.001910288526603122,,,39.82,NONE,0.0,0.0,0.0,NONE,8.11463325743317E-12,-1.3364517049104247E-11,-3.8146973E-6,15.941,15.941,5.691,1.301409,0,2451,3.976,12.0,1.307,67,22.4,OK,52,0,0,0,0,0,65,100,0.0,0,0.0,589232.0,2.69E-43,0.0,-5.9807744E7,62,1.15966424E-4,-1.1596691E-4,9.4E-44,False,False,0,None,0.0,1.0842022E-19,
218333358,48.519,0.0,0.0,0,55.581196,55.22506,0.06921373,-0.0024835714,-0.9817366,0.9841765,0.99052745,-1.0404297,0.21137275,1.4520046,175,325,1585,1627.0,-0.124712385,0.13424161,-0.005242072,0.18330702,0.1832320627649069,-0.1832320627649069,0.15982116594613707,4.255286522667968,-50.160459587776124,309.83954041222387,2.6101957424340236,9.334821743257608,0.10466624806970438,-47.652217284941706,,0.0,,,40.17,,,0.0,0.0,20151018,54,2015-10-18T00:00:54Z,-17.0,99.99,99.99,3.75E7,0,0,0,0.0,0.0,0.0,0,0,0,0,0,0,,,,2178776,19,100,254,3501,3501,4380,4389,132,17538,27,1,17543,0,false,false,false,false,false,false,false,false,false,false,0,0,0,0,45,55,55,45,943,945,944,944,940,940,940,940,0.0,0.0,0.0,0.0,1585.8,1578.5,1579.1,1584.6,0.0,0.0,0.0,0.0,0,0,0,0,-45.0,1.978592227597082E-9,-2.098428824079537E-9,0,55.533634,55.298866,0.06887936,0.004418752,-0.97835165,0.9807833,1.0095247,0.3763547,0.20138991,1.0960569,172,328,1594,1636.0,-0.093494676,0.088326074,0.1440374,0.19310495,0.1286186202671022,-0.1283147300475049,0.24733024912966148,4.470581748466613,-42.003401366171445,317.99659863382857,2.7211788509804973,9.239219751382544,-0.31318050759988536,-47.34664289109385,,0.0022214727610965664,,,40.06,NONE,0.0,0.0,0.0,NONE,2.1202477248038024E-9,-2.2779327413648604E-9,3.8909912E-4,15.939,15.939,5.691,1.3017383,0,2450,3.976,12.0,1.308,67,22.4,OK,53,0,0,0,0,0,65,100,0.0,0,0.0,589232.0,2.69E-43,0.0,-5.9807744E7,62,1.15966424E-4,-1.1596691E-4,9.4E-44,False,False,0,None,0.0,1.0842022E-19,
222941272,49.543,0.0,0.0,0,55.557415,55.220913,0.06463426,-0.0029641609,-0.97932035,0.98145545,0.31987506,0.16870321,0.18364336,0.40559304,175,328,1591,1633.0,0.0,0.0,-0.0033161202,0.0033161202,0.0,0.0,0.149964223425628,4.229947208999868,-50.182466591761866,309.81753340823815,2.686952659133911,9.742763259176536,0.09079947240781203,-47.96528171334324,,0.0,,,40.47,,,0.0,0.0,20151018,55,2015-10-18T00:00:55Z,-17.0,99.99,99.99,3.75E7,0,0,0,0.0,0.0,0.0,0,0,0,0,0,0,,,,2178777,114,100,255,3501,3501,4379,4387,0,17518,27,3533,676,0,false,false,false,false,false,false,false,false,false,false,0,0,0,0,45,56,56,44,943,946,944,945,940,940,940,940,0.0,0.0,0.0,0.0,1584.6,1579.1,1578.5,1584.6,0.0,0.0,0.0,0.0,0,0,0,0,-45.0,1.1763368774709524E-10,-8.94727357977537E-11,0,55.340744,55.264473,0.070054054,-0.0022598389,-0.97902817,0.98153394,0.25826743,-0.003249816,0.16640854,0.30725306,175,325,1588,1630.0,-0.0039107716,0.005248206,0.018078363,0.019226674,0.006545059538154477,-0.006247689737685122,0.20662863617984123,4.499561430979474,-41.99244676153646,318.0075532384635,2.9163867707693076,10.09254327079126,-0.31304936732622907,-46.865177321001745,,0.0025376635531372807,,,40.48,NONE,0.0,0.0,0.0,NONE,5.720610043267965E-11,-6.58715919497089E-11,9.536743E-5,15.939,15.939,5.692,1.3024122,0,2450,3.975,12.0,1.307,67,22.4,OK,54,0,0,0,0,0,65,100,0.0,0,0.0,589232.0,2.69E-43,0.0,-5.9807744E7,62,1.15966424E-4,-1.1596691E-4,9.4E-44,False,False,0,None,0.0,1.0842022E-19,
227529970,50.562,0.0,0.0,0,55.306396,55.242126,0.065900184,-0.004542689,-0.97888166,0.98110795,0.30831477,0.110205196,8.9412776E-4,0.32742018,175,321,1585,1626.0,0.0,0.0,-0.009293526,0.009293526,0.0,0.0,0.1390676151184799,4.2134531528077135,-50.20567367854683,309.7943263214532,2.752797073353105,10.129474118943138,0.11981844750854476,-47.45864652635522,,0.0,,,40.87,,,0.0,0.0,20151018,56,2015-10-18T00:00:56Z,-17.0,99.99,99.99,3.75E7,0,0,0,0.0,0.0,0.0,0,0,0,0,0,0,,,,2250214,48,100,257,3500,3514,4369,4377,0,17471,22,212,4,0,false,false,false,false,false,false,false,false,false,false,0,0,0,0,44,56,56,45,944,945,944,944,940,940,940,940,0.0,0.0,0.0,0.0,1584.6,1580.3,1579.1,1584.6,0.0,0.0,0.0,0.0,0,0,0,0,-45.0,5.6459422260707516E-11,-6.459863123030449E-11,0,55.227127,55.272736,0.06772867,-0.003352657,-0.9797494,0.98209333,0.5336606,0.010439485,0.009847646,0.53385353,175,325,1582,1624.0,-0.0028798701,0.0025220928,4.5844074E-4,0.003855486,0.003828133286101025,-0.003820932139654031,0.21122937361368596,4.439802741868668,-42.19664175561961,317.8033582443804,2.951305728405624,10.381713152044144,-0.37116283825695934,-47.05715189182146,,0.0025825742824146366,,,40.82,NONE,0.0,0.0,0.0,NONE,2.509606861397617E-11,-4.4955979023529906E-11,-7.6293945E-6,15.935,15.935,5.69,1.3031726,0,2450,3.975,12.0,1.304,67,22.4,OK,55,0,0,0,0,0,65,100,0.0,0,0.0,589232.0,2.69E-43,0.0,-5.9807744E7,62,1.15966424E-4,-1.1596691E-4,9.4E-44,False,False,0,None,0.0,1.0842022E-19,mcID(SN)|298DG13001W644
232034750,51.563,0.0,0.0,0,55.441154,55.19775,0.06650277,-0.0034385668,-0.97858423,0.98084736,0.35658818,0.08972841,-0.09520221,0.37982863,175,325,1582,1624.0,0.0,0.0,0.00583431,0.00583431,0.0,0.0,0.14069354883503818,4.192498539262167,-50.230522070011304,309.7694779299887,2.8175474342223343,10.513483679211175,0.13749604760328576,-47.89048176677681,,0.0,,,41.22,,,0.0,0.0,20151018,58,2015-10-18T00:00:58Z,-17.0,99.99,99.99,3.75E7,0,0,0,0.0,0.0,0.0,0,0,0,0,0,0,,,,2250214,48,100,258,3500,3514,4369,4377,0,17471,22,212,4,0,false,false,false,false,false,false,false,false,false,false,0,0,0,0,45,55,55,45,944,945,944,944,940,940,940,940,0.0,0.0,0.0,0.0,1585.2,1580.3,1578.5,1584.6,0.0,0.0,0.0,0.0,0,0,0,0,-45.0,2.6102619901028046E-11,-2.705714424732519E-11,0,55.464935,55.272537,0.06828805,-0.004250799,-0.97921854,0.981606,0.29215398,-0.05275379,0.0046548205,0.2969151,178,325,1579,1621.0,-0.0012013861,0.0011300344,0.0010913033,0.001977688,0.0016493351338365994,-0.0016439724079400238,0.2245881215660995,4.406675824415396,-42.32391804804304,317.676081951957,3.0103258237361246,10.839234584117333,-0.3803170296815638,-46.84656901692693,,0.002614771574139759,,,41.21,NONE,0.0,0.0,0.0,NONE,1.3895048294872404E-11,-2.3863892982475517E-11,-3.8146973E-6,15.934,15.934,5.689,1.3049824,0,2449,3.974,12.0,1.311,67,22.4,OK,57,0,0,0,0,0,65,100,0.0,0,0.0,589232.0,2.69E-43,0.0,-1.05007105E-23,62,1.15966424E-4,-1.1596691E-4,9.4E-44,False,False,0,None,0.0,1.0842022E-19,mcVer|v3.4.1.6
236546823,52.566,0.0,0.0,0,55.478146,55.19545,0.066726096,-0.0048256447,-0.9788489,0.9811324,0.37781647,0.017891861,0.14822023,0.40624455,175,328,1588,1630.0,-0.0956526,0.08866601,-0.005516757,0.13054314,0.13042653080266922,-0.13042653080266922,0.14224504375640976,4.181989212665421,-50.2305967830617,309.7694032169383,2.8691735522725077,10.8692276985062,0.10841102113082257,-48.13546136447996,,0.0,,,41.59,,,0.0,0.0,20151018,59,2015-10-18T00:00:59Z,-17.0,99.99,99.99,3.75E7,0,0,0,0.0,0.0,0.0,0,0,0,0,0,0,,,,2250214,48,100,259,3500,3514,4369,4377,0,17471,22,212,4,0,false,false,false,false,false,false,false,false,false,false,0,0,0,0,44,55,57,44,944,944,943,945,940,940,940,940,0.0,0.0,0.0,0.0,1584.6,1579.7,1579.1,1584.6,0.0,0.0,0.0,0.0,0,0,0,0,-45.0,1.0944585055888377E-10,-1.0341177169360363E-10,0,55.2694,55.265415,0.0672598,-0.0048867567,-0.97906274,0.9813825,0.27352133,-0.058260106,0.0705039,0.28840762,175,328,1579,1622.0,-0.004613066,0.0048566577,0.006801785,0.009546297,0.006698321095172992,-0.006685786193977056,0.22212958897046534,4.409827468985987,-42.30146443035243,317.69853556964756,3.099099865638519,11.14495872518821,-0.3853903348464415,-47.39922162614212,,0.0028626231149069363,,,41.58,NONE,0.0,0.0,0.0,NONE,4.466577856577137E-11,-2.8074676110994776E-11,1.5258789E-5,15.933,15.933,5.688,1.3062371,0,2448,3.974,12.0,1.315,67,22.4,OK,58,0,0,0,0,0,65,100,0.0,0,0.0,589232.0,2.69E-43,0.0,-1.05007105E-23,62,1.15966424E-4,-1.1596691E-4,9.4E-44,False,False,0,None,0.0,1.0842022E-19,
241066036,53.570,0.0,0.0,0,55.446438,55.222916,0.06737414,-0.0045809075,-0.979557,0.9818819,0.29562226,0.018598624,0.24648285,0.3853469,178,328,1588,1631.0,-0.13295494,0.111244135,-0.010464537,0.17367147,0.17335591846130005,-0.17335591846130005,0.14336528776053345,4.178064727888836,-50.23432864202329,309.7656713579767,2.9145222946128,11.219447520349958,0.09662765329865239,-47.851089961770434,,0.0,,,41.94,,,0.0,0.0,20151018,100,2015-10-18T00:01:00Z,-17.0,99.99,99.99,3.75E7,0,0,0,0.0,0.0,0.0,0,0,0,0,0,0,,,,2250216,114,100,260,3500,3514,4369,4377,0,17471,22,3501,6,0,false,false,false,false,false,false,false,false,false,false,0,0,0,0,45,57,56,44,943,944,944,945,940,940,940,940,0.0,0.0,0.0,0.0,1585.2,1580.3,1578.5,1584.6,0.0,0.0,0.0,0.0,0,0,0,0,-45.0,8.110554964029421E-11,-1.851928873936307E-10,0,55.65518,55.252483,0.06713306,-0.0050987164,-0.9784027,0.9807164,0.38710326,-0.042796623,0.10270519,0.40277642,178,328,1588,1631.0,-0.008288848,0.0035938434,0.010238394,0.013654502,0.00903441849471173,-0.009024835219673672,0.20163473354711572,4.457504945357858,-42.223153290664065,317.7768467093359,3.182091404308215,11.476738108556235,-0.41250289943381807,-46.969819306619435,,0.0029303218734001474,,,41.97,NONE,0.0,0.0,0.0,NONE,5.473965763500519E-11,-9.683807689518344E-11,1.9073486E-5,15.931,15.931,5.691,1.3076652,0,2448,3.974,12.0,1.315,67,22.4,OK,59,0,0,0,0,0,65,100,0.0,0,0.0,589232.0,2.69E-43,0.0,-1.05007105E-23,62,1.15966424E-4,-1.1596691E-4,9.4E-44,False,False,0,None,0.0,1.0842022E-19,
245688108,54.597,0.0,0.0,0,55.433228,55.197334,0.067620635,-0.004245923,-0.9797055,0.98204553,0.4189638,-0.15633005,0.06858117,0.45240813,175,328,1585,1628.0,0.0,0.0,0.010884409,0.010884409,0.0,0.0,0.14938541336164196,4.1447757330274255,-50.23332977877512,309.7666702212249,2.956009505454661,11.655950392614981,0.07930170538853562,-48.24007237625295,,0.0,,,42.3,,,0.0,0.0,20151018,101,2015-10-18T00:01:01Z,-17.0,99.99,99.99,3.75E7,0,0,0,0.0,0.0,0.0,0,0,0,0,0,0,,,,2289928,16,100,261,3491,3513,4325,4343,-1376,17436,22,0,17186,0,false,false,false,false,false,false,false,false,false,false,0,0,0,0,45,56,57,44,944,945,944,944,940,940,940,940,0.0,0.0,0.0,0.0,1584.6,1578.5,1577.9,1584.6,0.0,0.0,0.0,0.0,0,0,0,0,-45.0,-5.84496651749703E-12,4.746425267949231E-11,0,55.570625,55.25372,0.06737801,-0.0044285925,-0.97759205,0.9799212,0.27467343,0.02549127,-0.0076211304,0.275959,175,328,1582,1625.0,0.0021217144,-2.8778522E-4,5.5947644E-4,0.002213031,0.0021411427362423912,-0.002114254195109987,0.2140892118070344,4.390267084571037,-42.26285795161353,317.7371420483865,3.22074698038951,11.880416902822601,-0.45555369440769355,-47.44752291605258,,0.0029792438019166493,,,42.29,NONE,0.0,0.0,0.0,NONE,2.0538678981846404E-11,-1.1323179078762316E-11,-3.8146973E-6,15.929,15.929,5.686,1.3090701,0,2448,3.973,12.0,1.31,67,22.4,OK,60,0,0,0,0,0,65,100,0.0,0,0.0,589232.0,2.69E-43,0.0,-1.05007105E-23,62,1.15966424E-4,-1.1596691E-4,9.4E-44,False,False,0,None,0.0,1.0842022E-19,
250295986,55.621,0.0,0.0,0,55.45172,55.18333,0.06661518,-0.004369784,-0.97964734,0.98191935,0.45891288,-0.054401275,0.025449257,0.4628263,178,325,1582,1624.0,-0.15536328,0.1527619,0.001932216,0.21789373,0.21788517262286666,-0.21788517262286666,0.16574772554721534,4.185272714520869,-50.239231085721926,309.76076891427806,3.0265803069525368,12.043297352792237,0.04415987868285797,-47.55468212368243,,0.0,,,42.62,,,0.0,0.0,20151018,103,2015-10-18T00:01:03Z,-17.0,99.99,99.99,3.75E7,0,0,0,0.0,0.0,0.0,0,0,0,0,0,0,,,,2289928,20,100,262,3491,3513,4325,4343,-1376,17436,22,2,17186,0,false,false,false,false,false,false,false,false,false,false,0,0,0,0,46,57,56,47,944,945,944,944,940,940,940,940,0.0,0.0,0.0,0.0,1583.4,1578.5,1578.5,1584.6,0.0,0.0,0.0,0.0,0,0,0,0,-45.0,1.9864982480351134E-10,-2.2955434807518144E-10,0,55.27733,55.242138,0.06624153,-0.0032588528,-0.9801944,0.9824356,0.3977367,-0.01844393,0.015130223,0.39845148,178,325,1579,1621.0,-0.010245937,0.008867106,0.011130645,0.017535565,0.013550084987524845,-0.013512694520201879,0.21440151886141176,4.46428773648585,-42.179687780543574,317.8203122194564,3.2833045956001166,12.223535044339771,-0.4711484813446236,-46.72234477198994,,0.0034003250329528814,,,42.61,NONE,0.0,0.0,0.0,NONE,1.0686489653596514E-10,-1.626963356116111E-10,2.2888184E-5,15.928,15.928,5.688,1.3101863,0,2447,3.972,12.0,1.312,67,22.4,OK,61,0,0,0,0,0,65,100,0.0,0,0.0,589232.0,2.69E-43,0.0,-1.05007105E-23,62,1.15966424E-4,-1.1596691E-4,9.4E-44,False,False,0,None,0.0,1.0842022E-19,
254889032,56.642,0.0,0.0,0,55.37245,55.184494,0.067294024,-0.004577392,-0.97771925,0.98004305,0.32774907,-0.07964862,0.054634403,0.34168446,175,325,1579,1621.0,0.0,0.0,-0.0028214522,0.0028214522,0.0,0.0,0.16853703004897114,4.18631595625095,-50.25452587595536,309.7454741240446,3.09372990550586,12.379808581579889,0.04987056698003532,-47.85991192655785,,0.0,,,42.99,,,0.0,0.0,20151018,104,2015-10-18T00:01:04Z,-17.0,99.99,99.99,3.75E7,0,0,0,0.0,0.0,0.0,0,0,0,0,0,0,,,,2289929,114,100,263,3490,3513,4282,4304,-2908,17117,22,3514,17309,0,false,false,false,false,false,false,false,false,false,false,0,0,0,0,44,57,56,45,943,944,943,944,940,940,940,940,0.0,0.0,0.0,0.0,1584.0,1577.9,1577.9,1584.0,0.0,0.0,0.0,0.0,0,0,0,0,-45.0,1.914042242941168E-11,-6.023784616214278E-12,0,55.430584,55.23849,0.06731282,-0.004446487,-0.9785517,0.9808742,0.3878019,-0.084889606,-0.030329822,0.39814124,175,325,1579,1621.0,-2.6771857E-4,8.320428E-4,2.5153402E-4,9.0952613E-4,8.740528840189832E-4,-8.428205125064514E-4,0.23586317909178328,4.442494823273432,-42.22116639255761,317.7788336074424,3.338802574237411,12.593322143305173,-0.5055584903919004,-47.011513250187626,,0.0035124880686556678,,,43.0,NONE,0.0,0.0,0.0,NONE,3.878255184852409E-11,-2.5498689265532814E-11,-3.8146973E-6,15.928,15.928,5.687,1.3110278,0,2447,3.972,12.0,1.313,67,22.4,OK,62,0,0,0,0,0,65,100,0.0,0,0.0,589232.0,2.69E-43,0.0,-1.05007105E-23,62,1.15966424E-4,-1.1596691E-4,9.4E-44,False,False,0,None,0.0,1.0842022E-19,
259512072,57.669,0.0,0.0,0,55.435867,55.16404,0.06475577,-0.004446055,-0.98088413,0.9830294,0.48629528,-0.08822523,0.110810414,0.50650346,175,328,1594,1636.0,-0.1313943,0.12984641,-0.008964059,0.18494569,0.18472832268924752,-0.18472832268924752,0.17244670364168072,4.199840032199449,-50.27277669816374,309.72722330183626,3.1600227240795067,12.797813383671917,0.021361827519071563,-47.967939640089305,,0.0,,,43.4,,,0.0,0.0,20151018,105,2015-10-18T00:01:05Z,-17.0,99.99,99.99,3.75E7,0,0,0,0.0,0.0,0.0,0,0,0,0,0,0,,,,2290129,17,98,265,3419,3513,4313,4323,-1079,17272,24,0,17270,0,false,false,false,false,false,false,false,false,false,false,0,0,0,0,46,58,57,46,944,944,943,944,940,940,940,940,0.0,0.0,0.0,0.0,1583.4,1577.3,1578.5,1584.0,0.0,0.0,0.0,0.0,0,0,0,0,-45.0,1.5459791188285297E-10,-1.9041126819501936E-10,0,55.454365,55.231438,0.06552523,-0.004051839,-0.97866446,0.9808639,0.5042036,-0.14668399,0.13163684,0.5413555,175,328,1594,1636.0,-0.00851997,0.006894081,0.009482374,0.014492539,0.010959846648367536,-0.010935082824484828,0.23061159088876396,4.4539158717984355,-42.23264597695376,317.7673540230462,3.4192390816110056,12.978787748232282,-0.5344796486026057,-47.14529615261144,,0.00390668394847239,,,43.42,NONE,0.0,0.0,0.0,NONE,6.350632739024656E-11,-9.889405628445429E-11,1.5258789E-5,15.926,15.926,5.69,1.3121035,0,2446,3.973,12.0,1.306,67,22.4,OK,64,0,0,0,0,0,65,100,0.0,0,0.0,589232.0,2.69E-43,0.0,-1.05007105E-23,62,1.15966424E-4,-1.1596691E-4,9.4E-44,False,False,0,None,0.0,1.0842022E-19,
264043048,58.676,0.0,0.0,0,55.647255,55.206406,0.06458074,-0.006680711,-0.9787801,0.9809311,0.21992286,0.05377551,0.19168797,0.29665154,172,328,1585,1627.0,-0.14987805,0.14476201,-0.012176916,0.2087289,0.20837339771000257,-0.20837339771000257,0.1718374508206151,4.215899316682862,-50.291814450607006,309.70818554939297,3.263037478522816,13.178352427894378,0.00976205887007503,-48.28746737085154,,0.0,,,43.73,,,0.0,0.0,20151018,106,2015-10-18T00:01:06Z,-17.0,99.99,99.99,3.75E7,0,0,0,0.0,0.0,0.0,0,0,0,0,0,0,,,,2290255,16,98,266,3416,3510,4335,4344,-525,17327,24,0,16685,0,false,false,false,false,false,false,false,false,false,false,0,0,0,0,45,57,58,46,943,945,943,943,940,940,940,940,0.0,0.0,0.0,0.0,1584.0,1577.3,1578.5,1583.4,0.0,0.0,0.0,0.0,0,0,0,0,-45.0,2.3401768493862223E-10,-2.8605507948739353E-10,0,55.626118,55.218468,0.0664966,3.8562948E-4,-0.980833,0.9830846,0.323756,0.17603274,0.25641647,0.44894865,175,328,1585,1628.0,-0.012693084,0.010523506,0.014446198,0.021921478,0.016488133919707666,-0.016474404771692087,0.21622196627205487,4.502860761222431,-42.14981078689134,317.85018921310865,3.468561798048045,13.367508873937881,-0.5719956618045998,-47.12323370581818,,0.004012533116154539,,,43.72,NONE,0.0,0.0,0.0,NONE,1.3119781683394918E-10,-2.2658855191497765E-10,2.670288E-5,15.924,15.924,5.687,1.312029,0,2445,3.972,12.0,1.307,67,22.4,OK,65,0,0,0,0,0,65,100,0.0,0,0.0,589232.0,2.69E-43,0.0,-1.05007105E-23,62,1.15966424E-4,-1.1596691E-4,9.4E-44,False,False,0,None,0.0,1.0842022E-19,
268574896,59.683,0.0,0.0,0,55.45172,55.200546,0.06397402,-0.004881936,-0.9809533,0.9830493,0.41320822,-0.013659995,0.09940284,0.4252159,175,328,1588,1630.0,0.0,0.0,-0.006174992,0.006174992,0.0,0.0,0.184843710520044,4.192966750032441,-50.30749964159775,309.69250035840224,3.3367484761436157,13.554121380364494,-0.02968742365786312,-48.000188488667966,,0.0,,,44.07,,,0.0,0.0,20151018,107,2015-10-18T00:01:07Z,-17.0,99.99,99.99,3.75E7,0,0,0,0.0,0.0,0.0,0,0,0,0,0,0,,,,2290255,20,98,267,3416,3510,4335,4344,-525,17327,24,2,16685,0,false,false,false,false,false,false,false,false,false,false,0,0,0,0,46,58,57,46,943,943,943,944,940,940,940,940,0.0,0.0,0.0,0.0,1582.8,1578.5,1577.9,1582.8,0.0,0.0,0.0,0.0,0,0,0,0,-45.0,2.84030473291327E-11,-3.1523617772068346E-11,0,55.237694,55.22229,0.06690734,-0.003250726,-0.97898024,0.9812693,0.47010234,-0.0013444967,0.02013251,0.47053516,175,325,1585,1627.0,-0.0013906515,0.0012797884,0.0013234315,0.002307215,0.001889912661087649,-0.0018537847241418544,0.22821558603307016,4.421310101205176,-42.27562107071023,317.72437892928974,3.517648269472918,13.758092345365661,-0.5923830681281561,-47.039679480726534,,0.004107827754880732,,,44.1,NONE,0.0,0.0,0.0,NONE,4.103971053028015E-11,-7.615331765784291E-11,-3.8146973E-6,15.923,15.923,5.686,1.3117783,0,2445,3.972,12.0,1.318,67,22.5,OK,66,0,0,0,0,0,65,100,0.0,0,0.0,589232.0,2.69E-43,0.0,-1.05007105E-23,62,1.15966424E-4,-1.1596691E-4,9.4E-44,False,False,0,None,0.0,1.0842022E-19,
273122837,60.694,0.0,0.0,0,55.102936,55.153107,0.06553781,-0.003675506,-0.9803209,0.982516,0.2580492,0.06357004,-0.04186485,0.26904127,178,325,1582,1624.0,-0.09222491,0.102551684,0.010151507,0.13829438,0.13792128991918776,-0.13792128991918776,0.18559427534873504,4.195226741158471,-50.3006249565023,309.6993750434977,3.3945758078616697,13.914319890344583,-0.050277528510350354,-47.47853980135778,,0.0,,,44.41,,,0.0,0.0,20151018,109,2015-10-18T00:01:09Z,-17.0,99.99,99.99,3.75E7,0,0,0,0.0,0.0,0.0,0,0,0,0,0,0,,,,2290297,48,97,268,3401,3510,4312,4323,-1066,17264,25,212,17257,0,false,false,false,false,false,false,false,false,false,false,0,0,0,0,45,57,58,45,943,945,944,944,940,940,940,940,0.0,0.0,0.0,0.0,1584.0,1577.9,1578.5,1582.2,0.0,0.0,0.0,0.0,0,0,0,0,-45.0,1.418081749380366E-10,-1.3217456402131566E-10,0,55.137287,55.21005,0.06679527,-0.0043032407,-0.9808454,0.9831266,0.23710759,-0.03109574,0.06687419,0.24831253,178,325,1582,1624.0,-0.005903508,0.0063035693,0.0153166,0.017583646,0.008636341498329774,-0.008619658858712699,0.2364370847697995,4.421767824131138,-42.25564623535681,317.74435376464317,3.5785972834465345,14.10362985945673,-0.6305592111172638,-46.75423605459229,,0.004161110005034781,,,44.41,NONE,0.0,0.0,0.0,NONE,4.244770590956188E-11,-5.564529271859541E-11,2.2888184E-5,15.921,15.921,5.684,1.3118563,0,2445,3.971,12.0,1.316,67,22.5,OK,67,0,0,0,0,0,65,100,0.0,0,0.0,589232.0,2.69E-43,0.0,-5.9807744E7,62,1.15966424E-4,-1.1596691E-4,9.4E-44,False,False,0,None,0.0,1.0842022E-19,
277634738,61.697,0.0,0.0,0,55.443794,55.12118,0.06638026,-0.0040958305,-0.97981673,0.9820713,0.24921052,0.016655946,0.15638222,0.29468408,175,325,1585,1627.0,-0.16048686,0.15131097,0.0020748794,0.22057956,0.2205698066381079,-0.2205698066381079,0.1606464856238698,4.203462316394841,-50.3217579379291,309.6782420620709,3.441501957194991,14.3196938253814,-0.09502792979700327,-47.788974965483426,,0.0,,,44.83,,,0.0,0.0,20151018,109,2015-10-18T00:01:09Z,-17.0,99.99,99.99,3.75E7,0,0,0,0.0,0.0,0.0,0,0,0,0,0,0,,,,2290297,17,97,269,3401,3510,4312,4323,-1066,17264,25,0,17257,0,false,false,false,false,false,false,false,false,false,false,0,0,0,0,46,58,57,45,943,944,944,943,940,940,940,940,0.0,0.0,0.0,0.0,1580.9,1577.3,1577.9,1582.8,0.0,0.0,0.0,0.0,0,0,0,0,-45.0,4.430342054462462E-11,-2.7256624702757266E-11,0,55.4253,55.204178,0.06784932,-0.003008651,-0.98191804,0.98426396,0.41484377,-0.05310292,0.004390591,0.41825178,172,325,1582,1624.0,-0.0012026946,0.0019828689,-0.0017162667,0.0028851023,0.002319103977562629,-0.0023032194915007793,0.19186950159611482,4.4627771248500085,-42.225712634782326,317.7742873652177,3.6251741795400676,14.469845973524004,-0.6411112408630675,-47.333985639779875,,0.004269623972778332,,,44.81,NONE,0.0,0.0,0.0,NONE,8.017272559688547E-11,-1.1775342927853104E-10,7.6293945E-6,15.919,15.919,5.685,1.3123395,0,2444,3.971,12.0,1.319,67,22.5,OK,68,0,0,0,0,0,65,100,0.0,0,0.0,589232.0,2.69E-43,0.0,-5.9807744E7,62,1.15966424E-4,-1.1596691E-4,9.4E-44,False,False,0,None,0.0,1.0842022E-19,
