Tick#,offsetTime,IMU_ATTI(0):Longitude,IMU_ATTI(0):Latitude,IMU_ATTI(0):numSats,IMU_ATTI(0):barometer:Raw,IMU_ATTI(0):barometer:Smooth,IMU_ATTI(0):accel:X,IMU_ATTI(0):accel:Y,IMU_ATTI(0):accel:Z,IMU_ATTI(0):accel:Composite,IMU_ATTI(0):gyro:X,IMU_ATTI(0):gyro:Y,IMU_ATTI(0):gyro:Z,IMU_ATTI(0):gyro:Composite,IMU_ATTI(0):mag:X,IMU_ATTI(0):mag:Y,IMU_ATTI(0):mag:Z,IMU_ATTI(0):mag:Mod,IMU_ATTI(0):velN,IMU_ATTI(0):velE,IMU_ATTI(0):velD,IMU_ATTI(0):velComposite,IMU_ATTI(0):velH,IMU_ATTI(0):GPS-H,IMU_ATTI(0):roll,IMU_ATTI(0):pitch,IMU_ATTI(0):yaw,IMU_ATTI(0):yaw360,IMU_ATTI(0):totalGyro:Z,IMU_ATTI(0):totalGyro:X,IMU_ATTI(0):totalGyro:Y,IMU_ATTI(0):magYaw,IMU_ATTI(0):distanceHP,IMU_ATTI(0):distanceTravelled,IMU_ATTI(0):directionOfTravel[mag],IMU_ATTI(0):directionOfTravel[true],IMU_ATTI(0):temperature,General:relativeHeight,General:absoluteHeight,GPS(0):Long,GPS(0):Lat,GPS(0):Date,GPS(0):Time,GPS:dateTimeStamp,GPS(0):heightMSL,GPS(0):hDOP,GPS(0):pDOP,GPS(0):sAcc,GPS(0):numGPS,GPS(0):numGLNAS,GPS(0):numSV,GPS(0):velN,GPS(0):velE,GPS(0):velD,RC:Aileron,RC:Elevator,RC:Rudder,RC:Throttle,Controller:navHealth,Controller:ctrl_level,HP:Longitude,HP:Latitude,HP:rthHeight,BatBlackBox:tick,BatBlackBox:id,BatBlackBox:rsoc,BatBlackBox:index,BatBlackBox:rm,BatBlackBox:fcc,BatBlackBox:cell_min,BatBlackBox:cell_max,BatBlackBox:current,BatBlackBox:voltage,BatBlackBox:temp,BatBlackBox:flag,BatBlackBox:reserve,BatBlackBox:user_data,OA:avoidObst,OA:emergBrake,OA:radiusLimit,OA:airportLimit,OA:groundForceLanding,OA:horizNearBoundary,OA:vertLowLimit,OA:vertAirportLimit,OA:roofLimit,OA:hitGroundLimit,Motor:Speed:RFront,Motor:Speed:LFront,Motor:Speed:LBack,Motor:Speed:RBack,Motor:EscTemp:RFront,Motor:EscTemp:LFront,Motor:EscTemp:LBack,Motor:EscTemp:RBack,Motor:PPMrecv:RFront,Motor:PPMrecv:LFront,Motor:PPMrecv:LBack,Motor:PPMrecv:RBack,Motor:PPMsend:RFront,Motor:PPMsend:LFront,Motor:PPMsend:LBack,Motor:PPMsend:RBack,Motor:V_out:RFront,Motor:V_out:LFront,Motor:V_out:LBack,Motor:V_out:RBack,Motor:Volts:RFront,Motor:Volts:LFront,Motor:Volts:LBack,Motor:Volts:RBack,Motor:Current:RFront,Motor:Current:LFront,Motor:Current:LBack,Motor:Current:RBack,Motor:Status:RFront,Motor:Status:LFront,Motor:Status:LBack,Motor:Status:RBack,Motor:thrustAngle,IMU_ATTI(1):Longitude,IMU_ATTI(1):Latitude,IMU_ATTI(1):numSats,IMU_ATTI(1):barometer:Raw,IMU_ATTI(1):barometer:Smooth,IMU_ATTI(1):accel:X,IMU_ATTI(1):accel:Y,IMU_ATTI(1):accel:Z,IMU_ATTI(1):accel:Composite,IMU_ATTI(1):gyro:X,IMU_ATTI(1):gyro:Y,IMU_ATTI(1):gyro:Z,IMU_ATTI(1):gyro:Composite,IMU_ATTI(1):mag:X,IMU_ATTI(1):mag:Y,IMU_ATTI(1):mag:Z,IMU_ATTI(1):mag:Mod,IMU_ATTI(1):velN,IMU_ATTI(1):velE,IMU_ATTI(1):velD,IMU_ATTI(1):velComposite,IMU_ATTI(1):velH,IMU_ATTI(1):GPS-H,IMU_ATTI(1):roll,IMU_ATTI(1):pitch,IMU_ATTI(1):yaw,IMU_ATTI(1):yaw360,IMU_ATTI(1):totalGyro:Z,IMU_ATTI(1):totalGyro:X,IMU_ATTI(1):totalGyro:Y,IMU_ATTI(1):magYaw,IMU_ATTI(1):distanceHP,IMU_ATTI(1):distanceTravelled,IMU_ATTI(1):directionOfTravel[mag],IMU_ATTI(1):directionOfTravel[true],IMU_ATTI(1):temperature,IMUEX(0):err,IMUEX(0):rtk_Longitude,IMUEX(0):rtk_Latitude,IMUEX(0):rtk_Alti,IMUEX(1):err,IMUEX(1):rtk_Longitude,IMUEX(1):rtk_Latitude,IMUEX(1):rtk_Alti,BattInfo:Voltage,BattInfo:BatVoltage,BattInfo:AdVoltage,BattInfo:AvgCurrent,BattInfo:R_time,BattInfo:R_CAP_MAH,BattInfo:LowCellVoltage,BattInfo:LowCellVolThreshold,BattInfo:BatCurrent,BattInfo:Remaining%,BattInfo:Temp,BattInfo:status,battery_info:BatDynCnt,battery_info:Vol1Protect,battery_info:Vol2Protect,battery_info:Cap1Protect,battery_info:Cap2Protect,battery_info:Batpresent,battery_info:sopPercentage,battery_info:sopValue,battery_info:sopScale,battery_info:sopFlg,BattInfo:WindHeading:WindDir,battery_info:home_dir,BattInfo:Wind:rangeMin,BattInfo:Wind:rangeMax,battery_info:cap_speed,battery_info:against_wind,battery_info:emergency_land_cap,battery_info:intel_bat_land_cap,battery_info:intel_bat_gh_cap,BattInfo:Smart:SmartGh,BattInfo:Smart:SmartLand,BattInfo:GoHome:CntDown,BattInfo:GoHome:GhCmd,BattInfo:GoHome:CapLevel,BattInfo:GoHome:LandCapLv,Attribute|Value,ConvertDatV3,3.6.6-Tablet
7780054,2.022,,,,,,,,,,,,,,,,,,,,,,,,,,,,,,,,,,,,,,,,,,,,,,,,,,,,,,,,,,,,,,,,,,,,,,,,,,,,,,,,,,,,,,,,,,,,,,,,,,,,,,,,,,,,,,,,,,,,,,,,,,,,,,,,,,,,,,,,,,,,,,,,,,,,,,,,,,,,,,,,,,,,,,,,,,,,,,,OK,,,,,,,,,,,,,,,,,,,,,,,,,,Firmware Date| Oct 17 2018
372869106,96.907,,,,,,,,,,,,,,,,,,,,,,,,,,,,,,,,,,,,,,,,,,,,,,,,,,,,,,,,,,,,,,,,,,,,,,,,,,,,,,,,,,,,,,,,,,,,,,,,,,,,,,,,,,,,,,,,,,,,,,,,-1.349439964866435E-10,-5.624479159204614E-11,0,143.59952,142.72742,0.056130216,-0.008024976,-0.98526305,0.98689324,0.32782292,-0.13017978,0.0012241247,0.35272673,56,-77,2916,2917.0,-0.001245928,-0.0030211303,0.005066401,0.006028929,0.0032679603873970787,-0.0032679603873970787,0.3239501615687695,3.6332877441417346,29.043119129617295,29.04311912961731,0.0,0.0,0.0,21.23016007783664,,0.0,,,64.67,,,,,,,,,,,,,,,,,,,,OK,,,,,,,,,,,,,,,,,,,,,,,,,,ACType|MavicEnterprise
376767672,97.920,0.0,0.0,0,143.48853,143.2556,0.056150932,-0.007229564,-0.98404056,0.98566777,0.32699862,-0.053442683,-0.017176019,0.3317819,56,-77,2910,2911.0,-0.035376124,-0.025838964,-0.020021902,0.048166364,0.04380778675041853,-0.04380778675041853,0.48406935585582567,3.2380953696190655,96.10778913059455,96.10778913059454,-5.944145371018245E-4,0.24951862555921533,-0.048760754168869144,24.76077218863798,,0.0,,,64.72,,,10.4408872,63.4120416,20190508,171828,2019-05-08T17:18:28Z,127.014,99.99,99.99,46439.35,0,0,0,0.0,0.0,0.0,0,0,0,0,0,0,,,,1153970,20,95,92,3409,3613,4258,4281,-1266,17139,22,2,16524,0,false,false,false,false,false,false,false,false,false,false,0,0,0,0,53,68,68,53,944,945,944,944,940,940,940,940,0.0,0.0,0.0,0.0,1693.8,1688.9,1688.9,1693.8,0.0,0.0,0.0,0.0,0,0,0,0,-45.0,-2.2638465882194755E-11,-3.0770242984003075E-11,0,143.64178,142.72415,0.056403376,-0.008081136,-0.9856376,0.98728323,0.27089518,-0.12618534,0.0035405592,0.29886365,56,-77,2910,2911.0,-6.595468E-4,-5.129396E-4,0.0052344934,0.0053007575,8.355291938000506E-4,-8.228912225949566E-4,0.33527482618985127,3.6102169987382586,29.015449517250737,29.015449517250715,-0.003750929216744311,0.2519429882502856,-0.08915350079435892,21.467755846113324,,6.293269731363641E-5,,,64.73,NONE,0.0,0.0,0.0,NONE,-9.593321813878339E-11,-8.54171236763738E-11,3.0517578E-5,17.045,17.045,6.09,1.3164182,0,3340,4.253,12.0,1.31,93,24.0,OK,93,0,0,0,0,0,65,100,0.0,0,0.0,589232.0,2.69E-43,0.0,-1.05007105E-23,62,2.622619E-7,-2.622638E-7,9.4E-44,False,False,0,None,0.0,1.0842022E-19,dateTime|2019-5-8 17:18:28 GMT
380661972,98.932,0.0,0.0,0,143.45947,143.25894,0.057401285,-0.006783515,-0.9834642,0.98516124,0.35684606,-0.08621229,-0.009209156,0.3672281,53,-77,2913,2914.0,-0.032460608,-0.038951878,-0.005167854,0.05096711,0.050704434874591406,-0.050704434874591406,0.4799908446874526,3.2384114092473415,96.09447100645998,96.09447100645997,0.020247803017679374,0.5481754185677966,-0.1094774036832305,25.00231511384463,,0.0,,,64.8,,,10.4408872,63.4120416,20190508,171830,2019-05-08T17:18:30Z,127.014,99.99,99.99,46538.69,0,0,0,0.0,0.0,0.0,0,0,0,0,0,0,,,,1154055,48,94,93,3377,3613,4262,4273,-1137,17060,23,212,17057,0,false,false,false,false,false,false,false,false,false,false,0,0,0,0,53,69,68,53,944,945,944,945,940,940,940,940,0.0,0.0,0.0,0.0,1694.4,1688.9,1690.1,1694.4,0.0,0.0,0.0,0.0,0,0,0,0,-45.0,-5.842832440363384E-11,-8.606967374922465E-11,0,143.3987,142.71951,0.05648672,-0.007045695,-0.9857357,0.987378,0.28691313,0.021813693,-0.085988484,0.3003148,53,-77,2910,2911.0,-0.0019035857,-0.001313955,0.0041626543,0.004762122,0.0023130318254619363,-0.002305794990900041,0.3222500651174756,3.6224436826260047,29.013452837014842,29.013452837014825,-0.03886075341524469,0.5476712052666607,-0.15924346046545762,21.524772700803247,,1.2683321543066072E-4,,,64.82,NONE,0.0,0.0,0.0,NONE,-3.0301745551364165E-11,-1.4269093653342554E-10,0.0,17.043,17.043,6.088,1.3147218,0,3339,4.252,12.0,1.315,93,24.0,OK,94,0,0,0,0,0,65,100,0.0,0,0.0,589232.0,2.69E-43,0.0,-1.05007105E-23,62,2.622619E-7,-2.622638E-7,9.4E-44,False,False,0,None,0.0,1.0842022E-19,
384604476,99.957,0.0,0.0,0,143.66557,143.27301,0.05496523,-0.007083521,-0.9854819,0.98703897,0.26973635,-0.049176317,0.055380616,0.27971953,56,-77,2913,2914.0,-0.03258884,-0.046029847,-0.004086244,0.056546234,0.05639839581970078,-0.05639839581970078,0.4728085045659541,3.2374118987317226,96.08313449149496,96.08313449149495,0.024599446717395466,0.7698176519751635,-0.11334536950337779,24.629920711590657,,0.0,,,64.86,,,10.4408872,63.4120416,20190508,171830,2019-05-08T17:18:30Z,127.014,99.99,99.99,46605.48,0,0,0,0.0,0.0,0.0,0,0,0,0,0,0,,,,1154055,17,94,94,3377,3613,4262,4273,-1137,17060,23,0,17057,0,false,false,false,false,false,false,false,false,false,false,0,0,0,0,53,68,69,53,944,945,944,945,940,940,940,940,0.0,0.0,0.0,0.0,1694.4,1689.5,1690.1,1694.4,0.0,0.0,0.0,0.0,0,0,0,0,-45.0,-1.1449742962235887E-10,-1.5679605626057649E-10,0,143.33264,142.71397,0.056542024,-0.0073416596,-0.9868801,0.9885258,0.36648986,0.022984907,-0.031091088,0.36852378,56,-77,2910,2911.0,-0.0034935377,-0.0025203691,0.004211294,0.0060242894,0.004307791329847734,-0.004297996761005663,0.3244760200393432,3.6157653767451112,29.007265161214093,29.007265161214093,-0.06209256305559089,0.7917987358175506,-0.2017575783430014,21.33096843286758,,1.8878635201838867E-4,,,64.83,NONE,0.0,0.0,0.0,NONE,-1.786146516634104E-10,-2.0652371386243323E-10,3.0517578E-5,17.044,17.044,6.089,1.3132744,0,3339,4.252,12.0,1.301,93,24.0,OK,95,0,0,0,0,0,65,100,0.0,0,0.0,589232.0,2.69E-43,0.0,-1.05007105E-23,62,2.622619E-7,-2.622638E-7,9.4E-44,False,False,0,None,0.0,1.0842022E-19,
388555680,100.984,0.0,0.0,0,143.59686,143.2374,0.056664806,-0.007234729,-0.98597974,0.98763317,0.20078014,-0.059634943,-0.11228335,0.23764794,53,-77,2913,2914.0,-0.031653665,-0.064364396,0.006118515,0.071987264,0.07172677471003601,-0.07172677471003601,0.45452851248567877,3.2601357383268375,96.0729220114558,96.07292201145583,0.07233353956321503,1.033243429370436,-0.17008263209911664,24.611519812796256,,0.0,,,64.91,,,10.4408872,63.4120416,20190508,171832,2019-05-08T17:18:32Z,127.014,99.99,99.99,46706.51,0,0,0,0.0,0.0,0.0,0,0,0,0,0,0,,,,1154404,16,94,95,3376,3612,4258,4281,-1369,17141,23,0,16508,0,false,false,false,false,false,false,false,false,false,false,0,0,0,0,53,68,68,53,944,945,944,945,940,940,940,940,0.0,0.0,0.0,0.0,1694.4,1688.9,1688.9,1693.2,0.0,0.0,0.0,0.0,0,0,0,0,-45.0,-1.6558038359434934E-10,-1.5125774734164493E-10,0,143.5308,142.70613,0.056949247,-0.007117776,-0.98527974,0.98694986,0.32173774,-0.13040337,-0.08937315,0.35847983,53,-77,2910,2911.0,-0.003343037,-0.0036897808,0.0055790236,0.007477693,0.004978993959483347,-0.004973430175137527,0.3014502856851372,3.6060929593781914,29.00593311801437,29.005933118014354,-0.106807980337738,1.07516720533424,-0.24904513516898102,21.371042918921624,,2.667644474151292E-4,,,64.91,NONE,0.0,0.0,0.0,NONE,-2.175334041330521E-10,-1.6579790028108708E-10,3.0517578E-5,17.045,17.045,6.089,1.3115406,0,3339,4.252,12.0,1.296,93,24.0,OK,96,0,0,0,0,0,65,100,0.0,0,0.0,589232.0,2.69E-43,0.0,-5.9807744E7,62,2.622619E-7,-2.622638E-7,9.4E-44,False,False,0,None,0.0,1.0842022E-19,
392453030,101.997,0.0,0.0,0,143.61272,143.27042,0.056811128,-0.0068165124,-0.9856468,0.9873062,0.27019453,-0.053908262,0.0789736,0.28661475,59,-77,2913,2914.0,-0.03150329,-0.08649416,-0.008030667,0.09240232,0.09205268664444907,-0.09205268664444907,0.4387279375391086,3.2547630016491533,96.03917729075931,96.03917729075931,-0.020463498456526612,1.3504645344572093,-0.2987371073029397,23.88445744166845,,0.0,,,64.87,,,10.4408872,63.4120416,20190508,171833,2019-05-08T17:18:33Z,127.014,99.99,99.99,46791.48,0,0,0,0.0,0.0,0.0,0,0,0,0,0,0,,,,1154404,16,94,95,3376,3612,4258,4281,-1369,17141,23,0,16508,0,false,false,false,false,false,false,false,false,false,false,0,0,0,0,52,69,69,53,944,945,944,944,940,940,940,940,0.0,0.0,0.0,0.0,1694.4,1687.6,1690.1,1693.2,0.0,0.0,0.0,0.0,0,0,0,0,-45.0,-4.674464655792963E-11,-3.162906791588768E-11,0,143.4806,142.70534,0.055438153,-0.008132106,-0.98647505,0.98806506,0.12239,-0.17062391,0.07542455,0.22311588,56,-77,2916,2917.0,-7.3590566E-4,-0.0010757471,4.4107393E-4,0.0013759851,0.0013033759543803853,-0.0012848650450757314,0.3137689216531733,3.6157503474701995,29.004326584784312,29.004326584784337,-0.15564401919997728,1.3442426553963305,-0.3151169448531256,21.194246542311568,,3.5159575176507474E-4,,,64.88,NONE,0.0,0.0,0.0,NONE,-4.7398569125313055E-11,5.23300145657575E-11,0.0,17.043,17.043,6.086,1.3094212,0,3338,4.253,12.0,1.303,93,24.0,OK,97,0,0,0,0,0,65,100,0.0,0,0.0,589232.0,2.69E-43,0.0,-5.9807744E7,62,2.622619E-7,-2.622638E-7,9.4E-44,False,False,0,None,0.0,1.0842022E-19,
396351621,103.010,0.0,0.0,0,143.45418,143.28415,0.0562152,-0.0067559686,-0.9854066,0.9870319,0.07977807,-0.050177436,-0.07448481,0.120126195,59,-77,2913,2914.0,-0.002193551,-0.039728235,0.001964357,0.039837208,0.039788747378673814,-0.039788747378673814,0.426728111143419,3.24695128581951,96.01956366177843,96.01956366177842,-0.008443966609529067,1.6473646068664338,-0.3775891035603012,23.791279397777604,,0.0,,,64.97,,,10.4408872,63.4120416,20190508,171833,2019-05-08T17:18:33Z,127.014,99.99,99.99,46859.96,0,0,0,0.0,0.0,0.0,0,0,0,0,0,0,,,,1154404,16,94,95,3376,3612,4258,4281,-1369,17141,23,0,16508,0,false,false,false,false,false,false,false,false,false,false,0,0,0,0,53,68,69,53,944,944,944,945,940,940,940,940,0.0,0.0,0.0,0.0,1693.8,1688.9,1690.1,1693.8,0.0,0.0,0.0,0.0,0,0,0,0,-45.0,8.030123378146687E-11,-3.345050861624954E-11,0,143.61272,142.70345,0.05557852,-0.005849746,-0.983152,0.984739,0.15819782,-0.34897295,-0.1053014,0.39736262,62,-77,2916,2917.0,-7.921435E-4,0.0018409555,0.0028571591,0.0034899807,0.0020041477671693887,-0.0019902038846136543,0.33833264773612365,3.5779463844636568,28.99061502132039,28.990615021320366,-0.19939247319350628,1.6238985169232845,-0.4388884417936734,21.127304682288887,,3.922912941107499E-4,,,64.96,NONE,0.0,0.0,0.0,NONE,7.440939471503925E-11,-3.1938088004951726E-11,0.0,17.044,17.044,6.088,1.3094212,0,3338,4.253,12.0,1.303,93,24.0,OK,97,0,0,0,0,0,65,100,0.0,0,0.0,589232.0,2.69E-43,0.0,-5.9807744E7,62,2.622619E-7,-2.622638E-7,9.4E-44,False,False,0,None,0.0,1.0842022E-19,
400267367,104.028,0.0,0.0,0,143.29564,143.27264,0.05947829,-0.00566471,-0.9838149,0.9856275,0.26126152,-0.012173481,-0.038567718,0.2643733,59,-74,2916,2917.0,0.008505418,-0.05551777,0.007833088,0.0567091,0.056165513277253123,-0.056165513277253123,0.4122884127053777,3.250494965766706,96.00870621043786,96.00870621043788,-0.06910670658105965,1.947155567690417,-0.3586790240668684,22.958524514798096,,0.0,,,64.94,,,10.4408872,63.4120416,20190508,171835,2019-05-08T17:18:35Z,127.014,99.99,99.99,46963.52,0,0,0,0.0,0.0,0.0,0,0,0,0,0,0,,,,1154404,16,94,95,3376,3612,4258,4281,-1369,17141,23,0,16508,0,false,false,false,false,false,false,false,false,false,false,0,0,0,0,55,68,69,54,944,945,944,944,940,940,940,940,0.0,0.0,0.0,0.0,1693.8,1690.1,1688.9,1692.6,0.0,0.0,0.0,0.0,0,0,0,0,-45.0,-5.3431715650683985E-11,-4.819876647629906E-11,0,143.30885,142.69867,0.0536423,-0.0074249413,-0.9878959,0.98937905,0.25116152,-0.2009531,-0.046356194,0.32498178,59,-77,2916,2917.0,-0.0011544384,-0.0012253446,0.004974937,0.005252066,0.001683507470428913,-0.001668806869174612,0.32946820017542167,3.571148416070608,28.97751848962391,28.97751848962389,-0.27185125075592886,1.8757047628852077,-0.5264201050292212,21.300982199403435,,4.799703826657643E-4,,,64.96,NONE,0.0,0.0,0.0,NONE,-1.550475572175781E-10,-5.725498946246157E-11,3.0517578E-5,17.039,17.039,6.088,1.308048,0,3338,4.252,12.0,1.335,93,24.0,OK,98,0,0,0,0,0,65,100,0.0,0,0.0,589232.0,2.69E-43,0.0,-5.9807744E7,62,2.622619E-7,-2.622638E-7,9.4E-44,False,False,0,None,0.0,1.0842022E-19,
404342171,105.087,0.0,0.0,0,143.36435,143.26865,0.055852126,-0.0078026135,-0.9880058,0.989614,0.2474767,-0.05103193,0.049417254,0.25747046,56,-77,2916,2917.0,0.011540212,-0.07552911,4.9939856E-4,0.07640728,0.0764056494266021,-0.0764056494266021,0.40869046203761034,3.2533526774062658,96.0014593174641,96.00145931746408,-0.04168940115183556,2.2580399667124262,-0.4655322925733453,23.835935527492136,,0.0,,,64.93,,,10.4408872,63.4120416,20190508,171836,2019-05-08T17:18:36Z,127.014,99.99,99.99,47050.57,0,0,0,0.0,0.0,0.0,0,0,0,0,0,0,,,,1154404,16,94,95,3376,3612,4258,4281,-1369,17141,23,0,16508,0,false,false,false,false,false,false,false,false,false,false,0,0,0,0,54,69,67,53,944,945,944,944,940,940,940,940,0.0,0.0,0.0,0.0,1694.4,1690.1,1689.5,1693.2,0.0,0.0,0.0,0.0,0,0,0,0,-45.0,-1.891683938698417E-10,-1.8767505825275454E-10,0,143.5546,142.6928,0.055512395,-0.006831111,-0.98703843,0.98862183,0.27561632,-0.1519671,0.055681124,0.3196228,59,-77,2916,2917.0,-0.0041900137,-0.004213767,0.0048349886,0.0076608853,0.0059423941780223,-0.005921959234540848,0.325783164353142,3.5963456437976697,28.981108460236854,28.98110846023684,-0.3065510812024574,2.138086109263892,-0.6344799957157918,21.15973144959388,,5.597489630229E-4,,,64.93,NONE,0.0,0.0,0.0,NONE,-3.88012096648183E-10,-3.738316828054579E-10,6.1035156E-5,17.041,17.041,6.088,1.3084487,0,3337,4.251,12.0,1.323,93,24.0,OK,99,0,0,0,0,0,65,100,0.0,0,0.0,589232.0,2.69E-43,0.0,-5.9807744E7,62,2.622619E-7,-2.622638E-7,9.4E-44,False,False,0,None,0.0,1.0842022E-19,
408195289,106.088,0.0,0.0,0,143.42247,143.28674,0.0551263,-0.008314386,-0.98594743,0.9875223,0.39119938,-0.22394691,0.0915115,0.45996034,59,-77,2916,2917.0,0.013233406,-0.09268359,-0.0035045901,0.093689136,0.09362356282660328,-0.09362356282660328,0.40207916262090654,3.271851419856555,95.97512074222539,95.97512074222539,-0.026934374252842813,2.4027024917733906,-0.5096498789338748,23.392987618398216,,0.0,,,64.95,,,10.4408872,63.4120416,20190508,171837,2019-05-08T17:18:37Z,127.014,99.99,99.99,47138.32,0,0,0,0.0,0.0,0.0,0,0,0,0,0,0,,,,1154404,16,94,95,3376,3612,4258,4281,-1369,17141,23,0,16508,0,false,false,false,false,false,false,false,false,false,false,0,0,0,0,53,67,67,53,944,945,944,945,940,940,940,940,0.0,0.0,0.0,0.0,1693.2,1688.2,1689.5,1693.2,0.0,0.0,0.0,0.0,0,0,0,0,-45.0,-1.8130014670418194E-10,-1.483798348920387E-10,0,143.41191,142.68712,0.05807905,-0.005811339,-0.9853284,0.98705566,0.17689565,-0.07528708,0.027496394,0.19420676,59,-77,2916,2917.0,-0.0032527843,-0.0040069944,9.262643E-4,0.0052435272,0.0051610668894546425,-0.005156616993387061,0.2975739435533471,3.6353084876231105,28.95348536893659,28.953485368936583,-0.332494962958425,2.3759466040760575,-0.7021960181942386,20.70830628388052,,6.606708327719232E-4,,,64.97,NONE,0.0,0.0,0.0,NONE,-2.339224494293433E-10,-1.8191923260402243E-10,3.0517578E-5,17.041,17.041,6.087,1.3120478,0,3336,4.252,12.0,1.318,93,24.0,OK,101,0,0,0,0,0,65,100,0.0,0,0.0,589232.0,2.69E-43,0.0,-5.9807744E7,62,2.622619E-7,-2.622638E-7,9.4E-44,False,False,0,None,0.0,1.0842022E-19,
412095736,107.102,0.0,0.0,0,143.41719,143.21701,0.05684189,-0.008016681,-0.9849803,0.9866516,0.17391661,-0.24801143,0.042834792,0.30592725,65,-77,2916,2917.0,0.0,0.0,0.010779489,0.010779489,0.0,0.0,0.40120013262095117,3.2620834578586835,95.96322883568196,95.96322883568195,0.028286746249734644,2.770339528044007,-0.6850668692661347,22.884619099295683,,0.0,,,64.95,,,10.4408872,63.4120416,20190508,171838,2019-05-08T17:18:38Z,127.014,99.99,99.99,47226.74,0,0,0,0.0,0.0,0.0,0,0,0,0,0,0,,,,1154404,16,94,95,3376,3612,4258,4281,-1369,17141,23,0,16508,0,false,false,false,false,false,false,false,false,false,false,0,0,0,0,54,68,68,54,944,945,944,945,940,940,940,940,0.0,0.0,0.0,0.0,1694.4,1688.9,1688.9,1693.2,0.0,0.0,0.0,0.0,0,0,0,0,-45.0,-2.477393496627406E-11,8.97520327575109E-11,0,143.43304,142.68745,0.05632897,-0.006227573,-0.98534423,0.98697263,0.32227114,-0.0645203,-0.087063804,0.34000245,62,-77,2916,2917.0,0.0019993896,-5.3103425E-4,4.1734162E-4,0.0021103863,0.0020687088675320595,-0.0020374502926735335,0.29567661494097314,3.602987811553521,28.922707246290717,28.922707246290713,-0.3739342970651913,2.6367901183873617,-0.7745570815094187,20.5836884235634,,7.323474269405203E-4,,,65.0,NONE,0.0,0.0,0.0,NONE,3.262109566543674E-11,4.909902937518864E-11,0.0,17.04,17.04,6.086,1.3120478,0,3336,4.252,12.0,1.318,93,24.0,OK,101,0,0,0,0,0,65,100,0.0,0,0.0,589232.0,2.69E-43,0.0,-5.9807744E7,62,2.622619E-7,-2.622638E-7,9.4E-44,False,False,0,None,0.0,1.0842022E-19,
415990032,108.114,0.0,0.0,0,143.25865,143.18723,0.05644601,-0.0072393,-0.9859094,0.98755044,0.29787686,-0.14506987,-0.107889146,0.34844792,59,-77,2916,2917.0,0.009894938,-0.042749625,0.007624152,0.044537265,0.04387983901880608,-0.04387983901880608,0.39138774161625933,3.2638678947968667,95.95632305738336,95.95632305738337,-0.0017355766711183232,3.0213396582754277,-0.7837257373877121,23.313702353601848,,0.0,,,64.95,,,10.4408872,63.4120416,20190508,171839,2019-05-08T17:18:39Z,127.014,99.99,99.99,47333.76,0,0,0,0.0,0.0,0.0,0,0,0,0,0,0,,,,1154404,16,94,95,3376,3612,4258,4281,-1369,17141,23,0,16508,0,false,false,false,false,false,false,false,false,false,false,0,0,0,0,53,68,68,54,944,945,944,945,940,940,940,940,0.0,0.0,0.0,0.0,1693.2,1688.9,1688.9,1693.8,0.0,0.0,0.0,0.0,0,0,0,0,-45.0,-9.02830140148406E-11,1.6117671730435993E-11,0,143.3115,142.68373,0.057100162,-0.007230696,-0.9864649,0.9881426,0.26963452,0.00895811,-0.15391383,0.3106002,59,-80,2916,2917.0,3.8406096E-4,-0.0019927716,0.0020793153,0.0029055453,0.0020294437057375714,-0.0020186158075550286,0.31087638291905667,3.6070193237006305,28.922643431924577,28.922643431924598,-0.4323203484525097,2.9152260044444054,-0.8492688160317842,21.57636069893144,,7.839475074357996E-4,,,64.94,NONE,0.0,0.0,0.0,NONE,-3.218567017629298E-11,-5.6737864617004757E-11,0.0,17.039,17.039,6.087,1.3161519,0,3336,4.251,12.0,1.34,93,24.1,OK,103,0,0,0,0,0,65,100,0.0,0,0.0,589232.0,2.69E-43,0.0,-5.9807744E7,62,2.622619E-7,-2.622638E-7,9.4E-44,False,False,0,None,0.0,1.0842022E-19,
419932689,109.139,0.0,0.0,0,143.293,143.22227,0.05572816,-0.008329585,-0.985547,0.9871565,0.3003932,-0.033089723,0.042225778,0.3051459,62,-80,2919,2920.0,0.01742955,-0.061822973,-0.016706139,0.066369906,0.06423293055179455,-0.06423293055179455,0.3936649227666885,3.2665080407490343,95.93424237471935,95.93424237471936,-0.06780277044831706,3.3557761858878337,-0.84854699128691,23.675847350023727,,0.0,,,64.97,,,10.4408872,63.4120416,20190508,171840,2019-05-08T17:18:40Z,127.014,99.99,99.99,47405.63,0,0,0,0.0,0.0,0.0,0,0,0,0,0,0,,,,1154404,16,94,95,3376,3612,4258,4281,-1369,17141,23,0,16508,0,false,false,false,false,false,false,false,false,false,false,0,0,0,0,53,67,68,54,944,946,944,944,940,940,940,940,0.0,0.0,0.0,0.0,1693.2,1690.1,1688.9,1693.8,0.0,0.0,0.0,0.0,0,0,0,0,-45.0,-7.063017354550068E-11,-3.608894416723761E-11,0,143.23752,142.6773,0.05617159,-0.00670532,-0.9867988,0.988419,0.36039785,-0.117625356,-0.039194614,0.381128,59,-77,2919,2920.0,-7.9458894E-4,-0.0015686855,0.004961568,0.005263963,0.0017584498902641613,-0.0017523964736093974,0.32441860489908153,3.605513110190422,28.902688708699166,28.902688708699145,-0.46988091565907114,3.219228049038193,-0.8829826099460067,21.096907400809336,,8.454988459257096E-4,,,65.01,NONE,0.0,0.0,0.0,NONE,-7.89731928502711E-11,-7.508508232010202E-13,3.0517578E-5,17.037,17.037,6.085,1.3184698,0,3335,4.25,12.0,1.307,93,24.1,OK,104,0,0,0,0,0,65,100,0.0,0,0.0,589232.0,2.69E-43,0.0,-5.9807744E7,62,2.622619E-7,-2.622638E-7,9.4E-44,False,False,0,None,0.0,1.0842022E-19,
423883545,110.165,0.0,0.0,0,143.39076,143.18619,0.05622686,-0.0073673353,-0.9871498,0.9887772,0.2193905,-0.050533954,0.05244343,0.23116268,59,-77,2919,2920.0,0.010248771,-0.07938998,0.0010499174,0.08005566,0.08004877669149052,-0.08004877669149052,0.39596299949515673,3.2750906844731547,95.93936767298166,95.93936767298169,-0.025915621766115116,3.5694134004694673,-0.9673048121681922,23.299664030212373,,0.0,,,65.02,,,10.4408872,63.4120416,20190508,171841,2019-05-08T17:18:41Z,127.014,99.99,99.99,47514.26,0,0,0,0.0,0.0,0.0,0,0,0,0,0,0,,,,1154404,16,94,95,3376,3612,4258,4281,-1369,17141,23,0,16508,0,false,false,false,false,false,false,false,false,false,false,0,0,0,0,53,69,69,54,944,946,945,945,940,940,940,940,0.0,0.0,0.0,0.0,1693.2,1688.9,1688.2,1693.2,0.0,0.0,0.0,0.0,0,0,0,0,-45.0,-3.404554239255081E-11,-1.312587633291377E-10,0,143.62593,142.6683,0.056787364,-0.0072050453,-0.985995,0.9876552,0.35948533,0.041309923,0.08144435,0.37090346,59,-77,2913,2914.0,-0.0028827253,-7.663535E-4,0.0043955836,0.0053121145,0.0029828514796273044,-0.0029718101223037228,0.330698936014783,3.6012677387046264,28.924964822737067,28.92496482273708,-0.464464482188698,3.518673700499247,-0.9796452732233843,21.202852264214783,,8.911142976582073E-4,,,65.0,NONE,0.0,0.0,0.0,NONE,-9.178785316556664E-11,-1.067797715789737E-10,3.0517578E-5,17.038,17.038,6.084,1.3197981,0,3335,4.251,12.0,1.312,93,24.1,OK,105,0,0,0,0,0,65,100,0.0,0,0.0,589232.0,2.69E-43,0.0,-5.9807744E7,62,2.622619E-7,-2.622638E-7,9.4E-44,False,False,0,None,0.0,1.0842022E-19,
427780989,111.178,0.0,0.0,0,143.43304,143.18637,0.05640198,-0.006512322,-0.98586994,0.9875035,0.17575899,-0.13873944,-0.0995476,0.24505016,59,-77,2913,2914.0,0.013736205,-0.09680066,0.0014153617,0.097780645,0.0977704000896604,-0.0977704000896604,0.38012091531417347,3.2744306786882924,95.92176937514078,95.9217693751408,-0.08800616872460808,3.8864361239082417,-1.0742692110679841,23.152447220975994,,0.0,,,65.01,,,10.4408872,63.4120416,20190508,171842,2019-05-08T17:18:42Z,127.014,99.99,99.99,47568.94,0,0,0,0.0,0.0,0.0,0,0,0,0,0,0,,,,1154404,16,94,95,3376,3612,4258,4281,-1369,17141,23,0,16508,0,false,false,false,false,false,false,false,false,false,false,0,0,0,0,54,69,68,54,944,945,945,945,940,940,940,940,0.0,0.0,0.0,0.0,1693.2,1688.9,1688.9,1693.2,0.0,0.0,0.0,0.0,0,0,0,0,-45.0,-6.268872361850537E-11,-3.258387351464498E-12,0,143.39606,142.66249,0.05615955,-0.0076150456,-0.98690945,0.98853534,0.24846676,0.006333006,0.010321263,0.24876167,59,-77,2919,2920.0,-8.955249E-5,-0.0014246,0.0012117205,0.0018723706,0.0014274119335242702,-0.0014130130879349253,0.29639925709109627,3.6117436700705867,28.899733436797753,28.89973343679776,-0.5055976475993521,3.8450388849284507,-1.027295766138708,20.777683573250837,,9.67244771089487E-4,,,65.0,NONE,0.0,0.0,0.0,NONE,9.207003503116368E-12,2.5579124207052644E-11,0.0,17.038,17.038,6.086,1.3198628,0,3335,4.251,12.0,1.309,93,24.1,OK,106,0,0,0,0,0,65,100,0.0,0,0.0,589232.0,2.69E-43,0.0,-5.9807744E7,62,2.622619E-7,-2.622638E-7,9.4E-44,False,False,0,None,0.0,1.0842022E-19,
431679875,112.192,0.0,0.0,0,143.6048,143.1682,0.057445433,-0.0072909854,-0.98672813,0.9884258,0.49043953,-0.06271135,0.12160722,0.5091679,59,-77,2913,2914.0,0.0283982,-0.059159197,0.0045120334,0.0657771,0.06562216403487338,-0.06562216403487338,0.38462487073666385,3.26572380424546,95.90587997902374,95.90587997902372,-0.0539364838179987,4.140288796417667,-1.1293489902595126,23.242417586505386,,0.0,,,64.99,,,10.4408872,63.4120416,20190508,171843,2019-05-08T17:18:43Z,127.014,99.99,99.99,47697.44,0,0,0,0.0,0.0,0.0,0,0,0,0,0,0,,,,1154404,16,94,95,3376,3612,4258,4281,-1369,17141,23,0,16508,0,false,false,false,false,false,false,false,false,false,false,0,0,0,0,53,69,69,54,944,944,944,944,940,940,940,940,0.0,0.0,0.0,0.0,1693.8,1688.2,1688.2,1693.8,0.0,0.0,0.0,0.0,0,0,0,0,-45.0,1.4226753854073705E-11,1.2616097788093073E-11,0,143.62329,142.66096,0.056346953,-0.0070693907,-0.98606735,0.9877013,0.19414614,-0.088755295,-0.14531726,0.2582389,59,-74,2919,2920.0,2.7297647E-4,3.4148482E-4,0.0021264595,0.0021709348,4.371819276237599E-4,-4.2856370977539625E-4,0.3190523812288228,3.6050542590383645,28.899019425409797,28.89901942540979,-0.5580861196670346,4.1387522882168,-1.109828507361039,20.4221374650318,,0.0010106292418077354,,,65.01,NONE,0.0,0.0,0.0,NONE,2.2707028302943585E-11,1.864048611602543E-11,0.0,17.039,17.039,6.087,1.3198628,0,3335,4.251,12.0,1.309,93,24.1,OK,106,0,0,0,0,0,65,100,0.0,0,0.0,589232.0,2.69E-43,0.0,-5.9807744E7,62,2.622619E-7,-2.622638E-7,9.4E-44,False,False,0,None,0.0,1.0842022E-19,
435595428,113.209,0.0,0.0,0,143.24016,143.17845,0.057966974,-0.0071956236,-0.98666185,0.9883894,0.29962867,-0.06320857,0.026682401,0.3073835,56,-77,2913,2914.0,-0.001087938,-0.00790384,-0.005942599,0.009948306,0.007978364778590312,-0.007978364778590312,0.36800903450503786,3.2625879174359547,95.88890046603466,95.88890046603467,-0.06730445824605734,4.492673373305465,-1.1856575267221665,23.353474042831316,,0.0,,,65.02,,,10.4408872,63.4120416,20190508,171844,2019-05-08T17:18:44Z,127.014,99.99,99.99,47771.46,0,0,0,0.0,0.0,0.0,0,0,0,0,0,0,,,,1154404,16,94,95,3376,3612,4258,4281,-1369,17141,23,0,16508,0,false,false,false,false,false,false,false,false,false,false,0,0,0,0,54,69,69,54,944,945,944,944,940,940,940,940,0.0,0.0,0.0,0.0,1693.2,1688.2,1688.9,1692.0,0.0,0.0,0.0,0.0,0,0,0,0,-45.0,-1.691636582263478E-11,-9.154523848935623E-12,0,143.29828,142.66142,0.05675821,-0.0064124567,-0.9860795,0.98773247,0.2235268,-0.10841585,-0.057059668,0.25490007,56,-77,2913,2914.0,-2.0640618E-4,-3.440329E-4,-9.317533E-4,0.0010144587,4.0120087854601886E-4,-3.970489039297331E-4,0.3148982072217978,3.591631315374636,28.888010194082504,28.888010194082483,-0.5787113240606675,4.385483006230334,-1.218215167463187,21.317076931999104,,0.0010561733513707733,,,65.0,NONE,0.0,0.0,0.0,NONE,-9.835492213878819E-11,1.0495440938796066E-11,0.0,17.037,17.037,6.085,1.3191521,0,3334,4.251,12.0,1.312,93,24.1,OK,107,0,0,0,0,0,65,100,0.0,0,0.0,589232.0,2.69E-43,0.0,-5.9807744E7,62,2.622619E-7,-2.622638E-7,9.4E-44,False,False,0,None,0.0,1.0842022E-19,
439577126,114.244,0.0,0.0,0,143.4489,143.17055,0.057389334,-0.00593178,-0.98748034,0.9891644,0.33285376,-0.07918537,0.10323711,0.35737914,56,-77,2916,2917.0,0.004133351,-0.008253064,-0.007977873,0.012200169,0.009230257366958847,-0.009230257366958847,0.3771312955568257,3.2444561008623816,95.86587453493267,95.86587453493269,-0.08602788146051774,4.810937519632119,-1.2451229063798561,23.52973855667905,,0.0,,,65.0,,,10.4408872,63.4120416,20190508,171845,2019-05-08T17:18:45Z,127.014,99.99,99.99,47883.27,0,0,0,0.0,0.0,0.0,0,0,0,0,0,0,,,,1154404,16,94,95,3376,3612,4258,4281,-1369,17141,23,0,16508,0,false,false,false,false,false,false,false,false,false,false,0,0,0,0,54,69,69,54,944,944,944,944,940,940,940,940,0.0,0.0,0.0,0.0,1693.2,1688.9,1688.9,1693.8,0.0,0.0,0.0,0.0,0,0,0,0,-45.0,6.8823635007168915E-12,3.6339925037023663E-11,0,143.41719,142.66095,0.056506574,-0.0069624735,-0.98712176,0.98876226,0.33002716,-0.11485335,-0.16751924,0.38752022,59,-77,2916,2917.0,8.2185783E-4,1.4961156E-4,9.758376E-4,0.0012845594,8.353645381178664E-4,-8.298475657440468E-4,0.32523069280369304,3.5550579889330116,28.801471623130453,28.801471623130453,-0.6447600758528856,4.681375128299156,-1.3400008911923011,21.32223397065015,,0.0010998028507030926,,,65.02,NONE,0.0,0.0,0.0,NONE,-1.68894376798976E-11,6.808755545409262E-11,0.0,17.036,17.036,6.083,1.3181618,0,3334,4.251,12.0,1.317,93,24.1,OK,108,0,0,0,0,0,65,100,0.0,0,0.0,589232.0,2.69E-43,0.0,-5.9807744E7,62,2.622619E-7,-2.622638E-7,9.4E-44,False,False,0,None,0.0,1.0842022E-19,
443493796,115.262,0.0,0.0,0,143.47797,143.1901,0.057430144,-0.0053024925,-0.9862024,0.98788744,0.27684256,-0.038635433,0.07768461,0.29011962,59,-77,2916,2917.0,0.00389095,-0.0130891595,-0.008328847,0.01599485,0.01365524050640344,-0.01365524050640344,0.37818664792432494,3.2619043468399833,95.85585431930647,95.85585431930645,-0.07678530427764138,5.141808076023472,-1.343948954448519,23.178284467803994,,0.0,,,65.03,,,10.4408872,63.4120416,20190508,171846,2019-05-08T17:18:46Z,127.014,99.99,99.99,47958.33,0,0,0,0.0,0.0,0.0,0,0,0,0,0,0,,,,1154404,16,94,95,3376,3612,4258,4281,-1369,17141,23,0,16508,0,false,false,false,false,false,false,false,false,false,false,0,0,0,0,53,69,70,52,945,944,944,945,940,940,940,940,0.0,0.0,0.0,0.0,1693.2,1688.2,1687.6,1692.6,0.0,0.0,0.0,0.0,0,0,0,0,-45.0,4.346673338063098E-11,2.2266700842225075E-11,0,143.44626,142.65752,0.05592839,-0.0071604736,-0.9869773,0.98858654,0.2074869,0.073550425,-0.07365112,0.23213136,59,-77,2916,2917.0,4.662084E-4,9.7026414E-4,0.003299376,0.0034705396,0.0010764584324806869,-0.0010721765821223974,0.3261843682982154,3.5574563698042776,28.733974281686425,28.733974281686415,-0.6844261229375374,4.910173380965345,-1.4285981670724002,21.322457993004,,0.0011327115859331095,,,65.0,NONE,0.0,0.0,0.0,NONE,6.973396323129032E-11,2.855272355901107E-11,0.0,17.036,17.036,6.084,1.3174331,0,3333,4.251,12.0,1.322,93,24.1,OK,109,0,0,0,0,0,65,100,0.0,0,0.0,589232.0,2.69E-43,0.0,-5.9807744E7,62,2.622619E-7,-2.622638E-7,9.4E-44,False,False,0,None,0.0,1.0842022E-19,
447365070,116.268,0.0,0.0,0,143.34056,143.18372,0.056174014,-0.009235749,-0.98795813,0.98959696,0.2081093,-0.046518885,-0.1562132,0.2643408,59,-77,2919,2920.0,0.009294987,-0.03887863,-0.0080233915,0.04077155,0.03997430128831607,-0.03997430128831607,0.36716697386224656,3.2866182789064227,95.82858578109692,95.82858578109693,-0.09507673382394713,5.403428749133745,-1.3636232843597347,22.93114966550719,,0.0,,,65.02,,,10.4408872,63.4120416,20190508,171847,2019-05-08T17:18:47Z,127.014,99.99,99.99,48071.7,0,0,0,0.0,0.0,0.0,0,0,0,0,0,0,,,,1154404,16,94,95,3376,3612,4258,4281,-1369,17141,23,0,16508,0,false,false,false,false,false,false,false,false,false,false,0,0,0,0,54,69,70,54,944,944,944,945,940,940,940,940,0.0,0.0,0.0,0.0,1694.4,1688.2,1687.6,1693.8,0.0,0.0,0.0,0.0,0,0,0,0,-45.0,-1.7682432385511573E-10,-7.582965894316659E-11,0,143.37227,142.65129,0.05657924,-0.0058760736,-0.9850891,0.9867301,0.06465875,-0.123877645,0.010370908,0.14012131,62,-77,2919,2920.0,-0.0017060586,-0.003891701,0.0055370927,0.0069796396,0.004249232234016083,-0.004222581386182462,0.31092776009111717,3.5621733388060774,28.663008402023713,28.663008402023706,-0.7549267869554502,5.1990092142888855,-1.5283503610140983,20.892817113050633,,0.0011780444972217708,,,64.97,NONE,0.0,0.0,0.0,NONE,-1.7109987058219303E-10,-5.608374625229511E-11,3.0517578E-5,17.035,17.035,6.082,1.3170315,0,3333,4.25,12.0,1.312,93,24.1,OK,110,0,0,0,0,0,65,100,0.0,0,0.0,589232.0,2.69E-43,0.0,-5.9807744E7,62,2.622619E-7,-2.622638E-7,9.4E-44,False,False,0,None,0.0,1.0842022E-19,
451250999,117.278,0.0,0.0,0,143.44626,143.23494,0.056768198,-0.005301853,-0.9860522,0.9876992,0.28768173,0.042171508,-0.1443249,0.32460573,62,-77,2916,2917.0,0.02281434,-0.081299864,-0.020860037,0.086978756,0.08444028851653922,-0.08444028851653922,0.3661489864951949,3.301289692779191,95.80317862128945,95.80317862128948,-0.15799776671923005,5.731565321297633,-1.4406350097299097,22.596106042775684,,0.0,,,64.98,,,10.4408872,63.4120416,20190508,171848,2019-05-08T17:18:48Z,127.014,99.99,99.99,48166.89,0,0,0,0.0,0.0,0.0,0,0,0,0,0,0,,,,1154404,16,94,95,3376,3612,4258,4281,-1369,17141,23,0,16508,0,false,false,false,false,false,false,false,false,false,false,0,0,0,0,54,69,69,53,944,945,944,945,940,940,940,940,0.0,0.0,0.0,0.0,1693.2,1688.2,1687.6,1693.2,0.0,0.0,0.0,0.0,0,0,0,0,-45.0,-1.7871504590639107E-10,-1.4039028112326322E-10,0,143.35378,142.6444,0.055387817,-0.0069289044,-0.9873912,0.9889677,0.19625165,0.049356163,-0.09165464,0.22215155,62,-77,2922,2923.0,-0.0031657715,-0.0039807255,0.002610306,0.0057168156,0.005086087382780842,-0.005078976145294983,0.3135223693218147,3.5660109123042774,28.66290023863925,28.662900238639224,-0.7955075641522503,5.443391914948471,-1.6462182461761024,20.893449235181322,,0.0012600973805866724,,,65.01,NONE,0.0,0.0,0.0,NONE,-3.237401052931504E-10,-3.0550635178547746E-10,6.1035156E-5,17.034,17.034,6.086,1.3165302,0,3333,4.25,12.0,1.31,93,24.1,OK,111,0,0,0,0,0,65,100,0.0,0,0.0,589232.0,2.69E-43,0.0,-5.9807744E7,62,2.622619E-7,-2.622638E-7,9.4E-44,False,False,0,None,0.0,1.0842022E-19,
455104037,118.280,0.0,0.0,0,143.54666,143.24248,0.056082424,-0.0044258665,-0.9853446,0.9869492,0.42628306,-0.2146488,0.056704283,0.4806316,59,-74,2904,2905.0,0.02769735,-0.10792535,-0.004550306,0.111515604,0.11142272861454906,-0.11142272861454906,0.36216528517785757,3.2962585949435117,95.7793966856515,95.77939668565148,-0.21575570567804453,6.031067320822867,-1.4847648145234917,22.240729043156403,,0.0,,,64.94,,,10.4408872,63.4120416,20190508,171849,2019-05-08T17:18:49Z,127.014,99.99,99.99,48262.72,0,0,0,0.0,0.0,0.0,0,0,0,0,0,0,,,,1154404,16,94,95,3376,3612,4258,4281,-1369,17141,23,0,16508,0,false,false,false,false,false,false,false,false,false,false,0,0,0,0,54,68,69,54,943,945,944,945,940,940,940,940,0.0,0.0,0.0,0.0,1692.0,1688.9,1687.6,1692.0,0.0,0.0,0.0,0.0,0,0,0,0,-45.0,1.0838604898174568E-10,2.8090369982507796E-11,0,143.64708,142.64134,0.056867037,-0.006498336,-0.9875007,0.9891581,0.1906481,-0.1480429,0.008372244,0.24152328,62,-74,2919,2920.0,6.423002E-4,0.0024261468,2.5111626E-4,0.0025222604,0.002509728639552557,-0.002472764739575166,0.31789822465295603,3.5717782273119036,28.65637221630705,28.656372216307034,-0.8595128908220312,5.725222275677103,-1.6867614981815262,20.309607893191604,,0.0013797298427251103,,,64.97,NONE,0.0,0.0,0.0,NONE,-5.790466418408052E-11,4.3335679367912956E-11,0.0,17.034,17.034,6.086,1.3158448,0,3332,4.25,12.0,1.316,93,24.1,OK,112,0,0,0,0,0,65,100,0.0,0,0.0,589232.0,2.69E-43,0.0,-5.9807744E7,62,2.622619E-7,-2.622638E-7,9.4E-44,False,False,0,None,0.0,1.0842022E-19,
458961898,119.282,0.0,0.0,0,143.65764,143.3454,0.057261538,-0.0070410124,-0.9858747,0.98756135,0.3375407,-0.03746587,-0.09081642,0.35154662,62,-69,2910,2911.0,0.0,0.0,-0.059870504,0.059870504,0.0,0.0,0.37153143398177124,3.2670052107137093,95.77252901037235,95.77252901037235,-0.21385107350418756,6.242935071684058,-1.6191991218582817,21.10060042646305,,0.0,,,65.03,,,10.4408872,63.4120416,20190508,171850,2019-05-08T17:18:50Z,127.014,99.99,99.99,48359.18,0,0,0,0.0,0.0,0.0,0,0,0,0,0,0,,,,1154404,16,94,95,3376,3612,4258,4281,-1369,17141,23,0,16508,0,false,false,false,false,false,false,false,false,false,false,0,0,0,0,54,68,69,55,943,945,944,944,940,940,940,940,0.0,0.0,0.0,0.0,1692.0,1686.4,1688.2,1691.4,0.0,0.0,0.0,0.0,0,0,0,0,-45.0,1.8419570801244268E-11,-3.518253774849595E-11,0,143.5546,142.64134,0.05810013,-0.0058565354,-0.9863457,0.98807275,0.32931587,-0.23490195,-0.007709723,0.4045829,62,-69,2919,2920.0,-7.602112E-4,4.6703615E-4,0.0023573204,0.0025205165,8.922128787923896E-4,-8.800149491486922E-4,0.32728048252500513,3.576678599962383,28.691108037149736,28.691108037149718,-0.9403967685573802,6.01750974430282,-1.7680402134486022,19.350592622473,,0.0014587982730568335,,,65.01,NONE,0.0,0.0,0.0,NONE,-1.16541355617551E-11,8.812039689627327E-11,0.0,17.032,17.032,6.08,1.3154578,0,3332,4.25,12.0,1.324,93,24.1,OK,113,0,0,0,0,0,65,100,0.0,0,0.0,589232.0,2.69E-43,0.0,-5.9807744E7,62,2.622619E-7,-2.622638E-7,9.4E-44,False,False,0,None,0.0,1.0842022E-19,
462940870,120.316,0.0,0.0,0,143.67085,143.49115,0.05750215,-0.0066941576,-0.9865877,0.9882847,0.18449289,-0.12238707,0.004538294,0.22144258,62,-77,2907,2908.0,0.004539645,-0.014266357,-0.046434104,0.04878794,0.014971216214607551,-0.014971216214607551,0.37508274300624717,3.259624891246249,95.7709079864167,95.77090798641672,-0.28976434403236645,6.5426868599729255,-1.7146603972364887,22.915437010558794,,0.0,,,64.93,,,10.4408872,63.4120416,20190508,171851,2019-05-08T17:18:51Z,127.014,99.99,99.99,48456.28,0,0,0,0.0,0.0,0.0,0,0,0,0,0,0,,,,1154404,16,94,95,3376,3612,4258,4281,-1369,17141,23,0,16508,0,false,false,false,false,false,false,false,false,false,false,0,0,0,0,54,69,69,54,943,945,944,943,940,940,940,940,0.0,0.0,0.0,0.0,1693.2,1688.9,1688.9,1691.4,0.0,0.0,0.0,0.0,0,0,0,0,-45.0,2.5187489710443625E-11,4.229784281790874E-11,0,143.7105,142.63939,0.057279326,-0.00753316,-0.98530537,0.98699766,0.3243618,-0.09979285,-0.12516779,0.36171284,62,-77,2913,2914.0,0.0010019275,5.5910624E-4,6.4437574E-4,0.0013159326,0.0011473702825462648,-0.001139007369304731,0.32974883157215795,3.5512627918993225,28.682022690835563,28.682022690835538,-0.9843817606728643,6.274548262704323,-1.862486360271401,21.156182624629388,,0.0015165020647204144,,,64.96,NONE,0.0,0.0,0.0,NONE,-6.461317123974152E-11,-1.9913363950613006E-11,6.1035156E-5,17.027,17.027,6.079,1.3170406,0,3332,4.249,12.0,1.389,93,24.1,OK,114,0,0,0,0,0,65,100,0.0,0,0.0,589232.0,2.69E-43,0.0,-1.05007105E-23,62,2.622619E-7,-2.622638E-7,9.4E-44,False,False,0,None,0.0,1.0842022E-19,
466891551,121.343,0.0,0.0,0,143.90602,143.5238,0.054694626,-0.0073017003,-0.98843306,0.9899721,0.24166676,-0.03480064,-0.16695192,0.29578176,59,-74,2919,2920.0,0.008211853,-0.01904478,-0.037874818,0.04318148,0.020739771970358922,-0.020739771970358922,0.3795248502828003,3.273594146957324,95.75895408756978,95.7589540875698,-0.35466443747622656,6.8874996224843565,-1.743405399597609,22.479229433378862,,0.0,,,64.91,,,10.4408872,63.4120416,20190508,171852,2019-05-08T17:18:52Z,127.014,99.99,99.99,48573.63,0,0,0,0.0,0.0,0.0,0,0,0,0,0,0,,,,1154404,16,94,95,3376,3612,4258,4281,-1369,17141,23,0,16508,0,false,false,false,false,false,false,false,false,false,false,0,0,0,0,55,69,69,54,943,945,944,944,940,940,940,940,0.0,0.0,0.0,0.0,1693.2,1687.6,1687.6,1693.2,0.0,0.0,0.0,0.0,0,0,0,0,-45.0,6.847592230240925E-12,-9.125242791857409E-12,0,143.64178,142.63794,0.057173375,-0.007432345,-0.98951095,0.9911892,0.34383184,-0.14208044,-0.012041323,0.37222597,59,-74,2913,2914.0,-1.8680209E-4,1.5822431E-4,-0.0045464574,0.0045530437,2.448059487759717E-4,-2.388934332383256E-4,0.33082418167598754,3.549203864252676,28.62996907716284,28.629969077162855,-1.0277371874262387,6.552504142202135,-1.953053835136809,20.791418813797776,,0.0015699144393519634,,,64.87,NONE,0.0,0.0,0.0,NONE,-8.925085622636258E-11,-1.1762423319931585E-10,0.0,17.025,17.025,6.075,1.3226917,0,3331,4.248,12.0,1.397,93,24.1,OK,115,0,0,0,0,0,65,100,0.0,0,0.0,589232.0,2.69E-43,0.0,-1.05007105E-23,62,2.622619E-7,-2.622638E-7,9.4E-44,False,False,0,None,0.0,1.0842022E-19,
470789139,122.356,0.0,0.0,0,143.76598,143.57974,0.055593766,-0.0076045054,-0.9894597,0.9910494,0.22951756,-0.13002892,-0.1518207,0.30436057,59,-71,2910,2911.0,0.0126823215,-0.03994985,-0.031741135,0.05257691,0.041914577067683756,-0.041914577067683756,0.37063822351033265,3.2927379506789545,95.7489512291237,95.74895122912369,-0.37324698345667234,7.1354000955156085,-1.7894724909916522,21.673764547358505,,0.0,,,64.96,,,10.4408872,63.4120416,20190508,171853,2019-05-08T17:18:53Z,127.014,99.99,99.99,48652.36,0,0,0,0.0,0.0,0.0,0,0,0,0,0,0,,,,1154404,16,94,95,3376,3612,4258,4281,-1369,17141,23,0,16508,0,false,false,false,false,false,false,false,false,false,false,0,0,0,0,54,68,68,54,944,945,944,945,940,940,940,940,0.0,0.0,0.0,0.0,1692.0,1688.2,1687.6,1692.0,0.0,0.0,0.0,0.0,0,0,0,0,-45.0,-1.380728921809235E-10,-1.0715415179812854E-10,0,143.72899,142.6333,0.05667407,-0.0074911956,-0.990351,0.9919996,0.19118051,0.04015531,0.067405865,0.20665427,59,-74,2913,2914.0,-0.0023751433,-0.0030928797,-0.0017366821,0.0042688726,0.003899642265512704,-0.0038804364231782933,0.31996252285350607,3.569093243569229,28.56784375016318,28.567843750163206,-1.0314934929427348,6.927478378113647,-2.04697960568076,20.59619646676416,,0.0016330795300235502,,,64.94,NONE,0.0,0.0,0.0,NONE,-8.383176296472722E-11,-5.785734391730077E-11,0.0,17.026,17.026,6.079,1.3322451,0,3330,4.248,12.0,1.403,93,24.2,OK,116,0,0,0,0,0,65,100,0.0,0,0.0,589232.0,2.69E-43,0.0,-1.05007105E-23,62,2.622619E-7,-2.622638E-7,9.4E-44,False,False,0,None,0.0,1.0842022E-19,
474687890,123.369,0.0,0.0,0,143.67879,143.57666,0.056197736,-0.0070008244,-0.98756796,0.9891904,0.22915709,-0.010879211,-0.018776817,0.23018232,62,-74,2913,2914.0,0.01408304,-0.06189791,-0.03265658,0.071387224,0.06347978657090736,-0.06347978657090736,0.3821010666246094,3.3060111649452204,95.72634498967791,95.7263449896779,-0.42965048122243066,7.375312739994046,-1.85483496684043,22.11943879907343,,0.0,,,65.0,,,10.4408872,63.4120416,20190508,171854,2019-05-08T17:18:54Z,127.014,99.99,99.99,48771.2,0,0,0,0.0,0.0,0.0,0,0,0,0,0,0,,,,1154404,16,94,95,3376,3612,4258,4281,-1369,17141,23,0,16508,0,false,false,false,false,false,false,false,false,false,false,0,0,0,0,54,68,70,53,944,945,944,944,940,940,940,940,0.0,0.0,0.0,0.0,1692.0,1687.0,1687.6,1692.0,0.0,0.0,0.0,0.0,0,0,0,0,-45.0,-1.2064227720640048E-10,-9.763152283198873E-11,0,143.78447,142.62907,0.056381527,-0.008718686,-0.9915039,0.9931439,0.36705837,7.9837505E-4,0.013443473,0.36730534,65,-71,2907,2908.0,-0.0021515987,-0.002727385,-0.0029292635,0.004544072,0.0034739034474624117,-0.0034717237916296537,0.33033494484077586,3.573793080554536,28.46233181390536,28.462331813905337,-1.0572219477818825,7.263405427843916,-2.1152418318044264,19.62982635167673,,0.0017087011185871106,,,64.97,NONE,0.0,0.0,0.0,NONE,-2.2686989170378797E-10,-1.989440970837111E-10,0.0,17.024,17.024,6.081,1.3439158,0,3330,4.248,12.0,1.402,93,24.2,OK,117,0,0,0,0,0,65,100,0.0,0,0.0,589232.0,2.69E-43,0.0,-1.05007105E-23,62,2.622619E-7,-2.622638E-7,9.4E-44,False,False,0,None,0.0,1.0842022E-19,
478603933,124.387,0.0,0.0,0,143.88223,143.57162,0.056979634,-0.0078924,-0.9889597,0.9906313,0.1546544,-0.2519032,-0.10963584,0.3152669,62,-71,2919,2920.0,0.0145197585,-0.066617675,-0.025907386,0.07293785,0.06818165497439711,-0.06818165497439711,0.3872686490380816,3.296440272219663,95.70700921777204,95.70700921777205,-0.43871523021040965,7.5831583445063275,-1.911344068791016,21.55206082853697,,0.0,,,64.94,,,10.4408872,63.4120416,20190508,171855,2019-05-08T17:18:55Z,127.014,99.99,99.99,48870.92,0,0,0,0.0,0.0,0.0,0,0,0,0,0,0,,,,1154404,16,94,95,3376,3612,4258,4281,-1369,17141,23,0,16508,0,false,false,false,false,false,false,false,false,false,false,0,0,0,0,54,68,68,54,944,944,944,945,940,940,940,940,0.0,0.0,0.0,0.0,1690.7,1688.2,1687.0,1690.7,0.0,0.0,0.0,0.0,0,0,0,0,-45.0,-9.374968684900752E-11,-1.1038134644706451E-10,0,143.63123,142.62515,0.05640435,-0.0079521015,-0.98837084,0.9900109,0.3485257,-0.09163958,-0.04072627,0.36266598,65,-71,2916,2917.0,-0.0024402158,-0.0020910501,1.4693516E-4,0.0032169449,0.0032135874162860065,-0.0032103358016847636,0.34108164311358113,3.5629674321916087,28.42101486323384,28.421014863233836,-1.085877550792173,7.57541332311832,-2.1773173691650447,19.7526107054942,,0.0017747826972084946,,,64.92,NONE,0.0,0.0,0.0,NONE,-5.020452174669026E-11,-1.3601484995128984E-10,0.0,17.023,17.023,6.076,1.3561069,0,3330,4.247,12.0,1.403,93,24.2,OK,118,0,0,0,0,0,65,100,0.0,0,0.0,589232.0,2.69E-43,0.0,-1.05007105E-23,62,2.622619E-7,-2.622638E-7,9.4E-44,False,False,0,None,0.0,1.0842022E-19,
482633113,125.434,0.0,0.0,0,143.69992,143.52051,0.055487897,-0.007632057,-0.9907729,0.9923548,0.29619402,-0.19890435,-0.13249752,0.3805909,62,-71,2913,2914.0,0.023391753,-0.073317505,-0.0046376437,0.077098235,0.07695862803654885,-0.07695862803654885,0.380856883088585,3.304538614061045,95.67001089222559,95.6700108922256,-0.5544056931550134,7.889982678543651,-2.0446694417756466,21.467334800594205,,0.0,,,64.98,,,10.4408872,63.4120416,20190508,171856,2019-05-08T17:18:56Z,127.014,99.99,99.99,48971.25,0,0,0,0.0,0.0,0.0,0,0,0,0,0,0,,,,1154404,16,94,95,3376,3612,4258,4281,-1369,17141,23,0,16508,0,false,false,false,false,false,false,false,false,false,false,0,0,0,0,53,68,70,54,943,945,944,944,940,940,940,940,0.0,0.0,0.0,0.0,1692.0,1687.0,1687.0,1691.4,0.0,0.0,0.0,0.0,0,0,0,0,-45.0,-1.5200232564725346E-10,-4.934282110559199E-11,0,143.655,142.622,0.055699762,-0.0079851765,-0.99015385,0.9917514,0.062793486,0.041969728,-0.060058974,0.096496426,62,-74,2910,2911.0,-0.0011220953,-0.003408452,6.351581E-4,0.0036441828,0.0035884040001232373,-0.0035794445535520755,0.3212839302642991,3.5646711285390618,28.384356464692953,28.384356464692928,-1.1473298097386149,7.86582711979648,-2.2301226005715273,20.405602222157952,,0.0018363500313270736,,,65.02,NONE,0.0,0.0,0.0,NONE,-4.554548193069232E-10,-2.1785968203323947E-10,0.0,17.023,17.023,6.079,1.3677932,0,3329,4.247,12.0,1.409,93,24.3,OK,119,0,0,0,0,0,65,100,0.0,0,0.0,589232.0,2.69E-43,0.0,-1.05007105E-23,62,2.622619E-7,-2.622638E-7,9.4E-44,False,False,0,None,0.0,1.0842022E-19,
486533123,126.448,0.0,0.0,0,143.61272,143.49648,0.05517038,-0.008739338,-0.99000293,0.9915775,0.21485595,-0.040868174,-0.076958194,0.23185308,65,-74,2919,2920.0,0.025312994,-0.07264277,-0.013774775,0.078150265,0.07692671857679374,-0.07692671857679374,0.39293044522424997,3.2963399113162075,95.65855217331166,95.65855217331165,-0.5474687889448923,8.089370015535932,-2.1423450748764754,21.99967429287716,,0.0,,,64.94,,,10.4408872,63.4120416,20190508,171857,2019-05-08T17:18:57Z,127.014,99.99,99.99,49072.19,0,0,0,0.0,0.0,0.0,0,0,0,0,0,0,,,,1154404,16,94,95,3376,3612,4258,4281,-1369,17141,23,0,16508,0,false,false,false,false,false,false,false,false,false,false,0,0,0,0,54,68,68,54,943,945,944,944,940,940,940,940,0.0,0.0,0.0,0.0,1691.4,1686.4,1687.6,1691.4,0.0,0.0,0.0,0.0,0,0,0,0,-45.0,-6.674415513587054E-11,-1.2557404971038064E-11,0,143.57837,142.61858,0.05884594,-0.0044534313,-0.9870176,0.98878026,0.38233474,0.010078808,-0.0384182,0.38439223,65,-71,2910,2911.0,-2.5313938E-4,-0.0013176553,-0.001989628,0.0023997738,0.0013417507521933524,-0.001331564192152735,0.3534813135848073,3.5520922639932233,28.313083555069333,28.31308355506934,-1.2302873083046697,8.168104684816951,-2.2875422461398274,19.94407567741885,,0.00189530377179412,,,64.97,NONE,0.0,0.0,0.0,NONE,-7.923463189939109E-11,-1.3090320824936885E-10,0.0,17.022,17.022,6.076,1.378438,0,3329,4.247,12.0,1.407,93,24.3,OK,120,0,0,0,0,0,65,100,0.0,0,0.0,589232.0,2.69E-43,0.0,-1.05007105E-23,62,2.622619E-7,-2.622638E-7,9.4E-44,False,False,0,None,0.0,1.0842022E-19,
490431950,127.461,0.0,0.0,0,143.50967,143.46883,0.056775294,-0.009239886,-0.99093074,0.9925989,0.30473593,-0.053055253,-0.03874055,0.31173655,65,-74,2910,2911.0,0.020141326,-0.05156253,-0.009195527,0.056115285,0.05535672908056442,-0.05535672908056442,0.4089837100731828,3.2900441579060837,95.62459214129277,95.62459214129274,-0.5852015938882421,8.399305235197161,-2.1869062895424074,22.23125313731289,,0.0,,,64.99,,,10.4408872,63.4120416,20190508,171858,2019-05-08T17:18:58Z,127.014,99.99,99.99,49173.73,0,0,0,0.0,0.0,0.0,0,0,0,0,0,0,,,,1154404,16,94,95,3376,3612,4258,4281,-1369,17141,23,0,16508,0,false,false,false,false,false,false,false,false,false,false,0,0,0,0,53,68,69,53,944,944,944,944,940,940,940,940,0.0,0.0,0.0,0.0,1692.0,1687.6,1686.4,1690.7,0.0,0.0,0.0,0.0,0,0,0,0,-45.0,-1.7635582735452485E-11,2.245441369162925E-11,0,143.62329,142.6169,0.057048127,-0.0059039546,-0.98946434,0.9911251,0.33220008,-0.13130756,0.004165625,0.3572337,62,-74,2913,2914.0,4.962097E-4,-3.433443E-4,4.8098477E-4,7.716578E-4,6.034147683347902E-4,-5.967963764614111E-4,0.3470554740664349,3.5675684740067086,28.267557080229682,28.267557080229665,-1.2923723261416176,8.442823550057861,-2.3836980862506127,20.654419738346256,,0.0019613957099786456,,,65.02,NONE,0.0,0.0,0.0,NONE,3.910280536314275E-11,7.462495161301525E-11,0.0,17.023,17.023,6.077,1.387479,0,3329,4.247,12.0,1.401,93,24.3,OK,121,0,0,0,0,0,65,100,0.0,0,0.0,589232.0,2.69E-43,0.0,-1.05007105E-23,62,2.622619E-7,-2.622638E-7,9.4E-44,False,False,0,None,0.0,1.0842022E-19,
494325985,128.473,0.0,0.0,0,143.48589,143.44986,0.056565695,-0.007884915,-0.9894399,0.9910869,0.33267084,-0.07702427,-0.18796803,0.3897879,65,-71,2913,2914.0,0.013461843,-0.02272525,-0.01079478,0.028533936,0.026413220603219618,-0.026413220603219618,0.4096607987742864,3.289405008359395,95.60431980253323,95.60431980253321,-0.6335271015101644,8.822744539309564,-2.272895292816537,21.59320650754304,,0.0,,,65.0,,,10.4408872,63.4120416,20190508,171859,2019-05-08T17:18:59Z,127.014,99.99,99.99,49296.38,0,0,0,0.0,0.0,0.0,0,0,0,0,0,0,,,,1154404,16,94,95,3376,3612,4258,4281,-1369,17141,23,0,16508,0,false,false,false,false,false,false,false,false,false,false,0,0,0,0,53,68,68,54,944,945,944,944,940,940,940,940,0.0,0.0,0.0,0.0,1692.6,1687.6,1689.5,1692.0,0.0,0.0,0.0,0.0,0,0,0,0,-45.0,-1.3301981285215977E-12,2.1082385433172496E-11,0,143.44626,142.61693,0.056908134,-0.006998392,-0.9903253,0.99198365,0.2603191,-0.019267797,-0.038936887,0.26391923,62,-71,2919,2920.0,4.6886093E-4,1.8328046E-6,-0.0011264154,0.0012201007,4.6886450253028365E-4,-4.670666690396815E-4,0.33579207943090905,3.5436895881917407,28.220368721280646,28.220368721280636,-1.2991151322197783,8.692725238528066,-2.439347097971528,19.98436464166735,,0.0020167135589855842,,,64.98,NONE,0.0,0.0,0.0,NONE,4.196398624397505E-11,8.324195835876229E-12,0.0,17.021,17.021,6.073,1.3945242,0,3328,4.246,12.0,1.403,93,24.3,OK,122,0,0,0,0,0,65,100,0.0,0,0.0,589232.0,2.69E-43,0.0,-1.05007105E-23,62,2.622619E-7,-2.622638E-7,9.4E-44,False,False,0,None,0.0,1.0842022E-19,
498187444,129.477,0.0,0.0,0,143.6048,143.42508,0.05661437,-0.007735872,-0.9900176,0.9916652,0.3023277,-0.033433177,-0.041136343,0.30693975,62,-74,2913,2914.0,0.0108922515,-0.014415672,-0.00592788,0.019015586,0.01806800342278678,-0.01806800342278678,0.41027906077389836,3.2862850611379595,95.583717520941,95.58371752094098,-0.7183971235417973,9.128625853895926,-2.3211727259494617,22.51363395090861,,0.0,,,64.98,,,10.4408872,63.4120416,20190508,171900,2019-05-08T17:19:00Z,127.014,99.99,99.99,49399.25,0,0,0,0.0,0.0,0.0,0,0,0,0,0,0,,,,1154404,16,94,95,3376,3612,4258,4281,-1369,17141,23,0,16508,0,false,false,false,false,false,false,false,false,false,false,0,0,0,0,53,69,68,53,944,945,944,945,940,940,940,940,0.0,0.0,0.0,0.0,1691.4,1686.4,1687.0,1691.4,0.0,0.0,0.0,0.0,0,0,0,0,-45.0,-6.190859214932537E-12,5.796819391928047E-11,0,143.46475,142.61649,0.05693496,-0.007427891,-0.9920928,0.99375296,0.23761961,-0.27278993,0.03964744,0.36393592,62,-71,2913,2914.0,0.0013117414,-1.355005E-4,2.4031059E-4,0.0013404384,0.0013187213303973491,-0.0013145990984173824,0.34436589408843515,3.5164156511905156,28.18430893563285,28.184308935632828,-1.3287828917073976,8.973111016354641,-2.5248179243861806,20.20253114134665,,0.0020639569575168744,,,64.98,NONE,0.0,0.0,0.0,NONE,-3.4384366720609437E-11,6.09381331369633E-11,0.0,17.024,17.024,6.078,1.3995425,0,3328,4.247,12.0,1.396,93,24.3,OK,123,0,0,0,0,0,65,100,0.0,0,0.0,589232.0,2.69E-43,0.0,-1.05007105E-23,62,2.622619E-7,-2.622638E-7,9.4E-44,False,False,0,None,0.0,1.0842022E-19,
502063467,130.484,0.0,0.0,0,143.45154,143.40088,0.058246125,-0.007004087,-0.9907474,0.9924828,0.33346528,-0.09633121,-0.08302893,0.35689297,65,-74,2922,2923.0,0.012383068,-0.012313555,-0.005400786,0.018279292,0.017463219112740836,-0.017463219112740836,0.4112963902915692,3.2902991475351437,95.5620297928918,95.56202979289179,-0.7627690817587791,9.400969500843432,-2.3816014183102565,22.213706186292228,,0.0,,,64.96,,,10.4393263,63.4107641,20190508,171901,2019-05-08T17:19:01Z,-183.856,89.01,99.99,48429.49,4,0,4,2.58,1.67,-6.37,0,0,0,0,0,0,,,,1154404,16,94,95,3376,3612,4258,4281,-1369,17141,23,0,16508,0,false,false,false,false,false,false,false,false,false,false,0,0,0,0,55,69,68,53,944,945,944,945,940,940,940,940,0.0,0.0,0.0,0.0,1690.7,1687.0,1685.8,1690.7,0.0,0.0,0.0,0.0,0,0,0,0,-45.0,-5.933185615402989E-11,8.179463587393546E-11,0,143.6735,142.61624,0.054756332,-0.008070493,-0.9923008,0.9938432,0.21004705,-0.10846766,-0.076021016,0.24832276,65,-71,2916,2917.0,0.001785537,-0.0013787578,-0.0017180194,0.002835614,0.0022559067684194186,-0.002249478318002511,0.32734985977412695,3.503512892867424,28.15071345437941,28.1507134543794,-1.3528395109422302,9.233882560051551,-2.610362003883161,19.832672526261096,,0.0021120431236890387,,,64.99,NONE,0.0,0.0,0.0,NONE,6.793213084396032E-12,-8.474784303563029E-12,0.0,17.021,17.021,6.076,1.4026773,0,3327,4.247,12.0,1.399,93,24.3,OK,124,0,0,0,0,0,65,100,0.0,0,0.0,589232.0,2.69E-43,0.0,-3.3654391E38,62,2.622619E-7,-2.622638E-7,9.4E-44,False,False,0,None,0.0,1.0842022E-19,
505971023,131.500,0.0,0.0,4,143.50703,143.3701,0.056222904,-0.006266672,-0.98935753,0.9909736,0.19473368,-0.06478601,-0.056320805,0.21281555,62,-74,2916,2917.0,0.009652097,-0.0137707405,-0.0102402065,0.019689035,0.016816547636330496,-0.016816547636330496,0.4093719101580807,3.287423828332049,95.55456246718859,95.55456246718859,-0.8070897156540333,9.713683103938608,-2.486875174182142,22.488028702539413,,0.0,,,65.01,,,10.4407257,63.412055,20190508,171902,2019-05-08T17:19:02Z,113.054,90.74,99.99,6417.64,4,0,4,0.59,-0.6,0.02,0,0,0,0,0,0,,,,1154404,16,94,95,3376,3612,4258,4281,-1369,17141,23,0,16508,0,false,false,false,false,false,false,false,false,false,false,0,0,0,0,53,67,68,53,944,945,944,945,940,940,940,940,0.0,0.0,0.0,0.0,1690.7,1687.0,1686.4,1689.5,0.0,0.0,0.0,0.0,0,0,0,0,-45.0,-8.524980459991285E-12,-3.5722930877490465E-12,0,143.54402,142.6161,0.055910803,-0.007177195,-0.99021417,0.99181736,0.24364795,-0.026012613,0.03329425,0.24728422,62,-71,2916,2917.0,-8.237836E-5,-2.2276999E-4,1.1616257E-4,2.643982E-4,2.3751350063816264E-4,-2.2663637198743066E-4,0.33635895310937663,3.495115261428914,28.157077661859027,28.157077661859034,-1.428573977380711,9.501633530344574,-2.671884078466244,20.189934258170997,,0.002162260600451427,,,65.01,NONE,0.0,0.0,0.0,NONE,2.6796381170908848E-11,-8.307463784799402E-12,0.0,17.02,17.02,6.077,1.404312,0,3327,4.247,12.0,1.398,93,24.3,OK,125,0,0,0,0,0,65,100,0.0,0,0.0,589232.0,2.69E-43,0.0,-3.3654391E38,62,2.622619E-7,-2.622638E-7,9.4E-44,False,False,0,None,0.0,1.0842022E-19,
509899744,132.521,0.0,0.0,4,143.67085,143.3769,0.056378372,-0.008347345,-0.99098915,0.99262667,0.34651843,0.04558676,-0.019001793,0.35002035,62,-77,2919,2920.0,0.009458771,-0.016018808,-0.018528266,0.026255803,0.018602971885023963,-0.018602971885023963,0.41113456358026246,3.2924149214430236,95.53774896346172,95.5377489634617,-0.8624987501370444,10.02036583251475,-2.526127170955526,23.110833410517536,,0.0,,,65.02,,,10.4406756,63.4120282,20190508,171903,2019-05-08T17:19:03Z,103.438,92.54,99.99,5992.49,4,0,4,0.19,-0.06,0.0,0,0,0,0,0,0,,,,1154404,16,94,95,3376,3612,4258,4281,-1369,17141,23,0,16508,0,false,false,false,false,false,false,false,false,false,false,0,0,0,0,54,68,70,53,944,945,944,945,940,940,940,940,0.0,0.0,0.0,0.0,1691.4,1687.0,1686.4,1690.7,0.0,0.0,0.0,0.0,0,0,0,0,-45.0,1.49417223761785E-11,-3.9203197679043914E-11,0,143.48853,142.6162,0.057039183,-0.00815676,-0.9905514,0.9922258,0.31229553,-0.10805795,-0.036388308,0.3324592,62,-74,2919,2920.0,-8.2332006E-4,2.792201E-4,-0.0019385003,0.0021245242,8.693789888658269E-4,-8.647327641597283E-4,0.3545681648952937,3.474872293502832,28.12884381089181,28.128843810891794,-1.4780291681981514,9.768965899411041,-2.726466374760252,21.084476771867863,,0.002209248637575952,,,64.99,NONE,0.0,0.0,0.0,NONE,-5.93151241039417E-12,-3.051926272654151E-11,0.0,17.02,17.02,6.077,1.4049739,0,3327,4.246,12.0,1.403,93,24.3,OK,126,0,0,0,0,0,65,100,0.0,0,0.0,589232.0,2.69E-43,0.0,-3.3654391E38,62,2.622619E-7,-2.622638E-7,9.4E-44,False,False,0,None,0.0,1.0842022E-19,
513796998,133.534,0.0,0.0,4,143.39606,143.42497,0.056553267,-0.006582543,-0.99054295,0.99217784,0.24484265,-0.08375891,-0.14189872,0.29512492,62,-74,2910,2911.0,0.012415413,-0.015429955,-0.022540668,0.030005127,0.019804695868161182,-0.019804695868161182,0.41010829123943704,3.2994045913764207,95.53005136652494,95.53005136652496,-0.9294644959255625,10.26430174243528,-2.5919884091108125,22.46368165029225,,0.0,,,64.98,,,10.4407069,63.4120707,20190508,171904,2019-05-08T17:19:04Z,111.062,94.41,99.99,5824.01,4,0,4,0.14,-0.04,0.0,0,0,0,0,0,0,,,,1154404,16,94,95,3376,3612,4258,4281,-1369,17141,23,0,16508,0,false,false,false,false,false,false,false,false,false,false,0,0,0,0,53,68,70,53,944,945,944,945,940,940,940,940,0.0,0.0,0.0,0.0,1691.4,1687.0,1687.0,1691.4,0.0,0.0,0.0,0.0,0,0,0,0,-45.0,1.2557404976355345E-11,-7.85235197255638E-11,0,143.42511,142.61588,0.05623525,-0.0067911986,-0.9908405,0.9924583,0.30664226,-0.07717728,-0.023564499,0.31708217,62,-71,2913,2914.0,-0.0017925092,3.010929E-4,-0.0013944162,0.0022908826,0.0018176209995559441,-0.0018132964436339868,0.37099079323336864,3.4901207844190556,28.132803096029825,28.132803096029818,-1.533416418488397,10.131810904778984,-2.860878305070898,20.59073140952305,,0.0022632762194264773,,,64.99,NONE,0.0,0.0,0.0,NONE,1.7409700037088904E-11,-3.2660965374721323E-11,0.0,17.018,17.018,6.077,1.4056613,0,3326,4.246,12.0,1.429,93,24.3,OK,127,0,0,0,0,0,65,100,0.0,0,0.0,589232.0,2.69E-43,0.0,-3.3654391E38,62,2.622619E-7,-2.622638E-7,9.4E-44,False,False,0,None,0.0,1.0842022E-19,
