Tick#,offsetTime,IMU_ATTI(0):Longitude,IMU_ATTI(0):Latitude,IMU_ATTI(0):numSats,IMU_ATTI(0):barometer:Raw,IMU_ATTI(0):barometer:Smooth,IMU_ATTI(0):accel:X,IMU_ATTI(0):accel:Y,IMU_ATTI(0):accel:Z,IMU_ATTI(0):accel:Composite,IMU_ATTI(0):gyro:X,IMU_ATTI(0):gyro:Y,IMU_ATTI(0):gyro:Z,IMU_ATTI(0):gyro:Composite,IMU_ATTI(0):mag:X,IMU_ATTI(0):mag:Y,IMU_ATTI(0):mag:Z,IMU_ATTI(0):mag:Mod,IMU_ATTI(0):velN,IMU_ATTI(0):velE,IMU_ATTI(0):velD,IMU_ATTI(0):velComposite,IMU_ATTI(0):velH,IMU_ATTI(0):GPS-H,IMU_ATTI(0):roll,IMU_ATTI(0):pitch,IMU_ATTI(0):yaw,IMU_ATTI(0):yaw360,IMU_ATTI(0):totalGyro:Z,IMU_ATTI(0):totalGyro:X,IMU_ATTI(0):totalGyro:Y,IMU_ATTI(0):magYaw,IMU_ATTI(0):distanceHP,IMU_ATTI(0):distanceTravelled,IMU_ATTI(0):directionOfTravel[mag],IMU_ATTI(0):directionOfTravel[true],IMU_ATTI(0):temperature,General:relativeHeight,General:absoluteHeight,GPS(0):Long,GPS(0):Lat,GPS(0):Date,GPS(0):Time,GPS:dateTimeStamp,GPS(0):heightMSL,GPS(0):hDOP,GPS(0):pDOP,GPS(0):sAcc,GPS(0):numGPS,GPS(0):numGLNAS,GPS(0):numSV,GPS(0):velN,GPS(0):velE,GPS(0):velD,RC:Aileron,RC:Elevator,RC:Rudder,RC:Throttle,Controller:navHealth,Controller:ctrl_level,HP:Longitude,HP:Latitude,HP:rthHeight,BatBlackBox:tick,BatBlackBox:id,BatBlackBox:rsoc,BatBlackBox:index,BatBlackBox:rm,BatBlackBox:fcc,BatBlackBox:cell_min,BatBlackBox:cell_max,BatBlackBox:current,BatBlackBox:voltage,BatBlackBox:temp,BatBlackBox:flag,BatBlackBox:reserve,BatBlackBox:user_data,OA:avoidObst,OA:emergBrake,OA:radiusLimit,OA:airportLimit,OA:groundForceLanding,OA:horizNearBoundary,OA:vertLowLimit,OA:vertAirportLimit,OA:roofLimit,OA:hitGroundLimit,Motor:Speed:RFront,Motor:Speed:LFront,Motor:Speed:LBack,Motor:Speed:RBack,Motor:EscTemp:RFront,Motor:EscTemp:LFront,Motor:EscTemp:LBack,Motor:EscTemp:RBack,Motor:PPMrecv:RFront,Motor:PPMrecv:LFront,Motor:PPMrecv:LBack,Motor:PPMrecv:RBack,Motor:PPMsend:RFront,Motor:PPMsend:LFront,Motor:PPMsend:LBack,Motor:PPMsend:RBack,Motor:V_out:RFront,Motor:V_out:LFront,Motor:V_out:LBack,Motor:V_out:RBack,Motor:Volts:RFront,Motor:Volts:LFront,Motor:Volts:LBack,Motor:Volts:RBack,Motor:Current:RFront,Motor:Current:LFront,Motor:Current:LBack,Motor:Current:RBack,Motor:Status:RFront,Motor:Status:LFront,Motor:Status:LBack,Motor:Status:RBack,Motor:thrustAngle,IMU_ATTI(1):Longitude,IMU_ATTI(1):Latitude,IMU_ATTI(1):numSats,IMU_ATTI(1):barometer:Raw,IMU_ATTI(1):barometer:Smooth,IMU_ATTI(1):accel:X,IMU_ATTI(1):accel:Y,IMU_ATTI(1):accel:Z,IMU_ATTI(1):accel:Composite,IMU_ATTI(1):gyro:X,IMU_ATTI(1):gyro:Y,IMU_ATTI(1):gyro:Z,IMU_ATTI(1):gyro:Composite,IMU_ATTI(1):mag:X,IMU_ATTI(1):mag:Y,IMU_ATTI(1):mag:Z,IMU_ATTI(1):mag:Mod,IMU_ATTI(1):velN,IMU_ATTI(1):velE,IMU_ATTI(1):velD,IMU_ATTI(1):velComposite,IMU_ATTI(1):velH,IMU_ATTI(1):GPS-H,IMU_ATTI(1):roll,IMU_ATTI(1):pitch,IMU_ATTI(1):yaw,IMU_ATTI(1):yaw360,IMU_ATTI(1):totalGyro:Z,IMU_ATTI(1):totalGyro:X,IMU_ATTI(1):totalGyro:Y,IMU_ATTI(1):magYaw,IMU_ATTI(1):distanceHP,IMU_ATTI(1):distanceTravelled,IMU_ATTI(1):directionOfTravel[mag],IMU_ATTI(1):directionOfTravel[true],IMU_ATTI(1):temperature,IMUEX(0):err,IMUEX(0):rtk_Longitude,IMUEX(0):rtk_Latitude,IMUEX(0):rtk_Alti,IMUEX(1):err,IMUEX(1):rtk_Longitude,IMUEX(1):rtk_Latitude,IMUEX(1):rtk_Alti,MotorCtrl:Status,MotorCtrl:PWM:RFront,MotorCtrl:PWM:LFront,MotorCtrl:PWM:LBack,MotorCtrl:PWM:RBack,BattInfo:Voltage,BattInfo:BatVoltage,BattInfo:AdVoltage,BattInfo:AvgCurrent,BattInfo:R_time,BattInfo:R_CAP_MAH,BattInfo:LowCellVoltage,BattInfo:LowCellVolThreshold,BattInfo:BatCurrent,BattInfo:Remaining%,BattInfo:Temp,BattInfo:status,battery_info:BatDynCnt,battery_info:Vol1Protect,battery_info:Vol2Protect,battery_info:Cap1Protect,battery_info:Cap2Protect,battery_info:Batpresent,battery_info:sopPercentage,battery_info:sopValue,battery_info:sopScale,battery_info:sopFlg,BattInfo:WindHeading:WindDir,battery_info:home_dir,BattInfo:Wind:rangeMin,BattInfo:Wind:rangeMax,battery_info:cap_speed,battery_info:against_wind,battery_info:emergency_land_cap,battery_info:intel_bat_land_cap,battery_info:intel_bat_gh_cap,BattInfo:Smart:SmartGh,BattInfo:Smart:SmartLand,BattInfo:GoHome:CntDown,BattInfo:GoHome:GhCmd,BattInfo:GoHome:CapLevel,BattInfo:GoHome:LandCapLv,Attribute|Value,ConvertDatV3,3.6.6-Tablet
143477813,.000,13.623197341139166,66.28316817931427,17,-25.0809,-25.347824,-0.06267286,-0.017365998,-0.9868626,0.9890032,0.348151,-0.30436492,-0.0933134,0.47175682,-50,201,1523,1537.0,-0.0027086502,-0.020263534,-0.0059661265,0.021296531,0.020443766642721597,-0.020443766642721597,1.0815176621772724,-3.6976130848722586,-128.79522096081945,231.20477903918055,0.7059056719778418,6.914478028579889,-1.4335847677025089,-130.74049508740606,0.18183916042907883,2.534014335623707,,,64.61,,,13.6231969,66.283168,20190520,83940,2019-05-20T08:39:40Z,19.79,0.81,1.65,10.47,9,8,17,0.0,0.01,0.02,-9998,-9998,9996,-9998,5,5,13.623201016343291,66.28316747995193,50,1816864,48,17,196,556,3452,3746,3752,0,14998,27,212,3,0,false,false,false,false,false,false,false,false,false,false,0,0,0,0,58,75,75,59,945,946,945,946,940,940,940,940,0.0,0.0,0.0,0.0,1722.6,1717.7,1718.9,1722.0,0.0,0.0,0.0,0.0,0,0,0,0,-45.0,13.623197585881197,66.28316763152426,0,-25.107323,-25.178774,-0.0639069,-0.018317811,-0.9840532,0.98629624,0.28318045,-0.14281894,-0.04223497,0.31995657,-53,204,1523,1537.0,-3.7370608E-4,1.3720266E-4,3.8987867E-4,5.5721286E-4,3.9809647300011425E-4,-3.9809647300011425E-4,0.963549149807905,-3.9942118373638635,-127.41506970812753,232.58493029187247,0.8921829368461757,6.030267238983071,-0.7842052087847097,-131.74795149603307,0.1543485260695989,1.2047420455966746,94.30831548554117,99.37282231331184,64.62,NONE,0.0,0.0,0.0,NONE,-3.394615748474176E-11,4.604781831170443E-11,7.6293945E-6,,,,,,17.342,17.342,6.194,1.3222225,0,3577,4.334,12.0,1.328,100,21.5,OK,35,0,0,0,0,0,65,100,0.0,0,0.0,-1.12797135E33,8.8E-44,0.0,-5.9807744E7,62,9.5367795E-8,-9.536827E-8,1.06815E-34,False,False,0,None,2.7386038E29,1.0842106E-19,Firmware Date| Oct 17 2018
147331662,1.002,13.62319758242145,66.28316831779551,17,-25.045494,-25.328009,-0.061225668,-0.014208965,-0.98431784,0.9863225,-0.12334082,-0.1343462,0.3610881,0.4045324,-50,198,1523,1536.0,-0.0059701754,-0.05217151,-0.0010823645,0.052523147,0.05251199138309233,-0.03373876062551545,1.0991626450477818,-3.720226271405311,-128.79661202898325,231.20338797101675,0.3712401049631514,7.318852576816585,-1.4880002366018914,-131.43258432901425,0.1796286018603967,2.5730638643788692,-101.81334488314755,-96.74883805537688,64.68,0.2897049204101556,,13.6231969,66.2831681,20190520,83941,2019-05-20T08:39:41Z,19.74,0.81,1.65,10.52,9,8,17,-0.01,0.0,0.03,0,0,0,0,5,5,13.623201016343291,66.28316747995193,50,1816867,16,17,197,556,3452,3747,3753,0,15003,27,1,17510,0,false,false,false,false,false,false,false,false,false,false,547,530,531,540,60,79,79,63,1352,1361,1357,1355,1342,1342,1342,1342,0.1,0.1,0.1,0.1,1690.7,1686.4,1687.6,1690.7,7.4,6.86,7.63,7.2,0,0,0,0,-102.99461679191648,13.623197532432506,66.28316789553928,0,-25.045494,-25.193722,-0.06212918,-0.016027886,-0.98305625,0.985148,0.5164802,0.44595468,-0.8488727,1.0891337,-48,195,1529,1542.0,-0.0068065766,-0.012576744,0.025728695,0.029435858,0.01430048855045946,0.015106809886834216,0.9743469757337971,-4.072719254920004,-127.50182658237803,232.49817341762196,0.8832554776191418,6.413187338747781,-1.0275925821620475,-132.8406168688495,0.16252419488847955,1.2562371742432443,-4.756767893575436,0.30773893419523773,64.68,NONE,0.0,0.0,0.0,NONE,-1.103083722217367E-9,-2.0467184392649346E-10,9.918213E-5,1,22.5,22.5,22.5,22.5,17.329,17.329,6.082,1.3222225,0,3577,4.335,12.0,1.328,100,21.5,OK,35,0,0,0,0,0,65,100,0.0,0,0.0,4.971331E-36,9.0E-44,0.0,-5.9807744E7,62,9.5367795E-8,-9.536827E-8,1.1079699E-34,False,False,0,None,2.855241E29,1.0842106E-19,ACType|MavicEnterprise
151231153,2.015,13.623197401467227,66.28316853868643,17,-25.045494,-25.33681,-0.063257724,-0.01811364,-0.9833701,0.9855691,0.77156705,-0.7528367,0.78184104,1.3316735,-50,198,1526,1539.0,-0.009535507,-0.08373262,0.008278361,0.08467945,0.0842738237010537,-0.058756374735244615,1.1434734506679318,-3.738095850663592,-128.8095575410128,231.1904424589872,-0.38377269450049284,7.956706337409702,-1.2657661172439294,-131.77168513961266,0.19999418387021262,2.6214313684690334,-19.55431410704323,-14.489807279272556,64.76,0.2897049204101556,,13.6231967,66.2831683,20190520,83942,2019-05-20T08:39:42Z,19.729,0.81,1.65,10.58,9,8,17,0.01,0.0,0.03,0,0,0,0,5,5,13.623201016343291,66.28316747995193,50,1816867,18,17,198,537,3446,3783,3792,2907,15144,27,1,15244,0,false,false,false,false,false,false,false,false,false,false,2176,2148,2105,2105,63,81,80,63,1209,1215,1207,1207,1207,1205,1200,1201,0.0,0.0,0.0,0.0,1716.5,1712.2,1712.2,1715.9,0.72,0.31,0.77,0.26,0,0,0,0,-166.20051460398065,13.623197373086347,66.28316797266021,0,-25.045494,-25.275488,-0.06330046,-0.019382402,-0.985581,0.98780185,-1.6980313,1.7423836,2.78327,3.6967285,-45,198,1529,1542.0,-0.025005242,-0.033897247,0.07624423,0.08710607,0.04212226791499985,-0.031120118699416367,1.0056587236352272,-4.06016669160941,-127.45672986002033,232.54327013997965,1.0969242241255814,6.714444231410356,-1.591046121993741,-131.8677410059219,0.17190667631633003,1.297563756821881,-130.3040452578375,-125.23953843006682,64.74,NONE,0.0,0.0,0.0,NONE,-3.031358638921413E-9,-8.900347296928755E-10,3.0708313E-4,2,10.72,10.62,10.0,10.18,17.087,17.087,6.173,1.3739555,0,3576,4.334,12.0,3.872,100,21.5,OK,36,0,0,0,0,0,65,100,0.0,0,0.0,4.7041815E-35,9.0E-44,0.0,-5.9807744E7,62,9.5367795E-8,-9.536827E-8,1.1346536E-34,False,False,0,None,2.933386E29,1.0842106E-19,dateTime|2019-5-20 8:39:11 GMT
155225843,3.053,13.6231953992331,66.28316874680034,17,-25.045494,-25.153122,-0.025280617,0.0033246996,-1.2524619,1.2527214,1.7943368,19.260208,-0.4190782,19.34815,-211,142,1514,1535.0,-0.0597377,-0.27719143,-0.98405594,1.0240946,0.2835554233640799,-0.19446813981262084,-0.401083919052788,3.4627908265279834,-128.92280221880242,231.07719778119758,0.5002903777344285,7.8539240138458,7.028682359768924,-128.0025296147407,0.288021102800713,2.7197773831436702,-93.4903217821139,-88.42581495434322,64.8,0.2897049204101556,,13.6231961,66.2831686,20190520,83943,2019-05-20T08:39:43Z,19.741,0.81,1.65,10.63,9,8,17,-0.01,-0.08,-0.02,0,0,0,10000,5,5,13.623201016343291,66.28316747995193,50,1821501,114,99,199,3446,3446,4386,4393,234,17550,28,3455,17534,0,false,false,false,false,false,false,true,false,false,false,6203,6270,5399,5604,59,77,77,60,1612,1599,1532,1572,1603,1587,1527,1565,0.0,0.0,0.0,0.0,1644.7,1641.1,1639.8,1644.7,5.97,5.2,4.94,5.05,0,0,0,0,-174.6369305799533,13.623195234081273,66.28316816995336,0,-24.86877,-25.214613,-0.018194994,0.016727906,-1.2468956,1.2471405,9.352115,4.4321895,12.811329,16.46926,-231,139,1511,1534.0,-0.06848329,-0.19702783,-0.965651,0.9879229,0.20859033210325895,-0.11405283280981365,-0.48729423985186937,3.54345024978562,-127.55683352789192,232.4431664721081,2.351247385509346,5.420907677570468,5.425960931406597,-132.10906618985138,0.2697500003067697,1.434536852681466,-96.99727279201296,-91.9327659642423,64.78,NONE,0.0,0.0,0.0,NONE,-3.2632243276196274E-8,-5.283719577064455E-9,-0.0020065308,2,60.37,58.03,50.47,55.39,17.196,17.196,5.97,1.5498105,0,3575,4.257,12.0,3.528,100,21.5,OK,37,0,0,0,0,0,65,100,0.0,0,0.0,-1.1753906E-18,8.8E-44,0.0,-3.3654391E38,62,9.5367795E-8,-9.536827E-8,8.777014E-35,False,False,0,None,1.9311865E29,1.0842106E-19,geoDeclination|506 degrees
159221658,4.092,13.623197969301122,66.2831697443092,17,-21.66099,-22.640839,-0.030391056,-0.00970627,-1.0647005,1.0651784,15.7249155,-1.3350971,6.7521853,17.165298,-131,173,1532,1547.0,0.06479209,0.06363694,-4.0657268,4.066741,0.09081671307722096,0.06299684448756888,0.6488838507317436,-1.3378206437451154,-128.89268675342294,231.10731324657706,-2.44047909302812,4.992159607322536,1.6906706552524278,-136.97827915830243,0.12590467806657196,2.937268556556418,94.05491632562881,99.11942315339948,64.76,3.6742092386474603,,13.6231985,66.2831688,20190520,83944,2019-05-20T08:39:44Z,22.044,0.82,1.72,10.61,9,7,16,-0.56,0.48,-1.82,0,0,0,10000,5,5,13.623197111086013,66.28316866592107,50,1821762,48,99,200,3469,3469,4389,4396,174,17559,27,212,17564,0,false,false,false,false,false,false,true,false,false,false,6178,6261,5614,5650,60,77,77,60,1588,1599,1529,1535,1586,1580,1513,1534,0.0,0.0,0.0,0.0,1650.2,1645.9,1645.9,1650.2,5.14,4.62,4.26,3.75,0,0,0,0,177.70938995736145,13.623198507786393,66.28316893622979,0,-21.650425,-22.283934,-0.027345166,-0.0013043163,-1.026731,1.0270959,18.959223,-5.825664,15.436419,25.133116,-128,180,1529,1544.0,0.03849271,0.111974195,-4.155863,4.1575494,0.11840569405011168,0.044717838672845414,0.8086609820373277,-1.7466455041066493,-126.1806966377085,233.81930336229152,-0.8222888506819662,5.085694733373234,-1.6156516209377325,-137.78747677031913,0.06932175592210339,1.7008689941895072,56.49404085401013,61.5585476817808,64.78,NONE,0.0,0.0,0.0,NONE,1.2556412468157352E-8,1.6191690782643544E-9,-0.02073288,2,58.11,58.34,50.19,51.44,16.784,16.784,5.917,2.4793637,0,3571,4.317,12.0,11.951,100,21.6,OK,39,0,0,0,0,0,65,100,0.0,0,0.0,NaN,2.68E-43,0.0,-3.3654391E38,62,2.2262684E-6,-4.4908856E-7,2.1501709E-34,False,False,0,None,9.639684E29,4.4762057E-19,geoInclination|7640 degrees
163075653,5.093,13.623205103471857,66.28316990403452,16,-17.408785,-18.749027,-0.032520715,0.004002597,-0.9978184,0.9983562,0.99231935,-1.1663891,-1.8137311,2.3737695,-25,195,1535,1547.0,0.007128424,-0.08988451,-3.8687177,3.8697681,0.09016673455188778,0.22887715361889338,-0.011835833486198544,-3.745771149083125,-123.2984076570353,236.70159234296472,0.5357990252549312,1.9964818545219942,-1.5991284746849337,-122.66537227572374,0.3830505740056267,3.30286873651248,58.40978155170601,63.47428837947668,64.84,7.9264141336669915,,13.6232045,66.2831701,20190520,83945,2019-05-20T08:39:45Z,25.904,0.82,1.72,10.59,9,7,16,-0.13,0.27,-3.21,0,0,0,10000,5,5,13.623197111086013,66.28316866592107,50,1821762,48,99,201,3469,3469,4389,4396,174,17559,27,212,17564,0,false,false,false,false,false,false,true,false,false,false,6090,6232,5516,5616,60,78,78,60,1600,1609,1524,1539,1595,1594,1509,1529,0.0,0.0,0.0,0.0,1647.2,1642.9,1642.3,1647.2,5.37,5.0,4.45,3.84,0,0,0,0,177.97863505964395,13.623205637535982,66.28316952367591,0,-17.30329,-18.424385,-0.037767783,0.0025470955,-1.0080198,1.0087303,-26.949501,1.6515325,-23.96515,36.101685,-25,192,1538,1550.0,0.03563994,-0.006750319,-3.873051,3.873221,0.036273575789906684,0.2886906907220534,-0.1148518640262976,-3.56970997079284,-120.10445294316973,239.89554705683025,7.686039530473624,7.832057110702403,-2.943968188759573,-121.7429684147209,0.3930875542725838,2.051737913959464,71.86794106189122,76.93244788966189,64.81,NONE,0.0,0.0,0.0,NONE,5.421978747205132E-9,1.866005775982164E-9,-0.01953888,2,59.13,60.78,49.42,49.17,16.523,16.523,5.925,3.4516478,0,3568,4.178,12.0,9.277,100,21.6,OK,40,0,0,0,0,0,65,100,0.0,0,0.0,-1.237742E33,2.68E-43,0.0,-3.3654391E38,62,1.18860975E-4,-3.3831027E-6,9.902661E-34,False,False,0,None,1.4006982E31,2.7824637E-18,geoIntensity|5254341 nanoTesla
166975092,6.107,13.623206115584152,66.28317018813755,18,-12.758843,-14.524874,-0.025193542,0.019436058,-1.0028478,1.0033524,0.84074503,6.0493445,160.97595,161.09177,444,41,1511,1575.0,-0.10050977,-0.1931151,-3.9394352,3.9454463,0.21770542947453936,-0.16323814303455603,-1.2413595243053193,-0.14886318060365483,-16.098055391778708,343.9019446082213,102.48560769067848,-1.7298886958187747,-0.9717604159200794,-9.510309263847068,0.4368458986067151,3.4051297825634004,-75.88111115079825,-70.81660432302758,64.9,12.576355578063964,,13.6232061,66.283171,20190520,83946,2019-05-20T08:39:46Z,29.877,0.79,1.54,10.53,10,8,18,-0.05,0.16,-3.78,0,0,9998,10000,5,5,13.623197111086013,66.28316866592107,50,1821762,48,99,201,3469,3469,4389,4396,174,17559,27,212,17564,0,false,false,false,false,false,false,false,false,false,false,6415,6146,5458,5303,60,77,77,61,1629,1599,1525,1514,1626,1586,1510,1505,0.0,0.0,0.0,0.0,1642.9,1640.5,1639.2,1643.5,5.97,4.85,4.2,3.54,0,0,0,0,-176.3761074043307,13.623206944248643,66.28316989449945,0,-13.133867,-14.592106,-0.02859949,0.020728145,-0.99385136,0.9944788,8.173983,3.6577144,159.99141,160.24184,424,87,1529,1589.0,-0.06916829,-0.11898921,-3.9150414,3.91746,0.13763242326997446,-0.06705739474779948,-1.3685119460214814,-0.5364641603788335,-21.897915817414287,338.1020841825857,106.74266509684253,10.80562249285811,-1.4167793065511425,-16.774301957953067,0.46051248142323203,2.1921442710135812,112.01521715190644,117.07972397967711,64.89,NONE,0.0,0.0,0.0,NONE,-1.3154531498531717E-8,-3.157884560077823E-9,-0.019577026,2,63.73,58.73,48.77,47.48,16.664,16.664,5.923,3.4516478,0,3568,4.116,12.0,9.277,100,21.6,OK,40,0,0,0,0,0,65,100,0.0,0,0.0,2.9351773E-37,2.69E-43,0.0,-3.3654391E38,62,0.0067350864,-2.5361433E-5,2.7585684E-33,False,False,0,None,8.597246E31,1.6296174E-17,
170918543,7.132,13.623208105341655,66.28317005599573,18,-8.902533,-10.611969,0.032893028,-0.0044993134,-0.9952131,0.9957667,-7.7864966,2.4935246,-7.0905414,10.822336,344,-313,1497,1567.0,-0.15088895,-0.16402467,-3.9767582,3.9829984,0.22287119144580972,-0.13486552348735265,-1.046507172271202,3.7449385304746645,29.157717910122376,29.157717910122358,148.0344691695503,-2.4261283111062286,3.116772444306211,32.90482773405411,0.5154342751953378,3.6248446036817343,168.58640446720557,173.65091129497625,64.89,16.43266642248535,,13.6232089,66.2831706,20190520,83947,2019-05-20T08:39:47Z,34.072,0.69,1.33,10.56,10,8,18,-0.19,0.13,-4.09,0,0,0,10000,5,5,13.623197111086013,66.28316866592107,50,1821762,48,99,202,3469,3469,4389,4396,174,17559,27,212,17564,0,false,false,false,false,false,false,false,false,false,false,6400,6454,5312,5386,60,79,78,59,1625,1629,1504,1513,1616,1616,1497,1510,0.0,0.0,0.0,0.0,1641.1,1638.0,1637.3,1641.1,5.81,5.08,4.07,3.54,0,0,0,0,-179.4685145072349,13.623208239684708,66.28316960901196,0,-9.023758,-10.677431,0.029187178,0.003567798,-0.9973437,0.9977771,0.7083175,-1.4793338,6.4517255,6.6569443,347,-304,1517,1585.0,-0.07908747,-0.035778813,-3.9472022,3.9481566,0.08680410072644015,-0.022343815916086265,-0.8017353798113066,3.4161827879339692,33.097479450297584,33.097479450297556,157.99848922863467,5.979679462911895,2.618250933670562,32.90189389779316,0.5086480539411852,2.365307817272366,167.81078011859924,172.87528694636993,64.93,NONE,0.0,0.0,0.0,NONE,-3.6849809658578805E-9,-9.503355417592935E-10,-0.019690514,2,62.55,62.49,47.0,48.2,16.639,16.639,5.907,4.6056933,0,3566,4.148,12.0,9.715,100,21.7,OK,41,0,0,0,0,0,65,100,0.0,0,0.0,-1.3291535E28,2.68E-43,0.0,-3.3654391E38,62,0.4029541,-1.960332E-4,8.0308385E-33,False,False,0,None,5.685116E32,9.9582706E-17,
174810156,8.143,13.623207382193684,66.28316823741594,19,-4.589729,-6.633295,0.036431227,0.0018323613,-0.9878505,0.9885237,5.0511923,1.6048968,1.9242052,5.6385107,398,-325,1488,1574.0,-0.09791101,-0.30747005,-4.0103087,4.02327,0.32268312171449787,-0.12020701550907523,-1.1223416967191011,1.7454153849290914,29.06115470154517,29.06115470154515,141.356876691357,-9.128174184758223,-3.6194109535144965,33.71182049576448,0.4618342496889359,3.844520524949321,-176.63015599899356,-171.56564917122287,64.93,20.745470167755126,,13.6232096,66.2831685,20190520,83948,2019-05-20T08:39:48Z,38.453,0.66,1.29,10.55,10,9,19,-0.32,-0.02,-4.27,0,0,0,10000,5,5,13.623197111086013,66.28316866592107,50,1821762,48,99,203,3469,3469,4389,4396,174,17559,27,212,17564,0,false,false,false,false,false,false,false,false,false,false,6385,6449,5313,5307,61,78,78,61,1622,1629,1514,1518,1616,1618,1501,1504,0.0,0.0,0.0,0.0,1639.8,1636.1,1636.7,1639.2,5.63,5.14,4.14,3.6,0,0,0,0,178.18908357939887,13.62320865453708,66.28316747092502,0,-4.1458735,-6.341089,0.036705077,0.0010129632,-0.98937887,0.99006003,6.0388126,2.622253,-0.49247608,6.6019692,398,-325,1502,1587.0,-0.12695827,-0.18004198,-3.9699054,3.9760134,0.22030323225508164,0.015473218162556895,-0.8787968627406628,1.5432714852664453,33.021538209186836,33.021538209186815,164.5620494396414,12.275555419368875,4.436988071698604,34.55285250060097,0.5331003093566752,2.6379235681365074,155.0937254149136,160.15823224268428,64.94,NONE,0.0,0.0,0.0,NONE,-1.9320632955016714E-8,-6.095026943999826E-9,-0.019849777,2,61.24,61.98,48.22,48.22,16.589,16.589,5.899,5.752254,0,3563,4.143,12.0,9.952,100,21.7,OK,42,0,0,0,0,0,65,100,0.0,0,0.0,-7.15474E-7,2.68E-43,0.0,-3.3654391E38,62,24.638672,-0.0015331585,2.1177052E-32,False,False,0,None,3.2977138E33,6.357254E-16,
178804367,9.181,13.623210930291963,66.28316685781914,19,0.24867803,-2.4950404,0.025512073,-0.005525944,-1.0011214,1.0014617,-7.536065,-0.61933243,0.31437716,7.5680037,421,-298,1485,1572.0,0.07729104,-0.15460531,-4.0591006,4.062779,0.17284880382685613,0.0397684924947668,-0.15136869880067463,0.7583074306504167,29.09169915131956,29.091699151319574,139.53541083259074,-11.099740374531637,-2.9103291973897276,33.719274757204204,0.6499351753581177,4.114685844053705,97.37930805411705,102.44381488188772,64.99,25.583877028583526,,13.6232115,66.2831667,20190520,83949,2019-05-20T08:39:49Z,43.001,0.66,1.29,10.48,10,9,19,-0.22,0.22,-4.42,0,0,0,10000,5,5,13.623197111086013,66.28316866592107,50,1821763,19,100,204,3469,3469,4386,4393,130,17562,27,1,17564,0,false,false,false,false,false,false,false,false,false,false,6396,6444,5215,5316,60,78,78,59,1614,1629,1511,1516,1605,1614,1509,1512,0.0,0.0,0.0,0.0,1639.8,1635.5,1635.5,1638.6,5.68,5.13,3.66,3.34,0,0,0,0,-178.68508307881748,13.623211706042706,66.283165716076,0,0.33871233,-2.363603,0.029458672,6.334912E-4,-0.99012846,0.9905668,8.318647,7.725458,8.120144,13.957769,418,-298,1485,1571.0,-0.039215043,0.020339211,-3.9809606,3.9812057,0.044175820328957185,0.18521108069231768,-0.22042847901143714,0.7762828037535561,33.07826884544346,33.07826884544346,167.55654586228786,17.09831216527654,3.2545345788373887,33.7100341318788,0.7305298059070077,2.9293878613690776,156.03112740409338,161.09563423186407,64.97,NONE,0.0,0.0,0.0,NONE,-4.497184822678034E-9,-2.5120070839507748E-9,-0.019933939,2,61.26,62.69,47.85,47.27,16.572,16.572,5.899,6.8186965,0,3560,4.129,12.0,9.876,99,21.8,OK,43,0,0,0,0,0,65,100,0.0,0,0.0,-9.497688E-27,2.68E-43,0.0,-3.3654391E38,62,1558.0625,-0.012193742,7.086709E-32,False,False,0,None,2.7624642E34,3.883206E-15,
182659651,10.183,13.623215717025005,66.28316581512239,19,4.172091,1.7706453,0.048870668,-0.011046715,-0.7123207,0.71408063,-2.8299515,-182.0125,-6.675783,182.15688,518,-322,1476,1597.0,0.29295486,-0.19339865,-4.1007476,4.115745,0.3510350297004252,-0.10805005227118117,-0.9537419924070358,-10.968819616816685,28.911594873776263,28.911594873776266,140.52222586036103,-11.391637660622155,-14.562530038134378,52.680273549895205,0.8904737403717636,4.3828458876175596,94.20612327521367,99.27063010298434,64.95,29.507290007232665,,13.623217,66.283166,20190520,83950,2019-05-20T08:39:50Z,47.582,0.66,1.29,10.34,10,9,19,-0.07,0.3,-4.47,0,9548,0,7855,5,5,13.623197111086013,66.28316866592107,50,1821764,114,100,205,3469,3469,4385,4392,0,17528,27,3446,714,0,false,false,false,false,false,false,false,false,false,false,5161,5496,5275,5345,61,79,80,61,1434,1423,1513,1506,1501,1506,1345,1361,0.0,0.0,0.0,0.0,1678.5,1671.7,1670.5,1674.8,0.68,0.93,3.52,3.33,0,0,0,0,97.94840387389172,13.623217118463337,66.28316512238617,0,4.6902237,1.557247,0.00919369,-0.006929713,-0.64668566,0.6467881,1.0914096,-203.49164,-4.3926635,203.54198,636,-313,1437,1602.0,0.17003463,0.08697151,-3.8144438,3.8192222,0.19098643565507703,0.05942785086289157,-0.57385563761511,-19.26127727105567,32.96197917890036,32.96197917890038,170.8549521308569,21.119251939894568,-14.635249616186071,67.22609729635657,0.9777298613169115,3.2215630022338066,43.52038248630756,48.58488931407823,64.98,NONE,0.0,0.0,0.0,NONE,-1.326556969991547E-9,7.054389596828826E-10,-0.019855976,2,42.33,43.2,34.94,36.51,16.569,16.569,5.904,7.747239,0,3557,4.126,12.0,9.749,99,21.8,OK,44,0,0,0,0,0,65,100,0.0,0,0.0,-7.349533E-25,2.68E-43,0.0,-3.3654391E38,62,93802.0,-0.09472897,2.4115208E-31,False,False,0,None,2.5051818E35,2.447836E-14,
186558923,11.197,13.623246473831115,66.28318307666335,18,6.24387,3.8648772,-0.064797096,0.010166771,-1.1044874,1.1064333,10.237394,-6.7637,114.22735,114.88446,1163,-477,1023,1620.0,4.1017537,2.410686,-0.07825506,4.7583523,4.757708468497815,-2.4275208303971123,-9.534440395200729,-33.42030396983206,43.96239988871911,43.96239988871912,155.61394056062093,-11.919005755881642,-36.33471111324742,39.00999751902203,2.727952503158333,6.748322214577248,28.90723974780148,33.971746575572155,64.99,31.57906878149414,,13.6232399,66.2831758,20190520,83951,2019-05-20T08:39:51Z,50.371,0.67,1.3,10.22,10,8,18,2.58,1.83,-3.01,0,10000,9221,0,5,5,13.623197111086013,66.28316866592107,50,2061729,48,100,206,3427,3456,4368,4375,0,17459,21,212,5,0,false,false,false,false,false,false,false,false,false,false,6570,4977,6216,3996,60,80,80,61,1662,1470,1642,1343,1647,1496,1612,1366,0.0,0.0,0.0,0.0,1636.7,1631.8,1633.1,1637.3,7.8,1.48,8.34,0.09,0,0,0,0,154.84229633718314,13.623247419269445,66.28317951606282,0,6.1546397,3.0596735,-0.05840799,0.039821155,-1.0981753,1.1004483,8.270078,6.6046267,116.570045,117.04952,1194,-353,1026,1613.0,3.3209755,2.2405083,0.04855268,4.006384,4.00608981998057,-1.936651847801636,-5.837788084793634,-33.335608335532584,39.92180486189549,39.92180486189551,180.45442423512935,22.190598110055877,-31.734410724072042,30.625743783445046,2.5530613808889386,5.321392989042566,35.12237833836051,40.186885166131184,64.99,NONE,0.0,0.0,0.0,NONE,1.512035295942644E-7,8.569104665975382E-8,-0.0026979446,2,57.81,55.39,53.37,48.43,16.54,16.54,5.937,8.4944315,0,3555,4.124,12.0,9.167,99,21.9,OK,45,0,0,0,0,0,65,100,0.0,0,0.0,8.423037E-38,2.69E-43,0.0,-3.3654391E38,62,565568.0,-0.22992043,1.5730337E-30,False,False,0,None,7.6558795E36,5.4013438E-14,
190416281,12.199,13.623364201056184,66.2832301484411,18,6.4962683,4.2635503,-0.14930615,0.04295352,-1.0608531,1.0721692,16.797092,0.009519549,2.5538397,16.99013,1077,-480,1111,1620.0,6.809784,7.2922797,-0.10732406,9.978077,9.977500017128383,-2.5718438167796904,-0.541056300172313,-34.40957395919754,64.63436195778715,64.63436195778718,161.21991260096738,-1.876953419256546,-39.52187516055113,61.19271447221996,10.128379163219046,14.209652274930848,43.14594816256037,48.210454990331044,64.93,31.8314672723999,,13.6233328,66.2832168,20190520,83952,2019-05-20T08:39:52Z,51.003,0.72,1.38,10.18,9,9,18,5.94,5.95,-1.44,0,10000,0,0,5,5,13.623197111086013,66.28316866592107,50,2061729,48,100,207,3427,3456,4368,4375,0,17459,21,212,5,0,false,false,false,false,false,false,false,false,false,false,5908,5957,5815,6164,60,79,79,61,1574,1581,1559,1595,1568,1570,1545,1589,0.0,0.0,0.0,0.0,1636.1,1631.2,1631.8,1635.5,4.86,4.5,4.64,4.64,0,0,0,0,-69.19320898728876,13.623357435769243,66.28322523195456,0,6.3183665,3.1906564,-0.14276803,0.03388144,-1.0591254,1.0692414,12.2181015,4.6019487,0.3905801,13.061872,1077,-492,1114,1625.0,6.3017983,6.9688697,0.023151001,9.395655,9.395626722772242,-2.3386488885089527,-1.3802178179441638,-33.80323909154887,66.75618065226944,66.75618065226945,199.20754291410185,36.0849241609312,-33.70606456580552,59.974544341615136,9.538202784134517,12.41047570311859,42.933807255630946,47.99831408340162,64.97,NONE,0.0,0.0,0.0,NONE,7.203277289519238E-7,2.7395117674350124E-7,5.197525E-5,2,55.29,56.51,53.85,58.08,16.691,16.691,5.88,8.981102,0,3553,4.126,12.0,6.266,99,22.0,OK,46,0,0,0,0,0,65,100,0.0,0,0.0,1.2582331E-27,2.69E-43,0.0,-3.3654391E38,62,634176.0,-0.23809914,5.482116E-27,False,False,0,None,-8.5299105E-37,5.5668364E-14,
194335088,13.218,13.623579512875029,66.28328961048742,17,6.2680855,4.3502874,-0.25349826,0.031539213,-0.9785035,1.0112988,0.38107973,-2.893336,-4.1967225,5.111663,1080,-366,1135,1608.0,7.0843515,11.440064,0.3868312,13.461529,13.455969320400612,-1.986849607687967,3.8861765315029606,-34.19219055159779,66.34234723201598,66.34234723201598,159.92471488586096,3.0389173268306906,-40.37007508245493,58.50084052096818,21.7568721189251,25.911775927914395,53.600716235849255,58.665223063619926,64.87,31.603284479736327,,13.6235247,66.2832749,20190520,83953,2019-05-20T08:39:53Z,51.321,0.76,1.48,10.26,9,8,17,6.81,10.2,-0.65,0,10000,0,0,5,5,13.623197111086013,66.28316866592107,50,2061729,48,100,208,3427,3456,4368,4375,0,17459,21,212,5,0,false,false,false,false,false,false,false,false,false,false,5760,5881,6251,6408,62,78,79,62,1559,1569,1606,1613,1552,1564,1595,1603,0.0,0.0,0.0,0.0,1632.5,1628.2,1629.4,1632.5,4.56,4.15,5.32,4.74,0,0,0,0,-2.025332883712622,13.623567721571206,66.28328521866236,0,6.474703,3.821159,-0.24752219,0.038799737,-0.9805791,1.012081,4.7874804,-0.0280883,6.48635,8.061854,1083,-366,1135,1610.0,6.9697266,11.132263,0.28683728,13.137223,13.134091670674142,-1.813184998166939,3.1753149848905053,-33.95792263233829,68.66834274857207,68.66834274857206,199.20306505391554,43.859395843466835,-34.12680868047772,57.14597667690449,21.04054674730226,23.95683833960771,53.882625783855815,58.947132611626486,64.83,NONE,0.0,0.0,0.0,NONE,1.2763120235587057E-6,3.1341501672079463E-7,0.0015056133,2,53.34,55.02,59.69,60.47,16.549,16.549,5.863,9.210215,0,3550,4.153,12.0,10.092,99,22.0,OK,47,0,0,0,0,0,65,100,0.0,0,0.0,1.1374542E-29,2.69E-43,0.0,7.379444E-20,64,1244000.0,-0.34829912,2.3131724E-21,False,False,0,None,-8.6123675E-32,7.919924E-14,
198233728,14.231,13.62386944557191,66.2833500633572,19,5.252555,3.8784108,-0.33561498,0.012718006,-0.96430904,1.0211225,-2.0151296,-0.34249783,-5.375394,5.750905,1083,-412,1120,1611.0,7.272712,14.476852,0.6330106,16.213337,16.20097491309599,-1.786021188990306,2.305864316500594,-34.40554694760269,65.59477250998286,65.59477250998287,163.59844069322926,4.799247607986777,-39.5846510697741,59.357585499546204,36.20820729475323,40.52346027367641,59.047907527496534,64.1124143552672,64.86,30.58775389349365,,13.6237993,66.2833356,20190520,83954,2019-05-20T08:39:54Z,50.963,0.66,1.29,10.33,10,9,19,7.1,13.55,0.01,0,10000,0,0,5,5,13.623197111086013,66.28316866592107,50,2061729,48,100,209,3427,3456,4368,4375,0,17459,21,212,5,0,false,false,false,false,false,false,false,false,false,false,6094,6235,6779,6958,62,80,79,62,1612,1619,1654,1681,1602,1610,1646,1670,0.0,0.0,0.0,0.0,1617.7,1612.2,1611.6,1615.9,5.28,4.98,5.87,5.46,0,0,0,0,-1.5459596792792922,13.623884383279824,66.28335164458778,0,5.4064207,3.7806423,-0.34342736,0.012482037,-0.9605359,1.0201604,6.648838,-1.8695935,8.931643,11.290557,1085,-415,1120,1613.0,7.297377,14.522341,0.46639428,16.259386,16.252694713468863,-0.48857506276309515,1.4361508157200475,-34.32566919789813,68.23519003194606,68.23519003194605,199.99943533067798,44.14965425050875,-34.283674078457764,58.5839121991789,36.86166338987503,39.93527725357703,59.08165985423784,64.14616668200851,64.88,NONE,0.0,0.0,0.0,NONE,1.557213534315402E-6,3.2273591018725143E-7,0.0023078918,2,59.41,61.14,65.69,68.85,16.498,16.498,5.818,9.348424,0,3548,4.118,12.0,9.956,99,22.0,OK,48,0,0,0,0,0,65,100,0.0,0,0.0,1.6129663E-32,2.69E-43,0.0,7.379444E-20,64,1291552.0,-0.35396776,9.432188E-21,False,False,0,None,-3.0570527E-31,8.034589E-14,
202089706,15.233,13.624217805339432,66.28341483218985,18,4.536555,3.2423544,-0.42914099,-0.019972015,-0.916851,1.0125101,-9.588468,1.7134465,0.39793468,9.748486,1080,-403,1120,1607.0,7.5639644,16.530077,0.43974504,18.183794,18.178476303926626,-1.0512071767778153,1.7920509431432505,-32.68517543799821,61.064225917163235,61.06422591716324,159.1110496761021,-0.2510625149447314,-37.33896340572993,54.59035648912017,53.22736785651282,57.68844160037787,60.75382032029856,65.81832714806923,64.96,29.87175381338501,,13.6242096,66.2834136,20190520,83955,2019-05-20T08:39:55Z,50.197,0.66,1.29,10.38,10,9,19,7.52,16.35,0.33,0,10000,0,0,5,5,13.623197111086013,66.28316866592107,50,2061731,114,100,210,3427,3456,4369,4375,0,17460,21,3469,1,0,false,false,false,false,false,false,false,false,false,false,6383,6386,7206,7239,62,79,79,62,1623,1646,1694,1692,1613,1632,1685,1694,0.0,0.0,0.0,0.0,1609.8,1603.6,1604.9,1609.1,5.38,5.03,5.94,5.42,0,0,0,0,-1.0254712674006896,13.624234184363758,66.28341678357354,0,4.445541,3.3535557,-0.4333908,-0.015461948,-0.9211588,1.0181355,-14.763853,8.60871,1.727605,17.17748,1077,-415,1126,1612.0,7.673336,16.572706,0.29499772,18.265316,18.262932362748543,-1.0600411876456057,0.500880158428933,-32.45153025544925,63.852459427872475,63.852459427872475,198.71610907225212,42.0895989248175,-29.523183103831393,54.182214644250486,53.967541234513746,57.176601430999476,60.81741709512245,65.88192392289312,64.98,NONE,0.0,0.0,0.0,NONE,1.848299658785172E-6,3.441191609859151E-7,0.0014925003,2,62.65,65.26,70.61,70.35,16.385,16.385,5.76,9.513327,0,3545,4.106,12.0,11.187,99,22.1,OK,49,0,0,0,0,0,65,100,0.0,0,0.0,1.6203014E-34,2.69E-43,0.0,7.379444E-20,64,856992.0,-0.2793294,5.349895E-20,False,False,0,None,-1.4575197E-30,6.5245125E-14,
206069492,16.267,13.624572231133987,66.28348003912602,18,1.6075139,2.8442469,-0.24852425,-0.05526395,-1.0931672,1.1224228,-9.561818,-136.09947,0.85259163,136.4376,-371,-548,1440,1584.0,5.845499,13.373612,0.0387277,14.595371,14.595320361843509,2.2570801977445925,-0.8117694051509604,17.81274866657955,59.8478861260769,59.8478861260769,154.95012179326295,-3.7704211417543774,17.26693435304151,80.35829773310589,70.57725316689162,75.11971288729612,60.42845196273633,65.492958790507,65.03,26.942712904571533,,13.624567,66.2834804,20190520,83956,2019-05-20T08:39:56Z,50.18,0.66,1.29,10.41,10,9,19,6.87,14.55,0.0,0,7957,0,0,5,5,13.623197111086013,66.28316866592107,50,2075601,16,100,211,3427,3458,4354,4359,-615,17374,22,0,16740,0,false,false,false,false,false,false,false,false,false,false,3742,3267,3488,3504,62,81,81,62,1392,1487,1294,1207,1369,1390,1323,1234,0.0,0.0,0.0,0.0,1665.6,1645.9,1652.1,1660.0,7.1,6.76,2.76,2.21,0,0,0,0,-91.98297213926821,13.62458558638817,66.28348297113985,0,2.0176415,2.6732664,-0.28045106,-0.023604367,-1.1646571,1.1981803,10.988706,-94.90052,0.21295263,95.534836,-257,-538,1470,1586.0,6.294046,13.256449,-0.0069506294,14.674757,14.67475552460862,2.103270218273188,-1.6566313223563784,12.77286583547418,62.48611442959077,62.48611442959077,198.61981342946086,36.533247586476186,25.98733932107111,81.08854851945426,71.25767946108374,74.53176239714509,59.74470664506627,64.80921347283694,65.03,NONE,0.0,0.0,0.0,NONE,1.6283203515441028E-6,3.068698706014075E-7,-3.8909912E-4,2,41.03,43.87,20.89,10.0,16.287,16.287,5.955,9.769283,0,3541,4.067,12.0,13.202,99,22.2,OK,50,0,0,0,0,0,65,100,0.0,0,0.0,1.0393758E-35,2.69E-43,0.0,7.379444E-20,64,374640.0,-0.18932442,5.6100397E-19,False,False,0,None,-1.1371268E-29,4.5799522E-14,
209923642,17.269,13.624837984196166,66.28353519470659,18,4.425873,2.7958946,-0.18343574,-0.014546942,-0.9164105,0.93470234,-14.204507,-82.469246,-5.065359,83.83676,309,-477,1494,1598.0,5.5900154,10.751186,-0.20237926,12.119291,12.117601792160006,1.2345852934031356,-0.14979183770760962,-3.0396137553727174,60.849878891687965,60.84987889168798,152.69449508161964,-1.6252659665687808,-4.886549395955857,64.14346913001401,83.9443913215924,88.50782191509238,51.563920955520665,56.628427783291336,64.92,29.761071802734374,,13.6248306,66.2835348,20190520,83957,2019-05-20T08:39:57Z,50.255,0.67,1.3,10.46,10,8,18,5.75,10.88,-0.14,0,10000,-1741,0,5,5,13.623197111086013,66.28316866592107,50,2075601,20,100,212,3427,3458,4354,4359,-615,17374,22,2,16740,0,false,false,false,false,false,false,false,false,false,false,3931,3712,4802,4882,62,79,80,63,1392,1432,1417,1448,1373,1379,1467,1471,0.0,0.0,0.0,0.0,1663.7,1661.9,1661.9,1663.7,4.74,4.24,1.43,1.23,0,0,0,0,-8.334364517357812,13.624847622346275,66.28353760051898,0,4.918263,2.6196227,-0.20727701,-0.011096727,-0.92598027,0.94896066,5.6156263,-75.33365,0.7153223,75.54605,358,-471,1476,1590.0,5.624442,10.700649,-0.09343531,12.089127,12.088765223500134,1.0891700039772019,-0.14733874771300293,-6.083391931265297,62.313794443431036,62.31379444343105,198.37649632697583,36.484331429956626,6.688996330177524,66.88372106775076,84.45111696374558,87.7354173620456,57.21433030531737,62.27883713308804,64.89,NONE,0.0,0.0,0.0,NONE,1.1973878237071937E-6,2.528977995093291E-7,-5.2547455E-4,2,36.41,41.47,43.07,51.08,16.736,16.736,5.97,10.034476,0,3538,4.067,12.0,6.517,99,22.2,OK,51,0,0,0,0,0,65,100,0.0,0,0.0,6.403873E-36,2.69E-43,0.0,7.379444E-20,64,362264.0,-0.18637185,2.0247932E-18,False,False,0,None,-3.7086477E-29,4.520191E-14,
213782544,18.272,13.62508013879912,66.2835892824187,19,7.101679,3.8025239,-0.2879352,-0.0072867502,-1.0058473,1.0462737,-1.2623678,2.908418,-0.947093,3.3089957,1091,-406,1156,1640.0,6.6297274,12.080758,-0.44941577,13.787675,13.780348698560072,-1.4283373347780035,1.0420883837319603,-33.0538055158905,60.00680005995469,60.006800059954685,153.27911047303752,-3.0846261463091698,-32.8997681223378,55.99410810949544,96.33236370883482,100.8965431638789,56.090366237532486,61.15487306530316,64.82,32.436877848266604,,13.6250723,66.2835878,20190520,83958,2019-05-20T08:39:58Z,50.266,0.66,1.29,10.41,10,9,19,6.31,11.61,-0.17,0,10000,0,0,5,5,13.623197111086013,66.28316866592107,50,2075603,114,100,213,3426,3458,4278,4303,-2880,17427,22,3456,17091,0,false,false,false,false,false,false,false,false,false,false,6234,6349,6728,6854,60,80,81,61,1615,1635,1653,1666,1603,1628,1650,1657,0.0,0.0,0.0,0.0,1614.1,1610.4,1610.4,1612.9,5.46,5.24,5.65,5.11,0,0,0,0,-0.6308589643166442,13.625091423639667,66.28359157582682,0,7.1183023,2.8039992,-0.29226124,-0.013247223,-1.0182592,1.0594546,-10.606398,-4.8804135,-4.6019783,12.549595,1091,-406,1147,1634.0,6.6473336,12.270156,-0.079872824,13.955291,13.95506268040608,-1.544817812782922,0.7996464838176899,-32.91645739087372,61.46486129489244,61.464861294892444,196.1174687286866,38.46092969073354,-22.408968209417164,54.97887464008497,96.89740344536543,100.18227377672098,56.17292430646273,61.237431134233404,64.81,NONE,0.0,0.0,0.0,NONE,1.306444792747001E-6,2.844586143494301E-7,-1.9526482E-4,2,61.32,63.98,66.32,67.0,16.722,16.722,5.796,10.051363,0,3536,4.041,12.0,6.274,99,22.3,OK,52,0,0,0,0,0,65,100,0.0,0,0.0,5.9000633E-36,2.69E-43,0.0,7.379444E-20,64,436872.0,-0.20415978,6.6506128E-18,False,False,0,None,-1.0361503E-28,4.880146E-14,
217662973,19.280,13.625403745552045,66.2836603719981,19,6.1823845,4.47499,-0.35728917,0.0055943253,-0.9571499,1.0216764,2.4998913,0.6607634,-5.168231,5.7789855,1062,-430,1129,1608.0,7.776949,14.374727,-0.57112503,16.35359,16.343613691472697,0.008202298869679936,-0.1616715980731664,-31.449727008401926,59.52317719312636,59.523177193126344,153.80787549442454,-3.484183071303422,-31.948466625852653,53.458475110006965,112.82292287716633,117.38785302474837,56.5220482280185,61.58655505578917,64.99,31.517583490966796,,13.6253643,66.2836518,20190520,83959,2019-05-20T08:39:59Z,50.327,0.66,1.29,10.36,10,9,19,7.54,13.96,-0.2,0,10000,0,0,5,5,13.623197111086013,66.28316866592107,50,2076254,48,64,214,2187,3477,3961,3965,-1222,15862,37,212,15864,0,false,false,false,false,false,false,false,false,false,false,5894,5987,6662,6729,61,80,80,61,1582,1604,1644,1652,1565,1588,1639,1644,0.0,0.0,0.0,0.0,1618.4,1615.9,1615.9,1619.6,5.0,4.48,5.69,4.95,0,0,0,0,0.9864523664114131,13.625384923593806,66.28365604876451,0,6.380781,2.77376,-0.35780123,0.0040640784,-0.96825236,1.0322552,-0.526325,5.862418,-5.522964,8.071438,1068,-427,1126,1609.0,7.744471,14.37144,-0.15086514,16.325987,16.325290386427184,-1.4949160468651268,-0.35964299215616796,-31.80359902850837,61.10735611505397,61.10735611505396,196.60889841091694,39.82396923753057,-20.32437141198582,53.31444518335407,111.85362590325535,115.13913402107346,56.28596618924065,61.350473017011325,64.98,NONE,0.0,0.0,0.0,NONE,1.601068520542109E-6,3.4706624008491994E-7,-7.300377E-4,2,55.32,56.08,63.63,64.65,16.367,16.367,5.823,9.863058,0,3534,4.184,12.0,11.225,99,22.4,OK,53,0,0,0,0,0,65,100,0.0,0,0.0,5.4673344E-36,2.69E-43,0.0,7.379444E-20,64,427752.0,-0.2019854,3.0987228E-17,False,False,0,None,-4.0055645E-28,4.836171E-14,
221658347,20.319,13.62573905658185,66.28373387761515,19,5.84028,4.315693,-0.40145642,-0.0010989304,-0.91236717,0.996786,0.808999,1.7794021,4.4857087,4.8930902,1045,-433,1147,1610.0,8.524105,15.592576,-0.28398445,17.772717,17.77044789416899,-1.3226583081481067,-0.13685120066996692,-30.65100752238611,59.60374448844204,59.60374448844203,153.1663050091172,-1.762274231455839,-31.129086733026323,53.90205621655988,129.90162472805332,134.46692957480727,56.186789156666194,61.251295984436865,65.09,31.175479055999755,,13.6256957,66.2837244,20190520,84000,2019-05-20T08:40:00Z,50.346,0.66,1.29,10.32,10,9,19,8.39,15.37,-0.19,0,10000,0,0,5,5,13.623197111086013,66.28316866592107,50,2076254,17,64,215,2187,3477,3962,3966,-1143,15871,37,0,15864,0,false,false,false,false,false,false,false,false,false,false,6153,6274,6946,7070,62,81,81,62,1618,1616,1678,1698,1606,1617,1669,1682,0.0,0.0,0.0,0.0,1609.1,1607.3,1606.1,1608.5,5.43,4.86,5.96,5.6,0,0,0,0,-0.10817314934593014,13.62575325481735,66.28373653403162,0,5.769781,2.6533487,-0.40922186,-0.0051582283,-0.96305555,1.0464058,6.264852,11.777358,1.7237319,13.450866,1045,-433,1147,1610.0,8.596686,15.775343,-0.099155955,17.96592,17.965646810845172,0.08860878768294711,-0.22906098622562823,-30.765656710821002,61.17115165452358,61.171151654523555,194.80100916338935,42.42940894401596,-19.210253651776945,54.08135580308221,130.60027197196487,133.88646307419504,56.748201837220286,61.81270866499096,65.08,NONE,0.0,0.0,0.0,NONE,1.7232485359780588E-6,3.7615977124976886E-7,-6.570816E-4,2,60.01,60.6,68.75,71.11,16.364,16.364,5.804,9.750576,0,3531,4.171,12.0,11.141,99,22.4,OK,54,0,0,0,0,0,65,100,0.0,0,0.0,5.0809825E-36,2.69E-43,0.0,7.379444E-20,64,386576.0,-0.19217019,1.8007332E-16,False,False,0,None,-1.9598263E-27,4.637545E-14,
225575560,21.337,13.626094978446385,66.28381261613929,19,5.5688624,4.0742755,-0.44946185,-0.006816867,-0.8847066,0.99235487,5.817428,2.3591442,5.7166805,8.490493,1048,-427,1144,1609.0,8.96544,16.317595,-0.102100186,18.618631,18.61835130646894,-0.7737466612888859,0.10704826724048669,-30.765774149306115,59.70330089154212,59.70330089154214,155.14285473082035,1.26178759963478,-31.3482035410008,53.65689527839103,148.06857609621093,152.63395391720402,55.99021940098591,61.05472622875658,65.08,30.904061438201904,,13.6260498,66.2838028,20190520,84001,2019-05-20T08:40:01Z,50.363,0.66,1.29,10.3,10,9,19,8.96,16.2,-0.18,0,10000,0,0,5,5,13.623197111086013,66.28316866592107,50,2077743,16,64,216,2189,3478,4007,4012,-601,16034,33,0,16013,0,false,false,false,false,false,false,false,false,false,false,6262,6400,7078,7243,62,81,81,63,1609,1639,1695,1700,1602,1611,1692,1697,0.0,0.0,0.0,0.0,1606.7,1602.4,1602.4,1606.1,5.38,5.1,5.84,5.38,0,0,0,0,-0.932398724854238,13.626110296727555,66.28381561870192,0,5.184471,2.74017,-0.4504722,0.005526389,-0.89282864,1.0000494,5.7097335,-0.07140397,3.721614,6.8159056,1048,-427,1147,1611.0,9.005713,16.441889,-0.09712498,18.746946,18.746694858433962,-0.8407566169936374,-0.08946686055491286,-31.014311573655245,61.17998250964754,61.179982509647516,196.52097418517002,42.71096286087328,-17.196256988812603,54.18498606104302,148.8296889635935,152.1159698036312,56.33027828097978,61.394785108750455,65.07,NONE,0.0,0.0,0.0,NONE,1.826006124706643E-6,4.0271746383491286E-7,-5.297661E-4,2,60.96,63.57,70.74,70.49,16.283,16.283,5.776,9.80359,0,3528,4.059,12.0,11.727,99,22.5,OK,55,0,0,0,0,0,65,100,0.0,0,0.0,5.003749E-36,2.69E-43,0.0,7.379444E-20,64,417928.0,-0.19964318,1.0912837E-15,False,False,0,None,-9.905135E-27,4.788813E-14,
229478803,22.351,13.626463715053415,66.28389508163761,19,4.5305815,3.8850617,-0.4559611,0.013052742,-0.8441093,0.95947456,-6.766152,-11.774582,-2.351537,13.782283,999,-430,1188,1610.0,9.281535,16.730658,-0.14632794,19.133303,19.132742318164464,-0.5322121197246474,0.14720051958110808,-28.79114389435141,59.91597386411944,59.91597386411945,155.1026044269564,1.6190813866833902,-29.719997012819288,54.94225579446423,166.93754874361625,171.50317646048768,55.68442701496165,60.74893384273232,64.99,29.8657804743042,,13.6264171,66.2838848,20190520,84002,2019-05-20T08:40:02Z,50.344,0.66,1.29,10.26,10,9,19,9.28,16.73,-0.16,0,9572,0,0,5,5,13.623197111086013,66.28316866592107,50,2077744,20,64,217,2189,3478,3999,4001,-1328,15965,33,2,16013,0,false,false,false,false,false,false,false,false,false,false,6152,6316,7100,7224,62,82,82,62,1619,1634,1684,1681,1633,1647,1653,1664,0.0,0.0,0.0,0.0,1606.1,1603.6,1601.8,1606.1,5.55,4.74,5.9,4.96,0,0,0,0,1.2346317054041265,13.626479475272733,66.28389811909202,0,4.8952236,2.7058606,-0.4681025,0.015131657,-0.86493593,0.98359704,4.2102513,1.4040145,1.1195738,4.577217,1002,-430,1177,1604.0,9.2752695,16.829254,-0.187724,19.21691,19.215993196586275,-0.5965768156149345,0.18914971511567819,-29.1254361846484,61.27013324447694,61.27013324447694,197.88362518199,44.67539993695665,-15.34129385661648,55.06067054696441,167.71782334917262,171.0043297336503,55.84793101249848,60.91243784026915,64.99,NONE,0.0,0.0,0.0,NONE,1.875086204074617E-6,4.151910171409437E-7,-6.554127E-4,2,61.34,63.9,69.51,69.16,16.231,16.231,5.76,9.9912,0,3521,4.073,12.0,12.268,98,22.6,OK,56,0,0,0,0,0,65,100,0.0,0,0.0,5.102564E-36,2.69E-43,0.0,7.379444E-20,64,403976.0,-0.19631676,7.020888E-15,False,False,0,None,-5.112292E-26,4.721419E-14,mcID(SN)|298DG13001W644
233332591,23.353,13.626797916639978,66.28396901919618,19,4.31155,3.7415552,-0.17262626,0.0059976215,-1.3209106,1.3321563,0.41032362,8.049859,-0.21967298,8.063303,-580,-511,1393,1593.0,6.43678,12.036039,-0.16426831,13.6501045,13.649116101833412,3.382411669671731,0.08955665459955996,34.66108568612685,59.91552610752418,59.91552610752416,156.86710667711483,-1.4493616841531285,36.293939849440704,58.481305790594355,183.99598917621486,188.56219479331105,56.665427740304054,61.729934568074725,64.91,29.64674914038086,,13.6267662,66.2839628,20190520,84003,2019-05-20T08:40:03Z,50.853,0.66,1.29,10.15,10,9,19,7.75,13.79,-0.51,0,0,0,0,5,5,13.623197111086013,66.28316866592107,50,2081404,48,22,218,822,3638,3735,3738,-1204,14968,38,212,14967,0,false,false,false,false,false,false,false,false,false,false,3993,3733,3946,4134,62,81,82,62,1422,1365,1441,1452,1404,1457,1446,1381,0.0,0.0,0.0,0.0,1647.8,1643.5,1642.9,1645.9,4.85,2.58,4.34,4.84,0,0,0,0,-51.68496525114534,13.626810867053138,66.28397227326134,0,4.164013,2.146608,-0.1391464,0.010258238,-1.3303932,1.3376895,0.34144992,0.46829912,5.0199485,5.053293,-586,-508,1390,1591.0,6.3861017,11.643206,-0.28755268,13.282666,13.279552970624025,3.6538281899972382,-0.0919374599898607,33.85716587388834,61.037759561486304,61.037759561486325,198.61114359608908,42.033690691967216,53.30155975353338,60.32229749664725,184.6779302907938,187.96471676832533,55.53296226172096,60.59746908949163,64.86,NONE,0.0,0.0,0.0,NONE,1.4003559390219285E-6,3.093714763140619E-7,-0.0014858246,2,37.92,31.44,39.26,41.25,16.235,16.235,5.93,10.289045,1230,3518,4.047,12.0,12.541,98,22.6,OK,57,0,0,0,0,0,65,100,0.0,0,0.0,5.1988993E-36,2.69E-43,0.0,1.7810985E-4,64,224520.0,-0.14456277,4.8091966E-14,False,False,0,None,-2.88376E-25,3.674253E-14,mcVer|v3.4.1.6
237187731,24.355,13.626994186026845,66.2840148729483,19,6.8495736,3.348529,-0.022459392,0.039163806,-1.3069329,1.3077124,14.20029,-18.650282,6.6273875,24.359873,-658,-446,1408,1616.0,3.1944973,5.111133,0.33380508,6.036549,6.027312421439158,4.104243761215004,3.8229094799761567,34.41905499876126,66.32341994621686,66.32341994621686,166.8255814160541,1.6742299593883316,34.97097868802493,66.48507731586432,194.14493158626445,198.71740850651634,53.27310297536029,58.33760980313096,64.79,32.18477261221314,,13.6269769,66.2840117,20190520,84004,2019-05-20T08:40:04Z,50.831,0.66,1.29,10.0,10,9,19,4.15,6.74,-0.09,5892,-9997,0,0,5,5,13.623197111086013,66.28316866592107,50,2081404,17,22,219,822,3638,3735,3738,-1204,14968,38,0,14967,0,false,false,false,false,false,false,false,false,false,false,5994,5845,4879,5110,63,81,80,64,1527,1547,1531,1546,1536,1578,1568,1487,0.0,0.0,0.0,0.0,1628.2,1627.0,1627.0,1628.8,5.9,5.23,2.37,3.4,0,0,0,0,-168.39258432420507,13.626997933653973,66.28401612918718,0,7.6243696,1.521453,-0.008794291,-0.008404242,-1.2662293,1.2662877,9.849617,-1.3808362,-8.144951,12.855422,-637,-440,1420,1617.0,2.9651024,5.027305,0.35144627,5.8471484,5.836576740843713,3.8284194040683293,4.366099075516283,33.78560431158238,66.08994249950578,66.08994249950581,208.152066565921,43.92949023112375,58.57771350393786,66.36517800538878,194.35923996783384,197.65059100236294,53.1416581634661,58.20616499123677,64.77,NONE,0.0,0.0,0.0,NONE,8.158816786830991E-7,1.8662352399921606E-7,0.002791047,2,66.95,56.4,49.66,49.99,16.53,16.53,5.884,10.507879,1204,3517,4.031,12.0,5.191,98,22.7,OK,58,0,0,0,0,0,65,100,0.0,0,0.0,5.6112407E-36,2.69E-43,0.0,1.7810985E-4,64,120638.0,-0.10752537,1.5473477E-13,False,False,0,None,-7.774256E-25,2.7067434E-14,
241086999,25.368,13.627055792075803,66.28401896120255,19,7.902529,3.7461314,0.027057696,-0.07805576,-1.0874612,1.0905946,3.9167302,-7.5468383,4.069255,9.42626,-108,389,1491,1544.0,-2.6877203,1.6916181,-0.019612227,3.1758144,3.175753772799721,-0.4202287781335965,31.32056255583568,14.06964045411378,63.588476967741144,63.588476967741144,176.31205009302113,30.950148515874677,11.604820224823799,60.15360727468333,196.77750400538162,202.05524067990893,142.6461261505468,147.71063297831748,64.96,33.237727762817386,,13.6270469,66.284024,20190520,84005,2019-05-20T08:40:05Z,50.834,0.66,1.29,9.89,10,9,19,-0.79,1.58,0.0,10000,0,0,0,5,5,13.623197111086013,66.28316866592107,50,2081408,16,22,220,822,3638,3741,3744,-636,14984,38,0,14410,0,false,false,false,false,false,false,false,false,false,false,5888,6379,5085,4912,62,81,81,62,1566,1637,1499,1466,1565,1628,1482,1451,0.0,0.0,0.0,0.0,1631.8,1629.4,1630.0,1631.2,4.82,5.38,3.74,2.96,0,0,0,0,163.6952207191357,13.627053687973518,66.28402064158414,0,7.7592387,1.6301048,0.0175218,-0.06840306,-1.0993708,1.1016362,6.1431236,-7.4692073,9.447731,13.519861,-116,380,1488,1540.0,-2.429674,1.7131857,0.11142639,2.9750187,2.9729313365963734,-0.4630891264330681,30.69780484638986,13.880696998033327,63.19211685850684,63.192116858506836,218.8015263951323,67.06204447085838,39.64545657970011,60.90652402890206,196.78485964004884,200.5466905050297,134.09193117701898,139.15643800478966,65.0,NONE,0.0,0.0,0.0,NONE,1.956208876910148E-7,-7.915908026447104E-8,3.836155E-4,2,56.09,64.13,48.99,41.95,16.427,16.427,5.865,10.456019,1209,3514,4.048,12.0,9.538,98,22.8,OK,59,0,0,0,0,0,65,100,0.0,0,0.0,4.4702764E-36,2.69E-43,0.0,1.7810985E-4,64,123740.0,-0.109003566,1.9992779E-13,False,False,0,None,-1.0202685E-24,2.7366674E-14,
244944053,26.371,13.627076028552251,66.28397190156811,19,6.909857,4.002475,0.06774437,-0.19640084,-1.1189816,1.1381047,-50.587383,18.808233,-21.253208,58.004585,-480,90,1473,1551.0,-7.490152,-0.06715876,0.02952876,7.490511,7.490452856983051,-2.1928506870559543,18.598223625108336,29.983499763998378,63.91743689872407,63.91743689872408,171.7717717053665,20.098925358454807,28.06551759013358,52.383019682471925,195.1217957720474,207.4302845587581,174.4808400354237,179.5453468631944,65.21,32.24505579626465,,13.6270746,66.2839862,20190520,84006,2019-05-20T08:40:06Z,50.707,0.66,1.29,9.83,10,9,19,-6.17,1.0,0.08,5443,-10000,0,0,5,5,13.623197111086013,66.28316866592107,50,2081408,20,22,221,822,3638,3741,3744,-636,14984,38,2,14410,0,false,false,false,false,false,false,false,false,false,false,6255,7016,5137,5152,61,82,81,61,1608,1702,1514,1510,1599,1687,1518,1506,0.0,0.0,0.0,0.0,1614.1,1612.2,1610.4,1614.7,5.39,6.26,3.82,3.22,0,0,0,0,165.954715064654,13.627074720870066,66.28397534236093,0,7.256916,1.6159642,0.070530646,-0.18491815,-1.1076133,1.1251563,-30.601246,23.944489,-11.995211,40.66522,-457,133,1470,1545.0,-7.3599806,0.28794748,0.13813072,7.366906,7.36561116155361,-2.2539146593748303,20.31703448715719,28.572942307826402,63.08277219222215,63.08277219222214,211.65878414635392,53.66048118642525,51.577830717652304,54.01371153433157,195.2452644965111,205.73011159421435,175.29802146703528,-179.63747170519403,65.13,NONE,0.0,0.0,0.0,NONE,1.3393540735700123E-7,-2.678386838096323E-7,0.0010236502,2,60.88,71.88,48.28,46.31,16.415,16.415,5.826,10.2599,1231,3511,4.151,12.0,9.448,98,22.8,OK,60,0,0,0,0,0,65,100,0.0,0,0.0,5.471559E-37,2.69E-43,0.0,1.7810985E-4,64,126308.0,-0.110228084,1.7743883E-13,False,False,0,None,-8.746637E-25,2.7614306E-14,
248845520,27.385,13.627025036421193,66.28389502160665,19,7.2051067,4.417631,0.20547979,-0.20232375,-1.1140493,1.1507661,-49.523018,-7.3499613,-7.8518276,50.677433,-623,-566,1345,1586.0,-8.779498,-4.7412133,0.00943066,9.977915,9.977910248750932,-1.2522192383067896,-3.69125839726866,34.18258672961405,69.63707103495892,69.63707103495892,163.95041031867194,-1.40944544374327,34.246038111169085,61.5433954196635,189.2949122271304,216.3481173591276,-160.39776795946472,-155.33326113169403,65.23,32.540305735229495,,13.627047,66.2839129,20190520,84007,2019-05-20T08:40:07Z,50.547,0.66,1.29,9.76,10,9,19,-8.76,-3.05,0.11,-4098,-10000,0,0,5,5,13.623197111086013,66.28316866592107,50,2083060,113,1,222,0,3536,3621,3644,-1608,14568,42,0,14550,0,false,false,false,false,false,false,false,false,false,false,6585,7094,4902,5087,62,81,80,63,1660,1710,1472,1497,1643,1696,1465,1493,0.0,0.0,0.0,0.0,1612.9,1608.5,1609.1,1614.1,6.21,6.36,3.5,3.34,0,0,0,0,174.98202036136544,13.627029684378432,66.28389889649151,0,6.926321,1.5249102,0.18611889,-0.19101955,-1.0866985,1.118947,-26.512749,0.82942426,0.48966607,26.530237,-629,-520,1360,1586.0,-8.866867,-4.4203863,0.117179364,9.908324,9.907630800110038,-1.2922567908227531,-1.1825497631959108,34.01245594200419,68.22555517963929,68.22555517963929,204.8690849346506,33.188051275459166,58.23540707766626,63.50120779038226,189.6669815697243,214.55052369832976,-161.00771540902346,-155.94320858125278,65.23,NONE,0.0,0.0,0.0,NONE,-4.2804655971250636E-7,-3.969605153421038E-7,5.7065487E-4,2,66.02,72.57,43.23,46.09,16.417,16.417,5.829,10.089059,1251,3508,4.058,12.0,10.362,98,22.9,OK,61,0,0,0,0,0,65,100,0.0,0,0.0,2.322039E-38,2.69E-43,0.0,1.7810985E-4,64,116474.0,-0.10553982,1.0426601E-13,False,False,0,None,-5.835425E-25,2.6665412E-14,
252703165,28.387,13.626864773587863,66.2838287639984,19,5.8502874,4.328742,0.3122694,-0.080477275,-1.1125867,1.1583773,-39.93411,-71.84679,-21.831518,85.04887,-245,-1202,1186,1706.0,-5.246297,-9.142026,0.14504015,10.541409,10.540411068973054,-0.2881524536355524,-27.91378387695446,21.160517034796268,73.15483997314537,73.15483997314539,152.9670071690968,-27.07235879198882,18.501652673261567,55.15185084077243,179.7053650679551,226.76231725431165,-126.70475857157157,-121.6402517438009,65.14,31.185486437438964,,13.6269087,66.2838404,20190520,84008,2019-05-20T08:40:08Z,50.353,0.66,1.29,9.67,10,9,19,-6.78,-7.99,0.11,-10000,-8607,0,0,5,5,13.623197111086013,66.28316866592107,50,2083061,114,0,223,0,3536,3621,3645,-1609,14558,42,3457,14562,0,false,false,false,false,false,false,false,false,false,false,6473,6639,4379,4539,62,82,82,63,1656,1693,1407,1417,1654,1680,1391,1403,0.0,0.0,0.0,0.0,1620.2,1617.1,1616.5,1620.2,6.35,6.39,2.44,1.99,0,0,0,0,179.91803184488583,13.626874823751008,66.28383067670167,0,5.997073,1.4661918,0.3070439,-0.087793395,-1.0664684,1.1132557,-19.877367,-32.74175,-8.484991,39.23171,-277,-1186,1186,1699.0,-5.576483,-8.926205,0.10165045,10.525428,10.524936674022676,-0.27959235017748085,-25.306606044705415,23.743317318421113,72.79272906202735,72.79272906202732,196.21742844969455,11.879254217455266,46.08175393419974,55.92797084718816,180.2025086451899,224.95864268259317,-128.2205093915384,-123.15600256376773,65.12,NONE,0.0,0.0,0.0,NONE,-1.027512898812064E-6,-2.3206290094952538E-7,4.4167042E-4,2,65.8,70.46,35.11,35.76,16.451,16.451,5.868,9.973519,1265,3506,4.08,12.0,9.887,98,22.9,OK,62,0,0,0,0,0,65,100,0.0,0,0.0,-1.7667829E38,2.68E-43,0.0,1.7810985E-4,64,110136.0,-0.10251667,4.2938102E-14,False,False,0,None,-2.5501033E-25,2.6053922E-14,
256601929,29.400,13.626666661547151,66.28380966743106,19,4.8540845,3.6995945,0.032769453,0.03153155,-1.2533892,1.2542139,31.176876,-8.165326,-12.098169,34.42435,1065,-662,1052,1636.0,0.39008856,-6.729129,0.3808387,6.7511764,6.740425949447147,2.2513661290567573,-5.313127422671382,-34.01493671553081,65.75773243019506,65.75773243019506,133.9666119296334,-3.6578722387481952,-32.30036415246459,64.9528147532794,170.75881348285296,236.0067718615555,-92.47484008295176,-87.41033325518109,65.01,30.189283491729736,,13.6267026,66.28381,20190520,84009,2019-05-20T08:40:09Z,50.069,0.66,1.29,9.65,10,9,19,-0.93,-8.72,0.13,-1561,10000,0,0,5,5,13.623197111086013,66.28316866592107,50,2083078,114,0,224,-1,3543,3614,3642,-1611,14549,42,3536,14528,0,false,false,false,false,false,false,false,false,false,false,6258,4864,3532,3551,63,82,82,63,1595,1483,1379,1358,1573,1463,1383,1378,0.0,0.0,0.0,0.0,1641.7,1638.0,1636.1,1642.9,5.35,3.17,3.07,2.58,0,0,0,0,-160.71816859181553,13.626657797181236,66.28380911451455,0,5.1231537,1.4978677,0.029349644,0.03397012,-1.2671084,1.2679034,34.49661,-6.075346,-8.368033,36.013187,1077,-609,1067,1633.0,0.578753,-6.597593,0.121554345,6.624044,6.622928799448803,3.2440123646957835,-3.831310148600121,-33.68757598512854,66.44314458990459,66.44314458990459,173.95188665963536,29.571261013533856,-9.10378515374671,62.17593896932233,170.3729266648405,235.13224288934708,-92.00143480089059,-86.93692797311992,65.03,NONE,0.0,0.0,0.0,NONE,-8.68699332495109E-7,-1.3158912210990209E-8,4.0733814E-4,2,59.41,45.42,31.52,27.53,16.521,16.521,5.933,9.869834,1277,3503,4.084,12.0,8.285,98,23.0,OK,63,0,0,0,0,0,65,100,0.0,0,0.0,NaN,2.68E-43,0.0,1.7810985E-4,64,112604.0,-0.103695415,1.5987325E-14,False,False,0,None,-1.03397577E-25,2.6292446E-14,
260520091,30.419,13.62658235953722,66.28382655624523,19,7.695103,3.46652,0.0029391332,0.05363239,-1.1985116,1.1997147,-19.764114,-4.7950716,-7.4293365,21.651974,1051,-335,1150,1593.0,2.8004355,-0.2388758,0.35474035,2.8329034,2.8106050677501444,1.3257244895919533,3.9781450319471165,-32.06510623213229,68.86613313134004,68.86613313134,132.00708465145485,7.237799076137763,-31.157033450919847,54.62184792561679,168.14848251461277,240.53354135928166,-15.433629073673906,-10.369122245903233,65.01,33.03030216848755,,13.6265845,66.2838258,20190520,84010,2019-05-20T08:40:10Z,49.812,0.66,1.29,9.7,10,9,19,2.6,-1.03,0.16,3032,10000,0,0,5,5,13.623197111086013,66.28316866592107,50,2083124,114,0,225,0,3564,3590,3630,-1610,14470,42,3543,14476,0,false,false,false,false,false,false,false,false,false,false,6392,6233,5124,5659,62,83,83,62,1650,1629,1491,1522,1635,1618,1481,1519,0.0,0.0,0.0,0.0,1620.2,1617.1,1617.1,1621.4,6.26,4.6,3.8,3.01,0,0,0,0,-159.3553777153342,13.62658155727595,66.28382701394351,0,7.3545523,1.3944967,-0.015002546,0.05291294,-1.2400432,1.2412622,-2.4888203,2.2997184,7.4722934,8.204761,1045,-329,1156,1592.0,2.841029,-0.0049688388,0.12163875,2.843636,2.8410333086079995,1.036061567422625,3.4304344816570183,-31.674526776965248,68.81808805867263,68.81808805867263,168.27685911770908,36.336150275177786,-7.68831512618481,53.54065984515762,168.13832745992633,239.4155356058234,-12.664776740925472,-7.600269913154799,65.04,NONE,0.0,0.0,0.0,NONE,-1.3632011895297701E-8,1.2658599598043338E-7,6.51598E-4,2,64.35,62.44,45.44,49.16,16.543,16.543,5.823,9.678571,1302,3501,4.108,12.0,6.81,98,23.1,OK,64,0,0,0,0,0,65,100,0.0,0,0.0,3.30945E-38,2.69E-43,0.0,1.7810985E-4,64,104636.0,-0.09989598,1.1828269E-14,False,False,0,None,-8.2219817E-26,2.5523964E-14,
