Tick#,offsetTime,IMU_ATTI(0):Longitude,IMU_ATTI(0):Latitude,IMU_ATTI(0):numSats,IMU_ATTI(0):barometer:Raw,IMU_ATTI(0):barometer:Smooth,IMU_ATTI(0):accel:X,IMU_ATTI(0):accel:Y,IMU_ATTI(0):accel:Z,IMU_ATTI(0):accel:Composite,IMU_ATTI(0):gyro:X,IMU_ATTI(0):gyro:Y,IMU_ATTI(0):gyro:Z,IMU_ATTI(0):gyro:Composite,IMU_ATTI(0):mag:X,IMU_ATTI(0):mag:Y,IMU_ATTI(0):mag:Z,IMU_ATTI(0):mag:Mod,IMU_ATTI(0):velN,IMU_ATTI(0):velE,IMU_ATTI(0):velD,IMU_ATTI(0):velComposite,IMU_ATTI(0):velH,IMU_ATTI(0):GPS-H,IMU_ATTI(0):roll,IMU_ATTI(0):pitch,IMU_ATTI(0):yaw,IMU_ATTI(0):yaw360,IMU_ATTI(0):totalGyro:Z,IMU_ATTI(0):totalGyro:X,IMU_ATTI(0):totalGyro:Y,IMU_ATTI(0):magYaw,IMU_ATTI(0):distanceHP,IMU_ATTI(0):distanceTravelled,IMU_ATTI(0):directionOfTravel[mag],IMU_ATTI(0):directionOfTravel[true],IMU_ATTI(0):temperature,General:relativeHeight,General:absoluteHeight,GPS(0):Long,GPS(0):Lat,GPS(0):Date,GPS(0):Time,GPS:dateTimeStamp,GPS(0):heightMSL,GPS(0):hDOP,GPS(0):pDOP,GPS(0):sAcc,GPS(0):numGPS,GPS(0):numGLNAS,GPS(0):numSV,GPS(0):velN,GPS(0):velE,GPS(0):velD,RC:Aileron,RC:Elevator,RC:Rudder,RC:Throttle,Controller:navHealth,Controller:ctrl_level,HP:Longitude,HP:Latitude,HP:rthHeight,BatBlackBox:tick,BatBlackBox:id,BatBlackBox:rsoc,BatBlackBox:index,BatBlackBox:rm,BatBlackBox:fcc,BatBlackBox:cell_min,BatBlackBox:cell_max,BatBlackBox:current,BatBlackBox:voltage,BatBlackBox:temp,BatBlackBox:flag,BatBlackBox:reserve,BatBlackBox:user_data,OA:avoidObst,OA:emergBrake,OA:radiusLimit,OA:airportLimit,OA:groundForceLanding,OA:horizNearBoundary,OA:vertLowLimit,OA:vertAirportLimit,OA:roofLimit,OA:hitGroundLimit,Motor:Speed:RFront,Motor:Speed:LFront,Motor:Speed:LBack,Motor:Speed:RBack,Motor:EscTemp:RFront,Motor:EscTemp:LFront,Motor:EscTemp:LBack,Motor:EscTemp:RBack,Motor:PPMrecv:RFront,Motor:PPMrecv:LFront,Motor:PPMrecv:LBack,Motor:PPMrecv:RBack,Motor:PPMsend:RFront,Motor:PPMsend:LFront,Motor:PPMsend:LBack,Motor:PPMsend:RBack,Motor:V_out:RFront,Motor:V_out:LFront,Motor:V_out:LBack,Motor:V_out:RBack,Motor:Volts:RFront,Motor:Volts:LFront,Motor:Volts:LBack,Motor:Volts:RBack,Motor:Current:RFront,Motor:Current:LFront,Motor:Current:LBack,Motor:Current:RBack,Motor:Status:RFront,Motor:Status:LFront,Motor:Status:LBack,Motor:Status:RBack,Motor:thrustAngle,IMU_ATTI(1):Longitude,IMU_ATTI(1):Latitude,IMU_ATTI(1):numSats,IMU_ATTI(1):barometer:Raw,IMU_ATTI(1):barometer:Smooth,IMU_ATTI(1):accel:X,IMU_ATTI(1):accel:Y,IMU_ATTI(1):accel:Z,IMU_ATTI(1):accel:Composite,IMU_ATTI(1):gyro:X,IMU_ATTI(1):gyro:Y,IMU_ATTI(1):gyro:Z,IMU_ATTI(1):gyro:Composite,IMU_ATTI(1):mag:X,IMU_ATTI(1):mag:Y,IMU_ATTI(1):mag:Z,IMU_ATTI(1):mag:Mod,IMU_ATTI(1):velN,IMU_ATTI(1):velE,IMU_ATTI(1):velD,IMU_ATTI(1):velComposite,IMU_ATTI(1):velH,IMU_ATTI(1):GPS-H,IMU_ATTI(1):roll,IMU_ATTI(1):pitch,IMU_ATTI(1):yaw,IMU_ATTI(1):yaw360,IMU_ATTI(1):totalGyro:Z,IMU_ATTI(1):totalGyro:X,IMU_ATTI(1):totalGyro:Y,IMU_ATTI(1):magYaw,IMU_ATTI(1):distanceHP,IMU_ATTI(1):distanceTravelled,IMU_ATTI(1):directionOfTravel[mag],IMU_ATTI(1):directionOfTravel[true],IMU_ATTI(1):temperature,IMUEX(0):err,IMUEX(0):rtk_Longitude,IMUEX(0):rtk_Latitude,IMUEX(0):rtk_Alti,IMUEX(1):err,IMUEX(1):rtk_Longitude,IMUEX(1):rtk_Latitude,IMUEX(1):rtk_Alti,BattInfo:Voltage,BattInfo:BatVoltage,BattInfo:AdVoltage,BattInfo:AvgCurrent,BattInfo:R_time,BattInfo:R_CAP_MAH,BattInfo:LowCellVoltage,BattInfo:LowCellVolThreshold,BattInfo:BatCurrent,BattInfo:Remaining%,BattInfo:Temp,BattInfo:status,battery_info:BatDynCnt,battery_info:Vol1Protect,battery_info:Vol2Protect,battery_info:Cap1Protect,battery_info:Cap2Protect,battery_info:Batpresent,battery_info:sopPercentage,battery_info:sopValue,battery_info:sopScale,battery_info:sopFlg,BattInfo:WindHeading:WindDir,battery_info:home_dir,BattInfo:Wind:rangeMin,BattInfo:Wind:rangeMax,battery_info:cap_speed,battery_info:against_wind,battery_info:emergency_land_cap,battery_info:intel_bat_land_cap,battery_info:intel_bat_gh_cap,BattInfo:Smart:SmartGh,BattInfo:Smart:SmartLand,BattInfo:GoHome:CntDown,BattInfo:GoHome:GhCmd,BattInfo:GoHome:CapLevel,BattInfo:GoHome:LandCapLv,Attribute|Value,ConvertDatV3,3.6.6-Tablet
7159520,1.861,,,,,,,,,,,,,,,,,,,,,,,,,,,,,,,,,,,,,,,,,,,,,,,,,,,,,,,,,,,,,,,,,,,,,,,,,,,,,,,,,,,,,,,,,,,,,,,,,,,,,,,,,,,,,,,,,,,,,,,,,,,,,,,,,,,,,,,,,,,,,,,,,,,,,,,,,,,,,,,,,,,,,,,,,,,,,,,OK,,,,,,,,,,,,,,,,,,,,,,,,,,Firmware Date| Oct 17 2018
240208830,62.429,,,,,,,,,,,,,,,,,,,,,,,,,,,,,,,,,,,,,,,,,,,,,,,,,,,,,,0,0,0,0,0,0,,,,,,,,,,,,,,,,,,,,,,,,,,,,,,,,,,,,,,,,,,,,,,,,,,,,,,,,,,,,,,,,,,,,,,,,,,,,,,,,,,,,,,,,,,,,,,,,,,,,,,,,,,,,,,,,,,,,OK,,,,,,,,,,,,,,,,,,,,,,,,,,ACType|MavicEnterprise
244063911,63.431,,,0,-42.705173,-42.59772,0.059874143,-0.0099888425,-0.9786605,0.9805412,0.2853191,0.07207566,0.1554287,0.3328062,-121,291,2566,2585.0,0.0,0.0,0.032371853,0.032371853,0.0,0.0,0.42742043923911666,3.717877403930442,-86.09789921351572,273.9021007864843,0.1056406984676481,0.32994441373090405,-0.016753465435123956,-80.4410528230249,,0.0,,,42.27,,,0.0,0.0,20151018,101,2015-10-18T00:01:01Z,-17.0,99.99,99.99,3.75E7,0,0,0,0.0,0.0,0.0,0,0,0,0,0,0,,,,358588,114,44,77,1561,3602,3897,3901,3596,15606,27,3544,15606,0,false,false,false,false,false,false,false,false,false,false,0,0,0,0,45,56,57,45,944,944,943,945,940,940,940,940,0.0,0.0,0.0,0.0,1643.5,1637.3,1638.0,1644.1,0.0,0.0,0.0,0.0,0,0,0,0,-45.0,2.6329727049037478E-12,-3.900982084149401E-11,0,-42.731594,-42.677876,0.05885273,-0.009611098,-0.9795231,0.98133665,0.3369495,-0.0042644157,0.021721162,0.3376758,-118,291,2566,2585.0,-8.413659E-4,7.445119E-5,3.9269697E-4,9.314776E-4,8.446534989145939E-4,-8.446534989145939E-4,0.4217101762796491,3.9133993142546233,-66.47622374951021,293.5237762504898,0.14140977836234264,0.370389825147423,0.0024193909828311173,-78.05952567925397,,5.0909985110739025E-5,,,42.27,NONE,0.0,0.0,0.0,NONE,2.5507724777034112E-11,-5.03272258855433E-11,-7.6293945E-6,16.532,16.532,5.902,1.2941086,0,2894,4.128,12.0,1.303,80,22.7,OK,60,0,0,0,0,0,65,100,0.0,0,0.0,589232.0,2.69E-43,0.0,-1.05007105E-23,62,4.5299385E-7,-4.5299575E-7,9.4E-44,False,False,0,None,0.0,1.0842022E-19,dateTime|2015-10-18 0:1:0 GMT
247961309,64.444,0.0,0.0,0,-42.67875,-42.64488,0.05880238,-0.010278857,-0.9797774,0.9815942,0.47531536,-0.012045111,0.16702801,0.5039525,-121,289,2563,2582.0,0.0,0.0,0.020071082,0.020071082,0.0,0.0,0.4320416186094603,3.689831990691386,-86.09892638098245,273.90107361901755,0.24554392406350728,0.7667970847051874,-0.051102446325111184,-80.66495893184256,,0.0,,,42.61,,,0.0,0.0,20151018,102,2015-10-18T00:01:02Z,-17.0,99.99,99.99,3.75E7,0,0,0,0.0,0.0,0.0,0,0,0,0,0,0,,,,361359,114,99,78,3602,3602,4381,4391,372,17591,31,3596,17575,0,false,false,false,false,false,false,false,false,false,false,0,0,0,0,45,58,58,45,944,944,944,944,940,940,940,940,0.0,0.0,0.0,0.0,1643.5,1638.0,1638.0,1644.1,0.0,0.0,0.0,0.0,0,0,0,0,-45.0,6.114410908698866E-12,-7.904084939578781E-11,0,-42.858425,-42.677986,0.05912257,-0.009610398,-0.9808299,0.9826572,0.33932874,-0.051614724,0.124955855,0.36526984,-121,289,2563,2582.0,-0.0017661955,1.31331E-4,-0.0014510262,0.0022895788,0.0017710715488948863,-0.0017666604744816844,0.40104613948624507,3.8921419636183874,-66.53951095200279,293.4604890479972,0.23560282519968292,0.7441995992095753,4.797951158831892E-4,-78.8580554875551,,1.3165705407861155E-4,,,42.6,NONE,0.0,0.0,0.0,NONE,2.1586804174929946E-11,1.0873561402445941E-10,-7.6293945E-6,16.531,16.531,5.904,1.2961656,0,2893,4.127,12.0,1.315,80,22.7,OK,61,0,0,0,0,0,65,100,0.0,0,0.0,589232.0,2.69E-43,0.0,-1.05007105E-23,62,4.5299385E-7,-4.5299575E-7,9.4E-44,False,False,0,None,0.0,1.0842022E-19,
251960306,65.483,0.0,0.0,0,-42.71574,-42.685585,0.05951527,-0.00976615,-0.9801807,0.9820344,0.37444955,0.029921988,0.101421654,0.389094,-121,294,2582,2601.0,-0.092435874,0.21179819,0.013404053,0.231479,0.23109059574742066,-0.23109059574742066,0.43317135384719424,3.681674815364371,-86.11270770784567,273.8872922921543,0.35303947735132557,1.164477764259055,-0.011422330112903813,-80.65128693205915,,0.0,,,42.89,,,0.0,0.0,20151018,103,2015-10-18T00:01:03Z,-17.0,99.99,99.99,3.75E7,0,0,0,0.0,0.0,0.0,0,0,0,0,0,0,,,,361891,19,100,79,3610,3610,4385,4393,124,17550,31,1,17539,0,false,false,false,false,false,false,false,false,false,false,0,0,0,0,45,57,57,46,944,945,944,944,940,940,940,940,0.0,0.0,0.0,0.0,1643.5,1638.6,1637.3,1643.5,0.0,0.0,0.0,0.0,0,0,0,0,-45.0,1.8111299173731507E-10,-1.3191932990179157E-10,0,-42.59948,-42.68276,0.059699968,-0.010188997,-0.97921866,0.9810897,0.28291354,-0.13866241,-0.05225548,0.31937122,-121,294,2582,2601.0,-0.0029362426,0.0040035862,0.0036711737,0.0061747665,0.004964899201096599,-0.0049453403896807715,0.4099732926423476,3.9154618150220277,-66.57333245965783,293.4266675403422,0.34999295411668685,1.0906282061736776,0.004263508461662317,-78.56440611701586,,2.987808648840147E-4,,,42.93,NONE,0.0,0.0,0.0,NONE,5.892882889984334E-11,2.790781454269512E-11,0.0,16.529,16.529,5.902,1.2986763,0,2893,4.126,12.0,1.311,80,22.7,OK,62,0,0,0,0,0,65,100,0.0,0,0.0,589232.0,2.69E-43,0.0,-1.05007105E-23,62,4.5299385E-7,-4.5299575E-7,9.4E-44,False,False,0,None,0.0,1.0842022E-19,
255879153,66.502,0.0,0.0,0,-42.96412,-42.781395,0.058882482,-0.009139698,-0.98054343,0.9823523,0.32603368,0.053036697,0.066188835,0.33688548,-121,291,2572,2591.0,-0.057450317,0.21699621,0.03259572,0.22682676,0.22447247686987176,-0.22447247686987176,0.4359571726155459,3.694893227469307,-86.11774407147377,273.8822559285262,0.5110312168041163,1.5202435846389633,-0.009445954695825813,-80.55805658855215,,0.0,,,43.18,,,0.0,0.0,20151018,103,2015-10-18T00:01:03Z,-17.0,99.99,99.99,3.75E7,0,0,0,0.0,0.0,0.0,0,0,0,0,0,0,,,,361891,19,100,79,3610,3610,4385,4393,124,17550,31,1,17539,0,false,false,false,false,false,false,false,false,false,false,0,0,0,0,44,57,57,45,944,945,944,945,940,940,940,940,0.0,0.0,0.0,0.0,1643.5,1638.6,1638.0,1644.1,0.0,0.0,0.0,0.0,0,0,0,0,-45.0,3.713954151213832E-10,-1.652296303599693E-10,0,-43.149082,-42.696518,0.05849999,-0.0099620065,-0.980156,0.98195076,0.35987398,0.0021293547,0.09651647,0.37259796,-121,291,2575,2594.0,-0.0036807708,0.00828071,0.013688412,0.016416177,0.009061911110098797,-0.009040820890876976,0.4373952945974871,3.95969630667343,-66.46517356537949,293.5348264346205,0.46007350916763207,1.4589861922013827,-0.003016179159184785,-78.08505300755155,,5.883919040752909E-4,,,43.19,NONE,0.0,0.0,0.0,NONE,2.786595056548838E-10,-2.918259215379243E-10,4.5776367E-5,16.53,16.53,5.903,1.3013568,0,2893,4.126,12.0,1.311,80,22.7,OK,63,0,0,0,0,0,65,100,0.0,0,0.0,589232.0,2.69E-43,0.0,-1.05007105E-23,62,4.5299385E-7,-4.5299575E-7,9.4E-44,False,False,0,None,0.0,1.0842022E-19,
259790836,67.518,0.0,0.0,0,-42.96412,-42.91659,0.058138113,-0.009995563,-0.9789837,0.98075944,0.31909207,0.049045503,0.19502786,0.37717512,-121,289,2566,2585.0,0.0,0.0,0.036475312,0.036475312,0.0,0.0,0.4489604250508222,3.693793909550422,-86.1194074646338,273.8805925353662,0.6264209988501738,1.8850613149649702,0.0061044573937328395,-80.56035559476454,,0.0,,,43.5,,,0.0,0.0,20151018,105,2015-10-18T00:01:05Z,-17.0,99.99,99.99,3.75E7,0,0,0,0.0,0.0,0.0,0,0,0,0,0,0,,,,949175,48,100,81,3542,3611,4357,4365,0,17422,20,212,5,0,false,false,false,false,false,false,false,false,false,false,0,0,0,0,45,57,55,44,944,945,944,944,940,940,940,940,0.0,0.0,0.0,0.0,1643.5,1639.2,1638.0,1644.1,0.0,0.0,0.0,0.0,0,0,0,0,-45.0,8.092953485707358E-11,1.651142019844333E-11,0,-43.03282,-42.69623,0.05823141,-0.01038871,-0.9796595,0.9814436,0.24833533,-0.09270629,0.081477724,0.2773148,-121,289,2566,2585.0,3.4072748E-4,0.0018127393,5.136453E-4,0.0019146672,0.0018444833596321527,-0.001807007033446532,0.4538509010741437,3.9545174589701024,-66.46633270114484,293.53366729885516,0.5357428039737753,1.8165071957526966,0.008378875529085235,-78.14353844263384,,7.267044038370433E-4,,,43.5,NONE,0.0,0.0,0.0,NONE,8.057540638169498E-11,-1.8215426582172625E-11,7.6293945E-6,16.529,16.529,5.902,1.3013568,0,2893,4.126,12.0,1.311,80,22.7,OK,63,0,0,0,0,0,65,100,0.0,0,0.0,589232.0,2.69E-43,0.0,-1.05007105E-23,62,4.5299385E-7,-4.5299575E-7,9.4E-44,False,False,0,None,0.0,1.0842022E-19,
263647616,68.521,0.0,0.0,0,-42.710457,-42.857204,0.058285423,-0.009818917,-0.9804229,0.982203,0.4332862,0.4279384,0.042879127,0.6104972,-118,289,2569,2587.0,-0.07012792,0.19137117,-0.020112153,0.20480564,0.20381573462120176,-0.20381573462120176,0.4309756590768386,3.691810892254536,-86.13071349756075,273.86928650243925,0.7417613399576668,2.237966500784037,-0.004692880224133264,-79.9490122620031,,0.0,,,43.76,,,0.0,0.0,20151018,106,2015-10-18T00:01:06Z,-17.0,99.99,99.99,3.75E7,0,0,0,0.0,0.0,0.0,0,0,0,0,0,0,,,,949175,48,100,82,3542,3611,4357,4365,0,17422,20,212,5,0,false,false,false,false,false,false,false,false,false,false,0,0,0,0,45,56,57,46,943,945,944,945,940,940,940,940,0.0,0.0,0.0,0.0,1643.5,1638.6,1637.3,1643.5,0.0,0.0,0.0,0.0,0,0,0,0,-45.0,3.207460226226997E-10,-3.273804739748777E-10,0,-42.72631,-42.7016,0.058920685,-0.009675587,-0.9802399,0.9820568,0.49909014,-0.13119406,0.13866916,0.53435194,-121,289,2569,2588.0,-0.0073165908,0.0071546272,0.010339015,0.014547042,0.010233337273179674,-0.010186828154280634,0.42512504476297774,3.9718418110856133,-66.40109748668475,293.59890251331524,0.6541519162105711,2.205569172034193,8.155091381483771E-4,-77.99926831036848,,9.105593423679004E-4,,,43.76,NONE,0.0,0.0,0.0,NONE,1.838466706604634E-10,-3.170774136086295E-10,3.8146973E-5,16.527,16.527,5.899,1.3055124,0,2891,4.126,12.0,1.314,80,22.8,OK,65,0,0,0,0,0,65,100,0.0,0,0.0,589232.0,2.69E-43,0.0,-1.05007105E-23,62,4.5299385E-7,-4.5299575E-7,9.4E-44,False,False,0,None,0.0,1.0842022E-19,
267545483,69.534,0.0,0.0,0,-43.127945,-42.82383,0.0614811,-0.018562905,-0.97768015,0.97978723,0.23207587,0.19748174,0.0814331,0.3154197,-118,291,2566,2585.0,-0.1085557,0.2644178,-0.014267841,0.28618994,0.28583405556925806,-0.28583405556925806,0.43577612561650525,3.7302978172820955,-86.13565777234444,273.8643422276556,0.82592125550079,2.684637559758813,-0.03187729030467911,-79.70047926328597,,0.0,,,44.12,,,0.0,0.0,20151018,107,2015-10-18T00:01:07Z,-17.0,99.99,99.99,3.75E7,0,0,0,0.0,0.0,0.0,0,0,0,0,0,0,,,,949175,48,100,82,3542,3611,4357,4365,0,17422,20,212,5,0,false,false,false,false,false,false,false,false,false,false,0,0,0,0,46,57,57,46,943,944,943,943,940,940,940,940,0.0,0.0,0.0,0.0,1643.5,1638.0,1638.0,1643.5,0.0,0.0,0.0,0.0,0,0,0,0,-45.0,5.086858911617474E-10,-8.364093826355142E-10,0,-43.01168,-42.71071,0.060040362,-0.020044792,-0.98054534,0.98258626,0.27681494,-0.33566403,0.15857874,0.46308106,-118,291,2566,2585.0,-0.018991284,0.011219121,0.007626056,0.023338687,0.022057595587507157,-0.02199803602014952,0.31828464616128965,4.025184496157049,-66.33844820668055,293.66155179331946,0.8224911184771312,2.4846130520482115,-0.13207819783518226,-77.2693281135876,,0.0011776050526643596,,,44.12,NONE,0.0,0.0,0.0,NONE,9.671741672093418E-10,-1.8284062694436664E-10,1.5258789E-5,16.527,16.527,5.902,1.3055124,0,2891,4.126,12.0,1.314,80,22.8,OK,65,0,0,0,0,0,65,100,0.0,0,0.0,589232.0,2.69E-43,0.0,-1.05007105E-23,62,4.5299385E-7,-4.5299575E-7,9.4E-44,False,False,0,None,0.0,1.0842022E-19,
271527309,70.569,0.0,0.0,0,-42.990543,-42.918144,0.06525393,-0.009235184,-0.96985877,0.9720954,0.61132234,-0.9361044,-1.2922899,1.7088065,-115,297,2566,2585.0,0.0,0.0,0.011108432,0.011108432,0.0,0.0,0.4652036725217414,3.690049678685358,-86.15767981176265,273.84232018823735,0.8785116694911316,3.0710629080943233,-0.1165475849897196,-79.63026654394511,,0.0,,,44.43,,,0.0,0.0,20151018,107,2015-10-18T00:01:07Z,-17.0,99.99,99.99,3.75E7,0,0,0,0.0,0.0,0.0,0,0,0,0,0,0,,,,949175,48,100,84,3542,3611,4357,4365,0,17422,20,212,5,0,false,false,false,false,false,false,false,false,false,false,0,0,0,0,45,57,58,44,943,944,944,944,940,940,940,940,0.0,0.0,0.0,0.0,1643.5,1637.3,1638.0,1642.9,0.0,0.0,0.0,0.0,0,0,0,0,-45.0,1.595719413540391E-10,-2.4673382399133044E-10,0,-42.93241,-42.713737,0.061763685,-0.0063191596,-0.97425115,0.9762274,1.0515288,-0.97696626,-0.4552004,1.5057833,-115,294,2566,2585.0,-0.0053207967,0.003640891,-0.0030574999,0.007135494,0.006447244947355388,-0.0063736128906555145,0.34209959714004967,3.98802111585996,-66.28035022463013,293.7196497753699,1.0644699995956763,2.8365366091326574,-0.12412484449449969,-77.09365804582076,,0.001451720717569733,,,44.39,NONE,0.0,0.0,0.0,NONE,1.7951974126185368E-10,-2.370875157767356E-10,-1.5258789E-5,16.527,16.527,5.901,1.3083515,0,2891,4.126,12.0,1.309,80,22.8,OK,67,0,0,0,0,0,65,100,0.0,0,0.0,589232.0,2.69E-43,0.0,-5.9807744E7,62,4.5299385E-7,-4.5299575E-7,9.4E-44,False,False,0,None,0.0,1.0842022E-19,
275453540,71.589,0.0,0.0,0,-42.990543,-42.91905,0.09341735,0.045876466,-0.91138244,0.9173055,10.324792,-8.7661495,2.514486,13.77568,-138,283,2563,2582.0,0.0,0.0,0.0016555092,0.0016555092,0.0,0.0,0.1101327559410006,4.036635574295123,-86.18038292258987,273.81961707741016,0.9587027067719942,3.615254144666635,-7.627157450294242E-4,-81.24971606885669,,0.0,,,44.74,,,0.0,0.0,20151018,109,2015-10-18T00:01:09Z,-17.0,99.99,99.99,3.75E7,0,0,0,0.0,0.0,0.0,0,0,0,0,0,0,,,,949175,48,100,84,3542,3611,4357,4365,0,17422,20,212,5,0,false,false,false,false,false,false,false,false,false,false,0,0,0,0,45,58,58,45,944,945,944,945,940,940,940,940,0.0,0.0,0.0,0.0,1642.9,1637.3,1637.3,1643.5,0.0,0.0,0.0,0.0,0,0,0,0,-45.0,3.0892056323779013E-10,-1.3910302741507663E-9,0,-42.958836,-42.711166,0.09072725,0.01704713,-0.9266888,0.93127555,5.126206,-3.603635,0.5700841,6.291992,-135,286,2566,2585.0,-0.014871821,0.0024871374,-0.008624812,0.017370788,0.015078359049873065,-0.014952606532517322,-0.13556606153542455,4.415414159676687,-66.37076474110653,293.62923525889346,1.176817584254557,2.9767332073368182,0.05423943777162121,-77.84696517713456,,0.001717657181274574,,,44.72,NONE,0.0,0.0,0.0,NONE,2.2357703698761784E-10,-2.588983791719996E-10,-1.5258789E-5,16.525,16.525,5.899,1.3083515,0,2891,4.125,12.0,1.309,80,22.8,OK,67,0,0,0,0,0,65,100,0.0,0,0.0,589232.0,2.69E-43,0.0,-5.9807744E7,62,4.5299385E-7,-4.5299575E-7,9.4E-44,False,False,0,None,0.0,1.0842022E-19,
279376061,72.609,0.0,0.0,0,-42.710457,-42.873795,0.056260355,-0.002679388,-0.98270184,0.9843146,1.048526,0.46293074,-0.6079502,1.2974263,-115,289,2566,2584.0,-0.12532103,0.26168427,1.284224E-5,0.29014483,0.2901448272116447,-0.2901448272116447,0.4303595805457071,3.637353536939595,-86.09464257122501,273.905357428775,0.812838968134457,4.444902190830138,-0.5290136832525312,-79.87721900587555,,0.0,,,45.02,,,0.0,0.0,20151018,110,2015-10-18T00:01:10Z,-17.0,99.99,99.99,3.75E7,0,0,0,0.0,0.0,0.0,0,0,0,0,0,0,,,,966692,181,99,86,3540,3613,4356,4365,0,17420,19,58118,5,0,false,false,false,false,false,false,false,false,false,false,0,0,0,0,45,57,57,46,944,944,943,945,940,940,940,940,0.0,0.0,0.0,0.0,1643.5,1638.0,1638.0,1643.5,0.0,0.0,0.0,0.0,0,0,0,0,-45.0,9.365737160108467E-9,-4.931279844514672E-9,0,-42.662895,-42.80418,0.0595011,6.850157E-4,-0.9799196,0.9817247,0.5391939,-0.3294415,0.46076423,0.7820265,-115,289,2566,2584.0,-0.05437437,0.10446739,0.1063354,0.15867333,0.11777099935813569,-0.11671034712932886,0.35807731233353524,3.92906114137472,-66.25454312711345,293.74545687288656,1.1951801499620578,3.6927238776537146,-0.31957763074176093,-77.35942321642867,,0.004227253001393208,,,45.02,NONE,0.0,0.0,0.0,NONE,4.538132117358218E-9,-2.4921107946990526E-9,4.8065186E-4,16.526,16.526,5.903,1.3102136,0,2890,4.125,12.0,1.315,80,22.8,OK,69,0,0,0,0,0,65,100,0.0,0,0.0,589232.0,2.69E-43,0.0,-5.9807744E7,62,4.5299385E-7,-4.5299575E-7,9.4E-44,False,False,0,None,0.0,1.0842022E-19,
283231911,73.611,0.0,0.0,0,-42.995827,-42.91706,0.062440615,-0.03547218,-0.9755139,0.9781536,-0.48014516,-0.52750295,-1.2878999,1.4722381,-127,286,2566,2585.0,-0.02761053,0.21196398,0.056354847,0.22105868,0.21375469401988842,-0.21375469401988842,0.38148245392978847,3.692629587294664,-86.40561634120199,273.594383658798,0.5125221565685383,4.7370284406031615,-0.2290146221141631,-81.82238600133468,,0.0,,,45.35,,,0.0,0.0,20151018,111,2015-10-18T00:01:11Z,-17.0,99.99,99.99,3.75E7,0,0,0,0.0,0.0,0.0,0,0,0,0,0,0,,,,1153648,16,98,87,3520,3611,4297,4319,-1390,17117,19,0,16624,0,false,false,false,false,false,false,false,false,false,false,0,0,0,0,45,58,58,46,944,944,943,944,940,940,940,940,0.0,0.0,0.0,0.0,1642.9,1637.3,1638.0,1643.5,0.0,0.0,0.0,0.0,0,0,0,0,-45.0,9.96108140257397E-9,-2.774121146382978E-9,0,-42.66818,-43.142063,0.053882163,-0.0015659705,-0.9736352,0.97512627,1.0274993,-0.62150115,1.9301662,2.273227,-127,289,2569,2588.0,-0.061863445,0.22215599,0.30780697,0.38461083,0.23060868750880106,-0.2303603809657303,0.49629456704702896,4.0536403894852615,-66.51235151326118,293.4876484867388,0.9517271825404866,4.0403133691050295,-0.5089854591321338,-78.33030884209651,,0.00705536887234335,,,45.39,NONE,0.0,0.0,0.0,NONE,7.96495625277121E-9,-2.7362386266494623E-9,0.0012435913,16.526,16.526,5.902,1.311104,0,2890,4.125,12.0,1.314,80,22.8,OK,70,0,0,0,0,0,65,100,0.0,0,0.0,589232.0,2.69E-43,0.0,-5.9807744E7,62,4.5299385E-7,-4.5299575E-7,9.4E-44,False,False,0,None,0.0,1.0842022E-19,
287129201,74.624,0.0,0.0,0,-42.92184,-42.895,0.059612453,-0.016948532,-0.98182017,0.98377424,0.102980584,-0.27473262,0.23463722,0.3756829,-118,289,2569,2587.0,0.0,0.0,0.0066030878,0.0066030878,0.0,0.0,0.4390803299872608,3.645531393734082,-86.27984036435612,273.7201596356439,0.4509008704820857,4.463112220552099,-1.045061085661751,-80.36450287734526,,0.0,,,45.75,,,0.0,0.0,20151018,112,2015-10-18T00:01:12Z,-17.0,99.99,99.99,3.75E7,0,0,0,0.0,0.0,0.0,0,0,0,0,0,0,,,,1153648,20,98,88,3520,3611,4297,4319,-1390,17117,19,2,16624,0,false,false,false,false,false,false,false,false,false,false,0,0,0,0,46,59,57,45,944,944,944,945,940,940,940,940,0.0,0.0,0.0,0.0,1644.1,1637.3,1636.7,1644.1,0.0,0.0,0.0,0.0,0,0,0,0,-45.0,1.042658964004461E-9,2.747064796258138E-10,0,-42.752735,-43.527092,0.05858141,-0.013513003,-0.9784828,0.98032796,0.20067956,0.64662105,0.2786844,0.7321585,-118,286,2569,2587.0,0.006026368,0.023361733,0.39112863,0.39187205,0.024126493085200915,-0.023091798669318032,0.5390612916847298,3.9630961846573416,-66.38090793515232,293.6190920648477,1.1738045664415067,4.153116593334936,-0.8070496474759556,-77.08965476251267,,0.00902179171314294,,,45.71,NONE,0.0,0.0,0.0,NONE,4.311656628428677E-10,-2.0468498032149115E-10,0.0019226074,16.524,16.524,5.9,1.3118876,0,2889,4.125,12.0,1.312,80,22.8,OK,71,0,0,0,0,0,65,100,0.0,0,0.0,589232.0,2.69E-43,0.0,-5.9807744E7,62,4.5299385E-7,-4.5299575E-7,9.4E-44,False,False,0,None,0.0,1.0842022E-19,
291005716,75.631,0.0,0.0,0,-42.800297,-42.806835,0.06477585,-0.006886767,-0.98019534,0.98235744,0.53212196,0.14916225,0.15448341,0.57381904,-115,283,2566,2584.0,0.0,0.0,-0.033970684,0.033970684,0.0,0.0,0.3436822097176379,3.6115980903038225,-86.2963396676832,273.7036603323168,0.5704497329607128,4.677808757633737,-0.9883082474102345,-80.0445208436415,,0.0,,,45.94,,,0.0,0.0,20151018,113,2015-10-18T00:01:13Z,-17.0,99.99,99.99,3.75E7,0,0,0,0.0,0.0,0.0,0,0,0,0,0,0,,,,1153959,48,95,89,3407,3611,4272,4283,-1155,17109,22,212,17094,0,false,false,false,false,false,false,false,false,false,false,0,0,0,0,46,58,57,45,944,945,944,944,940,940,940,940,0.0,0.0,0.0,0.0,1642.9,1637.3,1637.3,1642.9,0.0,0.0,0.0,0.0,0,0,0,0,-45.0,6.507452488153604E-10,-4.7250865428839284E-11,0,-42.65761,-43.7798,0.064310975,-0.00835305,-0.9781434,0.9802909,0.6809355,0.23870012,-0.053682297,0.72355556,-115,283,2566,2584.0,-9.867054E-4,0.014397996,0.33299872,0.3333113,0.014431765599289825,-0.014375786637416628,0.4395878397875294,3.922171328884412,-66.42418954920957,293.5758104507904,1.2876364113591536,4.323809760116388,-0.7120009024995939,-76.9706993703367,,0.00929114691346108,,,45.95,NONE,0.0,0.0,0.0,NONE,6.004660491677098E-10,2.996798049550817E-11,0.0018005371,16.524,16.524,5.901,1.3118876,0,2889,4.125,12.0,1.312,80,22.8,OK,71,0,0,0,0,0,65,100,0.0,0,0.0,589232.0,2.69E-43,0.0,-5.9807744E7,62,4.5299385E-7,-4.5299575E-7,9.4E-44,False,False,0,None,0.0,1.0842022E-19,
294867450,76.635,0.0,0.0,0,-42.779156,-42.70644,0.060633812,-0.014733634,-0.9799169,0.9819015,0.37005502,-0.0039101765,-0.04007823,0.37223953,-106,286,2572,2590.0,0.0,0.0,-0.037670698,0.037670698,0.0,0.0,0.4564646103376857,3.5859916017081117,-86.33850593008327,273.6614940699167,0.6617312091981965,5.190560128220681,-0.9496319795150098,-78.25198964076743,,0.0,,,46.18,,,0.0,0.0,20151018,114,2015-10-18T00:01:14Z,-17.0,99.99,99.99,3.75E7,0,0,0,0.0,0.0,0.0,0,0,0,0,0,0,,,,1153959,48,95,89,3407,3611,4272,4283,-1155,17109,22,212,17094,0,false,false,false,false,false,false,false,false,false,false,0,0,0,0,46,57,58,45,945,945,944,946,940,940,940,940,0.0,0.0,0.0,0.0,1643.5,1638.0,1637.3,1641.7,0.0,0.0,0.0,0.0,0,0,0,0,-45.0,4.4497369280963715E-10,1.481305713721905E-10,0,-42.652325,-43.826763,0.05899063,-0.007881019,-0.98155636,0.983359,0.6043961,0.13411444,-0.052541424,0.62132275,-109,286,2572,2590.0,0.0034352234,0.010022191,0.21863814,0.21889468,0.01059457774602344,-0.010563140500867641,0.552786467112762,3.875587903676076,-66.49915186770535,293.50084813229466,1.4039897669888528,4.8264034515515695,-0.6503462690283499,-75.96860330637726,,0.00939421615140894,,,46.24,NONE,0.0,0.0,0.0,NONE,4.674172570275758E-10,-6.784078009442048E-11,0.0012893677,16.523,16.523,5.896,1.3121581,0,2889,4.125,12.0,1.298,80,22.8,OK,72,0,0,0,0,0,65,100,0.0,0,0.0,589232.0,2.69E-43,0.0,-5.9807744E7,62,4.5299385E-7,-4.5299575E-7,9.4E-44,False,False,0,None,0.0,1.0842022E-19,
298881844,77.678,0.0,0.0,0,-42.826717,-42.713,0.055545364,-0.009730187,-0.9838818,0.98549646,0.112363644,0.42158177,0.15666285,0.46357313,-112,289,2572,2590.0,0.0,0.0,-0.019125607,0.019125607,0.0,0.0,0.47770054442888304,3.6141520068668886,-86.34331942180143,273.6566805781986,0.7747809044915114,5.822803287226746,-0.8357637579905759,-79.31099182099042,,0.0,,,46.54,,,0.0,0.0,20151018,115,2015-10-18T00:01:15Z,-17.0,99.99,99.99,3.75E7,0,0,0,0.0,0.0,0.0,0,0,0,0,0,0,,,,1153959,17,95,90,3407,3611,4272,4283,-1086,17109,22,0,17098,0,false,false,false,false,false,false,false,false,false,false,0,0,0,0,46,57,59,45,944,944,943,944,940,940,940,940,0.0,0.0,0.0,0.0,1643.5,1637.3,1636.7,1643.5,0.0,0.0,0.0,0.0,0,0,0,0,-45.0,7.455104827884375E-11,1.2964581261204856E-10,0,-42.752735,-43.485462,0.05531596,-0.0064534144,-0.98500365,0.9865768,0.35177085,0.393165,0.39402443,0.65846545,-112,289,2572,2590.0,0.0030166735,0.0018668865,-8.965257E-4,0.0036591452,0.0035476167992963496,-0.0035080888963226245,0.5492940287842969,3.8443081259385123,-66.63094105840493,293.3690589415951,1.5129807761649579,5.136903773943034,-0.7505812807223824,-77.03177126464374,,0.009580523162692596,,,46.55,NONE,0.0,0.0,0.0,NONE,4.674172570275758E-10,-6.784078009442048E-11,0.0012893677,16.521,16.521,5.899,1.3117967,0,2889,4.125,12.0,1.314,80,22.8,OK,73,0,0,0,0,0,65,100,0.0,0,0.0,589232.0,2.69E-43,0.0,-5.9807744E7,62,4.5299385E-7,-4.5299575E-7,9.4E-44,False,False,0,None,0.0,1.0842022E-19,
302785088,78.692,0.0,0.0,0,-42.59948,-42.74055,0.016633496,-0.013059566,-0.9808447,0.9810726,2.0374117,1.4223605,-0.40646413,2.5178103,-106,280,2582,2599.0,0.0,0.0,0.003648432,0.003648432,0.0,0.0,0.42451235330673676,3.539518934022112,-86.8712637753931,273.1287362246069,0.23516812942002413,6.271274621841871,-0.7645364548204843,-78.36133744174268,,0.0,,,46.84,,,0.0,0.0,20151018,116,2015-10-18T00:01:16Z,-17.0,99.99,99.99,3.75E7,0,0,0,0.0,0.0,0.0,0,0,0,0,0,0,,,,1153970,16,95,91,3409,3613,4289,4303,-532,17139,22,0,16524,0,false,false,false,false,false,false,false,false,false,false,0,0,0,0,46,58,58,46,944,945,944,944,940,940,940,940,0.0,0.0,0.0,0.0,1643.5,1637.3,1637.3,1642.3,0.0,0.0,0.0,0.0,0,0,0,0,-45.0,-2.767190883754244E-10,2.3391359048767616E-10,0,-42.615334,-43.478508,-0.03601434,-0.029747903,-1.0054599,1.0065444,-3.2145042,1.5359877,4.8190417,5.992951,-109,280,2579,2596.0,0.0017367564,-0.0041728755,-0.003892372,0.0059648785,0.004519868769266027,-0.0044797046909642564,0.4581448029583778,3.800778958117161,-67.17360118775336,292.8263988122466,1.6886442285784897,5.182642599238615,-0.8061488213453278,-76.4855862477048,,0.00971210092573471,,,46.84,NONE,0.0,0.0,0.0,NONE,-3.1393696376678204E-10,-6.090770102611956E-10,1.5258789E-5,16.521,16.521,5.899,1.3114806,0,2888,4.124,12.0,1.317,80,22.8,OK,74,0,0,0,0,0,65,100,0.0,0,0.0,589232.0,2.69E-43,0.0,-5.9807744E7,62,4.5299385E-7,-4.5299575E-7,9.4E-44,False,False,0,None,0.0,1.0842022E-19,
306638861,79.694,0.0,0.0,0,-42.61005,-42.620472,-0.030353405,0.06556447,-1.1396005,1.1418885,-5.6009116,-20.858248,0.67660147,21.607742,-503,118,2344,2400.0,-0.0638063,0.12459169,-0.43004557,0.45225382,0.13997976305850127,-0.13997976305850127,-3.4931619967987637,-1.4310068416391308,-86.59424589442881,273.4057541055712,-0.26004577562724657,1.9458193473801342,-5.4130253420241825,-155.08747508838871,,0.0,,,47.13,,,0.0,0.0,20151018,116,2015-10-18T00:01:16Z,-17.0,99.99,99.99,3.75E7,0,0,0,0.0,0.0,0.0,0,0,0,0,0,0,,,,1153970,20,95,92,3409,3613,4258,4281,-1266,17139,22,2,16524,0,false,false,false,false,false,false,false,false,false,false,0,0,0,0,45,58,57,46,943,944,944,944,940,940,940,940,0.0,0.0,0.0,0.0,1643.5,1637.3,1637.3,1643.5,0.0,0.0,0.0,0.0,0,0,0,0,-45.0,4.255888163316109E-9,-5.048910178870403E-9,0,-42.705173,-43.549126,-0.025571475,0.0678314,-1.1482152,1.1505013,-5.66838,-19.834156,4.9178653,21.206358,-451,121,2393,2438.0,-0.111598544,0.0949051,-0.29190004,0.3265989,0.14649646073393485,-0.14572367466152245,-3.3492122808977904,-0.8906595866248098,-66.91041413405885,293.08958586594116,0.9964983276620653,-0.2901091649999108,-4.371781196191012,-151.8959386362627,,0.011057652564428679,,,47.14,NONE,0.0,0.0,0.0,NONE,3.934087931698536E-9,-3.6894581933505176E-9,-0.0021018982,16.52,16.52,5.897,1.3117012,0,2888,4.124,12.0,1.319,80,22.8,OK,75,0,0,0,0,0,65,100,0.0,0,0.0,589232.0,2.69E-43,0.0,-5.9807744E7,62,4.5299385E-7,-4.5299575E-7,9.4E-44,False,False,0,None,0.0,1.0842022E-19,
310495458,80.696,0.0,0.0,0,-42.102722,-42.403328,0.6403347,-0.19182312,-1.036438,1.2332999,-19.745842,-8.706143,-144.8403,146.43909,13,638,1380,1520.0,1.1251454,-0.3086931,0.64105874,1.33124,1.1667234997303337,-1.1667234997303337,15.749908018505566,17.735756930701562,149.23244790000913,149.2324479000091,-121.48349725610805,17.0588968743502,-28.484369746294227,-27.011293674798804,,0.0,,,47.47,1.5661508320312478,,0.0,0.0,20151018,118,2015-10-18T00:01:18Z,-17.0,99.99,99.99,3.75E7,0,0,0,0.0,0.0,0.0,0,0,0,0,0,0,,,,1154055,48,94,93,3377,3613,4262,4273,-1137,17060,23,212,17057,0,false,false,false,false,false,false,false,false,false,false,0,0,0,0,46,58,57,45,943,944,944,944,940,940,940,940,0.0,0.0,0.0,0.0,1642.9,1637.3,1637.3,1643.5,0.0,0.0,0.0,0.0,0,0,0,0,-45.0,4.993525425321652E-9,4.86603685532711E-8,0,-42.26655,-43.4915,0.6016136,-0.18641107,-1.0110109,1.191147,-23.977362,-5.932841,-145.77525,147.85309,39,653,1371,1519.0,1.070412,0.10697524,0.7884777,1.3337626,1.075744267023986,-1.0697852834055317,16.19305077608719,16.064902136908724,171.56515197657876,171.56515197657882,-118.57135563241934,14.123382458550383,-28.08734386814615,-28.424266132698726,,0.022051288201170065,-144.88705291835015,-144.88705291835015,47.43,NONE,0.0,0.0,0.0,NONE,1.520813857824796E-8,6.252936771842325E-8,0.0040359497,16.52,16.52,5.897,1.3123887,0,2887,4.124,12.0,1.319,80,22.8,OK,76,0,0,0,0,0,65,100,0.0,0,0.0,589232.0,2.69E-43,0.0,-5.9807744E7,62,4.5299385E-7,-4.5299575E-7,9.4E-44,False,False,0,None,0.0,1.0842022E-19,
314393256,81.709,0.0,0.0,0,-42.388092,-42.33705,0.28055477,0.5716938,-0.78630054,1.0118365,27.11777,13.494763,-16.125803,34.315063,-233,-441,1481,1562.0,0.0,0.0,0.047412783,0.047412783,0.0,0.0,-29.416961664805694,15.763340383119061,104.33694145056451,104.3369414505645,-174.06611336316078,-13.974925948784842,-26.65501517398841,-61.66948767932227,,0.0,,,47.78,1.2807809589843728,,0.0,0.0,20151018,119,2015-10-18T00:01:19Z,-17.0,99.99,99.99,3.75E7,0,0,0,0.0,0.0,0.0,0,0,0,0,0,0,,,,1154055,17,94,94,3377,3613,4262,4273,-1137,17060,23,0,17057,0,false,false,false,false,false,false,false,false,false,false,0,0,0,0,47,59,59,47,944,945,944,944,940,940,940,940,0.0,0.0,0.0,0.0,1643.5,1636.7,1637.3,1642.3,0.0,0.0,0.0,0.0,0,0,0,0,-45.0,1.0158995095485112E-9,8.630226464034381E-10,0,-42.398663,-43.907215,0.2815723,0.566016,-0.78067356,1.0045438,24.006973,11.678295,-22.784916,35.098003,-233,-435,1481,1561.0,0.01584819,0.023629494,0.37877518,0.37984228,0.028452031500454767,-0.02318738443778578,-28.682669263913684,15.099957425553146,122.07153573564624,122.07153573564625,-172.79786306247544,-16.945936706961202,-26.533361700833787,-62.97737450484041,,0.032184095682266003,,,47.77,NONE,0.0,0.0,0.0,NONE,-1.7433634717739685E-10,1.2683935561412218E-9,0.0018844604,16.518,16.518,5.897,1.3135012,0,2887,4.125,12.0,1.326,80,22.8,OK,77,0,0,0,0,0,65,100,0.0,0,0.0,589232.0,2.69E-43,0.0,-5.9807744E7,62,4.5299385E-7,-4.5299575E-7,9.4E-44,False,False,0,None,0.0,1.0842022E-19,
318316022,82.729,0.0,0.0,0,-42.0763,-42.191574,0.2506175,0.4226509,-0.8451975,0.9776511,3.0102944,0.3435102,-3.2897863,4.4724226,-288,-326,1496,1557.0,0.0,0.0,-0.02847645,0.02847645,0.0,0.0,-25.961754263950603,15.564765109799193,97.67727250346238,97.6772725034624,-179.13467455031022,-8.353748161251069,-24.08712044709934,-71.3993430057715,,0.0,,,48.07,1.5925714252929666,,0.0,0.0,20151018,120,2015-10-18T00:01:20Z,-17.0,99.99,99.99,3.75E7,0,0,0,0.0,0.0,0.0,0,0,0,0,0,0,,,,1154055,17,94,94,3377,3613,4262,4273,-1137,17060,23,0,17057,0,false,false,false,false,false,false,false,false,false,false,0,0,0,0,47,59,57,47,943,946,944,944,940,940,940,940,0.0,0.0,0.0,0.0,1643.5,1637.3,1637.3,1642.3,0.0,0.0,0.0,0.0,0,0,0,0,-45.0,1.019296259819227E-9,-1.8686149919306936E-9,0,-41.98646,-44.18502,0.25009888,0.42360204,-0.84486425,0.97764194,3.074846,0.20816159,-3.3970995,4.5867524,-288,-326,1493,1555.0,-0.042480987,0.023019005,0.32503632,0.32860783,0.048316754982666126,-0.04801882295153474,-24.803103974631647,15.138804029035327,115.19790360599744,115.19790360599745,-178.32546291314512,-10.66307802295643,-23.680218900692743,-71.32766266801254,,0.03489147848095428,,,48.05,NONE,0.0,0.0,0.0,NONE,1.9099234434416797E-9,-2.8460380483028744E-9,0.0017471313,16.516,16.516,5.897,1.3148172,0,2887,4.125,12.0,1.313,80,22.8,OK,78,0,0,0,0,0,65,100,0.0,0,0.0,589232.0,2.69E-43,0.0,-5.9807744E7,62,4.5299385E-7,-4.5299575E-7,9.4E-44,False,False,0,None,0.0,1.0842022E-19,
322292206,83.762,0.0,0.0,0,-42.208416,-42.02922,0.24919987,0.37395108,-0.8862812,0.9936973,3.9502425,-0.3094661,-0.7931601,4.0409513,-311,-204,1490,1535.0,0.0,0.0,-0.07740106,0.07740106,0.0,0.0,-21.759256820008947,14.186692420055675,91.05563320990973,91.05563320990973,-183.62881579674885,-1.9092366319226692,-22.753250099749494,-81.20083545239343,,0.0,,,48.44,1.460457014892576,,0.0,0.0,20151018,121,2015-10-18T00:01:21Z,-17.0,99.99,99.99,3.7500004E7,0,0,0,0.0,0.0,0.0,0,0,0,0,0,0,,,,1154404,20,94,96,3376,3612,4258,4281,-1369,17141,23,2,16508,0,false,false,false,false,false,false,false,false,false,false,0,0,0,0,45,58,58,46,943,945,944,944,940,940,940,940,0.0,0.0,0.0,0.0,1642.9,1637.3,1637.3,1643.5,0.0,0.0,0.0,0.0,0,0,0,0,-45.0,2.5834249987485954E-9,-4.6769797328623435E-9,0,-42.166138,-44.176506,0.2500301,0.36824116,-0.88201255,0.98795885,3.2077625,-0.10405453,-1.2627352,3.4489229,-311,-204,1493,1538.0,-0.10515714,0.058317874,0.17848437,0.21521074,0.12024557029303602,-0.11989967746346189,-20.713984153550275,13.886164210214838,108.67645228341134,108.67645228341132,-182.86188086597983,-4.849831814718098,-22.42381906573739,-81.47511654782559,,0.036449771502160035,,,48.42,NONE,0.0,0.0,0.0,NONE,-2.6955121339907396E-9,3.9503806309752805E-10,0.0010757446,16.516,16.516,5.895,1.3158162,0,2886,4.123,12.0,1.315,80,22.8,OK,79,0,0,0,0,0,65,100,0.0,0,0.0,589232.0,2.69E-43,0.0,-5.9807744E7,62,4.5299385E-7,-4.5299575E-7,9.4E-44,False,False,0,None,0.0,1.0842022E-19,
326223949,84.784,0.0,0.0,0,-42.034023,-41.95103,0.35141912,0.34921128,-0.8130973,0.9521403,14.855644,34.974564,-38.21245,53.889717,-607,-346,1399,1563.0,0.0,0.0,-0.09101004,0.09101004,0.0,0.0,-24.949750725923074,23.583247608938226,67.69460022570497,67.69460022570496,-204.37069309472105,2.106965134074551,-3.751876048175766,-88.01737584534544,,0.0,,,48.71,1.6348497150878885,,0.0,0.0,20151018,122,2015-10-18T00:01:22Z,-17.0,99.99,99.99,3.7500004E7,0,0,0,0.0,0.0,0.0,0,0,0,0,0,0,,,,1154627,48,92,97,3290,3612,4240,4252,-1182,16997,24,212,17002,0,false,false,false,false,false,false,false,false,false,false,0,0,0,0,46,58,59,45,944,945,944,944,940,940,940,940,0.0,0.0,0.0,0.0,1643.5,1637.3,1636.1,1642.9,0.0,0.0,0.0,0.0,0,0,0,0,-45.0,-6.371534140080512E-9,8.074722769378926E-9,0,-42.081585,-43.861683,0.34229347,0.35120845,-0.80997694,0.94687635,15.85056,34.207478,-39.235367,54.413284,-592,-343,1405,1562.0,0.18116325,-0.14250274,-0.097826466,0.25039405,0.23049328560265836,-0.2287976875871454,-23.919112650517,23.50009927146156,86.18002588953087,86.18002588953084,-202.98384095895454,-1.2704240308064938,-4.167923284034352,-84.49468521816793,,0.03888243027804796,,,48.68,NONE,0.0,0.0,0.0,NONE,-9.182517504519518E-9,4.899012018951952E-9,-4.9591064E-4,16.517,16.517,5.899,1.3162507,0,2886,4.123,12.0,1.31,80,22.8,OK,80,0,0,0,0,0,65,100,0.0,0,0.0,589232.0,2.69E-43,0.0,-5.9807744E7,62,4.5299385E-7,-4.5299575E-7,9.4E-44,False,False,0,None,0.0,1.0842022E-19,
330079812,85.786,0.0,0.0,0,-42.044594,-42.10228,0.5320126,0.3737675,-0.79309094,1.0255402,58.50791,-65.85154,15.629136,89.464355,-822,-126,1213,1470.0,0.0,0.0,0.07719926,0.07719926,0.0,0.0,-17.28275750246445,29.62862631881642,67.76071822949733,67.76071822949734,-201.6015515910689,7.309986211867782,2.1652542841961857,-117.20770324224523,,0.0,,,49.02,1.6242791889648416,,0.0,0.0,20151018,123,2015-10-18T00:01:23Z,-17.0,99.99,99.99,3.7500004E7,0,0,0,0.0,0.0,0.0,0,0,0,0,0,0,,,,1154627,48,92,97,3290,3612,4240,4252,-1182,16997,24,212,17002,0,false,false,false,false,false,false,false,false,false,false,0,0,0,0,47,57,58,47,943,944,944,944,940,940,940,940,0.0,0.0,0.0,0.0,1644.1,1638.0,1637.3,1642.9,0.0,0.0,0.0,0.0,0,0,0,0,-45.0,1.3411499526435219E-8,-1.731403000538712E-8,0,-42.049877,-43.715744,0.45648468,0.31371656,-0.9112831,1.0664114,45.68859,-65.38554,24.73666,83.51418,-710,-22,1292,1474.0,-0.3889571,0.30055106,-0.13047594,0.5085691,0.4915471225280633,-0.4879757472724455,-11.806425158713623,24.10977088491896,85.24886178495494,85.24886178495495,-199.47455372570377,10.294946712805586,-2.849238808184709,-118.0951169709796,,0.046337735399366746,,,49.03,NONE,0.0,0.0,0.0,NONE,1.1438197566667283E-8,-2.2748223870793172E-8,-3.3569336E-4,16.516,16.516,5.899,1.315927,0,2886,4.123,12.0,1.3,80,22.9,OK,81,0,0,0,0,0,65,100,0.0,0,0.0,589232.0,2.69E-43,0.0,-5.9807744E7,62,4.5299385E-7,-4.5299575E-7,9.4E-44,False,False,0,None,0.0,1.0842022E-19,
333977511,86.799,0.0,0.0,0,-42.22427,-42.229145,0.21391313,0.13732854,-0.94012237,0.973883,29.452305,-69.60207,132.95901,152.93785,-141,176,1490,1506.0,0.0,0.0,-0.054909974,0.054909974,0.0,0.0,-8.89902542215601,11.182562390838587,99.25885607287971,99.25885607287972,-167.72008511152106,9.721814981002176,-22.865849909423662,-70.66558221949562,,0.0,,,49.31,1.4446031330566385,,0.0,0.0,20151018,124,2015-10-18T00:01:24Z,-17.0,99.99,99.99,3.7500004E7,0,0,0,0.0,0.0,0.0,0,0,0,0,0,0,,,,1154662,16,92,99,3290,3612,4263,4275,-531,17049,24,0,16416,0,false,false,false,false,false,false,false,false,false,false,0,0,0,0,47,60,59,47,943,944,943,943,940,940,940,940,0.0,0.0,0.0,0.0,1641.7,1636.7,1636.7,1642.3,0.0,0.0,0.0,0.0,0,0,0,0,-45.0,-1.0393266987674208E-8,-9.728801068748344E-10,0,-42.049877,-43.650776,0.19982414,0.17838638,-0.9454112,0.98262596,17.303741,-61.391876,138.07367,152.09444,-155,173,1487,1505.0,-0.022494782,-0.2315764,-0.22778909,0.32560945,0.23266637587944713,-0.2294969339267753,-8.708661141892598,11.527598428068819,114.98275466803592,114.98275466803591,-170.4940974565594,9.111046220945715,-22.534758957476093,-70.97133751730584,,0.060279472619302825,-106.28449108792782,-106.28449108792782,49.31,NONE,0.0,0.0,0.0,NONE,9.291261900056352E-9,-1.4586759629796672E-8,-2.0217896E-4,16.516,16.516,5.896,1.31448,0,2885,4.122,12.0,1.292,80,22.9,OK,82,0,0,0,0,0,65,100,0.0,0,0.0,589232.0,2.69E-43,0.0,-5.9807744E7,62,4.5299385E-7,-4.5299575E-7,9.4E-44,False,False,0,None,0.0,1.0842022E-19,
337900097,87.819,0.0,0.0,0,-41.98118,-42.189358,-0.57612467,-0.22188988,-0.79454654,1.0062102,-5.2862487,-1.7149403,-12.334122,13.528341,1079,736,863,1565.0,0.07658355,-0.10900745,0.02403287,0.13537076,0.13322035490675965,-0.13322035490675965,12.924340089293949,-36.03624137878142,121.91445200004829,121.9144520000483,-146.12829582270058,33.15279265957526,-67.63529359050519,-61.825321127469564,,0.0,,,49.59,1.6876947163085916,,0.0,0.0,20151018,125,2015-10-18T00:01:25Z,-17.0,99.99,99.99,3.7500004E7,0,0,0,0.0,0.0,0.0,0,0,0,0,0,0,,,,1154662,20,92,100,3290,3612,4263,4275,-531,17049,24,2,16416,0,false,false,false,false,false,false,false,false,false,false,0,0,0,0,47,59,58,47,943,944,944,944,940,940,940,940,0.0,0.0,0.0,0.0,1642.9,1636.7,1636.1,1642.9,0.0,0.0,0.0,0.0,0,0,0,0,-45.0,-7.84691142552472E-9,6.9502961045838415E-9,0,-42.034023,-43.952793,-0.5852941,-0.22816578,-0.81318516,1.0275694,-6.5362077,2.0331848,-13.603851,15.22894,1079,736,860,1563.0,0.15475647,-0.1751876,0.10406774,0.25587177,0.23375256858271207,-0.23284483798044062,12.669629134592162,-34.38555638756407,139.70670969554777,139.70670969554777,-146.72022262173024,31.748523882265854,-70.29747262117675,-58.42402154497602,,0.06911923650257414,,,49.6,NONE,0.0,0.0,0.0,NONE,-8.764655737773233E-9,7.80800615272275E-9,7.247925E-4,16.513,16.513,5.895,1.3126298,0,2885,4.122,12.0,1.328,80,22.9,OK,83,0,0,0,0,0,65,100,0.0,0,0.0,589232.0,2.69E-43,0.0,-5.9807744E7,62,4.5299385E-7,-4.5299575E-7,9.4E-44,False,False,0,None,0.0,1.0842022E-19,
341847410,88.845,0.0,0.0,0,-42.26126,-42.267735,-0.59885216,-0.223646,-0.76391286,0.9960945,-1.215369,-0.36465505,0.66519105,1.4326807,985,725,863,1496.0,0.15401666,-0.043118924,0.03009059,0.16274463,0.15993865280585604,-0.15993865280585604,12.145287574805835,-36.71043146950001,122.74550681022998,122.74550681022998,-144.84727953028846,32.8813267670966,-67.64676485393507,-69.78485390562011,,0.0,,,49.94,1.4076120136718728,,0.0,0.0,20151018,126,2015-10-18T00:01:26Z,-17.0,99.99,99.99,3.7500004E7,0,0,0,0.0,0.0,0.0,0,0,0,0,0,0,,,,1154935,48,89,101,3186,3612,4213,4225,-1161,16892,26,212,16887,0,false,false,false,false,false,false,false,false,false,false,0,0,0,0,46,58,58,46,943,944,944,944,940,940,940,940,0.0,0.0,0.0,0.0,1642.3,1637.3,1636.7,1641.7,0.0,0.0,0.0,0.0,0,0,0,0,-45.0,-7.5034185821196E-9,1.6647682479168916E-8,0,-42.356384,-44.02619,-0.5991583,-0.22352672,-0.7686514,0.9998899,0.23955165,0.16854379,1.0044137,1.0462499,985,728,866,1500.0,0.18654607,-0.08435131,0.052703403,0.21140537,0.20473051128862654,-0.20367876355252165,12.374953097517903,-35.48105206915822,141.0217224110319,141.02172241103187,-145.77384771972862,32.5803971283064,-70.16953200039377,-67.23140380440013,,0.07307727595894799,,,49.91,NONE,0.0,0.0,0.0,NONE,-4.157036798087194E-9,9.20631127385666E-9,3.3569336E-4,16.513,16.513,5.895,1.3121555,0,2884,4.122,12.0,1.338,80,22.9,OK,84,0,0,0,0,0,65,100,0.0,0,0.0,589232.0,2.69E-43,0.0,-5.9807744E7,62,4.5299385E-7,-4.5299575E-7,9.4E-44,False,False,0,None,0.0,1.0842022E-19,
345696952,89.845,0.0,0.0,0,-42.287685,-42.25514,-0.5815312,-0.21893898,-0.7622972,0.9834683,-4.357192,-4.7841973,-1.593973,6.664414,942,699,900,1478.0,0.19561793,-0.06577061,-0.020467926,0.20739114,0.20637865497152943,-0.20637865497152943,11.246162932447962,-36.056354605179855,119.45061283402735,119.45061283402737,-147.07834431237833,30.998369352732237,-67.0749966828041,-72.40386950328472,,0.0,,,50.21,1.3811876057128885,,0.0,0.0,20151018,127,2015-10-18T00:01:27Z,-17.0,99.99,99.99,3.7500004E7,0,0,0,0.0,0.0,0.0,0,0,0,0,0,0,,,,1154935,17,89,102,3186,3612,4213,4225,-1161,16892,26,0,16887,0,false,false,false,false,false,false,false,false,false,false,0,0,0,0,48,60,60,47,943,945,944,944,940,940,940,940,0.0,0.0,0.0,0.0,1642.3,1636.7,1637.3,1641.7,0.0,0.0,0.0,0.0,0,0,0,0,-45.0,-4.331310445266252E-9,6.8283913042756575E-9,0,-42.218987,-44.07408,-0.58399034,-0.21729638,-0.7647154,0.986434,-4.256216,-3.3687372,-1.2760155,5.5760183,944,702,897,1479.0,0.077178225,-0.048088044,0.04422014,0.10111557,0.09093370332198795,-0.08978683736168917,11.518625356180095,-35.43114546381026,137.71257608592663,137.71257608592663,-147.62969464413854,30.242908760503624,-69.78119757928096,-70.67804100408352,,0.07694865487958466,,,50.21,NONE,0.0,0.0,0.0,NONE,-2.642319318663584E-9,4.0827485350573025E-9,2.0599365E-4,16.513,16.513,5.897,1.3133047,0,2884,4.122,12.0,1.317,80,22.9,OK,85,0,0,0,0,0,65,100,0.0,0,0.0,589232.0,2.69E-43,0.0,-5.9807744E7,62,4.5299385E-7,-4.5299575E-7,9.4E-44,False,False,0,None,0.0,1.0842022E-19,
349632852,90.868,0.0,0.0,0,-42.52021,-42.263638,-0.601468,-0.30577806,-0.72744375,0.9921887,-86.1889,29.257463,-63.07744,110.73974,870,554,1113,1517.0,0.3765856,-0.18256135,0.06672238,0.42378914,0.4185037308655383,-0.4185037308655383,3.9661841115450915,-27.212630257437507,105.59146203733621,105.59146203733621,-155.0029913728616,16.58525169854938,-59.45904388621028,-62.42385907771365,,0.0,,,50.58,1.1486627338867166,,0.0,0.0,20151018,128,2015-10-18T00:01:28Z,-17.0,99.99,99.99,3.7500004E7,0,0,0,0.0,0.0,0.0,0,0,0,0,0,0,,,,1154935,17,89,102,3186,3612,4213,4225,-1161,16892,26,0,16887,0,false,false,false,false,false,false,false,false,false,false,0,0,0,0,47,58,59,48,943,945,944,944,940,940,940,940,0.0,0.0,0.0,0.0,1641.1,1636.7,1637.3,1641.7,0.0,0.0,0.0,0.0,0,0,0,0,-45.0,-1.752432565219162E-9,7.580878841837488E-9,0,-42.208416,-44.106876,-0.6077855,-0.3018858,-0.71823275,0.9881278,-81.76191,30.63428,-59.30054,105.54631,875,560,1100,1513.0,0.17791514,-0.040462326,0.11525871,0.21581374,0.18245820657772596,-0.18216618434445536,4.938175708090965,-27.69934049958692,125.12173383283165,125.12173383283164,-154.52177979081708,18.34728447209128,-63.17907129447653,-62.329373403744434,,0.079360163506279,,,50.58,NONE,0.0,0.0,0.0,NONE,-1.492302190937596E-10,1.6610017681038344E-9,2.670288E-4,16.515,16.515,5.899,1.3143786,0,2883,4.122,12.0,1.298,80,22.9,OK,86,0,0,0,0,0,65,100,0.0,0,0.0,589232.0,2.69E-43,0.0,-1.05007105E-23,62,4.5299385E-7,-4.5299575E-7,9.4E-44,False,False,0,None,0.0,1.0842022E-19,
353486833,91.870,0.0,0.0,0,-42.298256,-42.396763,-0.08925403,0.2554659,-1.0259666,1.0610545,28.611393,8.323057,35.240936,46.14985,85,-92,1411,1416.0,0.8697044,-0.3746239,-0.18606952,0.9650651,0.946957693486287,-0.946957693486287,-15.844742564305033,-7.210597997478249,48.32086823007936,48.320868230079384,-201.44695385207433,-23.808916883983763,-37.71173586614289,-106.73063002543472,,0.0,,,50.81,1.3706170795898416,,0.0,0.0,20151018,129,2015-10-18T00:01:29Z,-17.0,99.99,99.99,3.7500004E7,0,0,0,0.0,0.0,0.0,0,0,0,0,0,0,,,,1316154,20,89,104,3177,3620,4233,4246,-602,16963,22,2,16256,0,false,false,false,false,false,false,false,false,false,false,0,0,0,0,48,58,61,48,943,944,944,944,940,940,940,940,0.0,0.0,0.0,0.0,1640.5,1636.7,1636.1,1641.7,0.0,0.0,0.0,0.0,0,0,0,0,-45.0,1.000438689238307E-9,2.9176734365096282E-8,0,-42.425087,-44.211994,-0.10498956,0.27277398,-1.0455053,1.0855919,29.73495,13.159,35.21264,47.929703,97,-106,1414,1421.0,0.6506203,0.023319464,-0.1387735,0.6656641,0.6510380681256343,-0.6486212324648358,-15.243674771406086,-7.700475651378483,66.12867702878313,66.12867702878316,-203.2215558841016,-23.467190197324875,-41.2317264689071,-108.5451043864204,,0.08524401496054394,,,50.8,NONE,0.0,0.0,0.0,NONE,-7.261358540802738E-10,2.9049299380432166E-8,2.1743774E-4,16.511,16.511,5.894,1.3146152,0,2883,4.123,12.0,1.322,80,22.9,OK,87,0,0,0,0,0,65,100,0.0,0,0.0,589232.0,2.69E-43,0.0,-1.05007105E-23,62,4.5299385E-7,-4.5299575E-7,9.4E-44,False,False,0,None,0.0,1.0842022E-19,
357343395,92.872,0.0,0.0,0,-41.98118,-42.023285,-0.07499476,0.0024433741,-0.89726204,0.900394,30.671015,-21.965158,14.396062,40.378532,-155,332,1386,1433.0,0.8709392,-0.51180816,-6.72102E-4,1.0101897,1.0101894175548984,-1.0101894175548984,4.186190878224014,-0.7722273709858255,49.86342303543409,49.863423035434096,-201.16499468781174,-5.69846438527361,-31.89152512864677,-127.10647189705784,,0.0,,,51.14,1.6876947163085916,,0.0,0.0,20151018,130,2015-10-18T00:01:30Z,-17.0,99.99,99.99,3.7500004E7,0,0,0,0.0,0.0,0.0,0,0,0,0,0,0,,,,1316156,114,88,105,3176,3620,4167,4190,-2879,16855,22,3611,16942,0,false,false,false,false,false,false,false,false,false,false,0,0,0,0,47,60,60,48,944,945,944,945,940,940,940,940,0.0,0.0,0.0,0.0,1641.1,1636.1,1636.1,1641.1,0.0,0.0,0.0,0.0,0,0,0,0,-45.0,2.5319681773647122E-9,6.306535043433688E-8,0,-41.944183,-43.995823,-0.04655108,-0.015932694,-0.9001398,0.9014835,40.5707,-25.99537,11.613544,49.56426,-167,317,1386,1431.0,0.69962573,0.028014554,0.10405727,0.7078763,0.7001863955218584,-0.6964229750458085,4.137626274309335,-0.987412340554645,68.73392961867502,68.733929618675,-203.48056140398035,-4.01860585817966,-34.96866520953776,-131.49110793339707,,0.09319559297719156,1.9162591719964612,1.9162591719964612,51.15,NONE,0.0,0.0,0.0,NONE,-3.080795542627419E-10,2.7374973349966442E-8,8.049011E-4,16.509,16.509,5.895,1.3154404,0,2883,4.122,12.0,1.35,80,22.9,OK,88,0,0,0,0,0,65,100,0.0,0,0.0,589232.0,2.69E-43,0.0,-1.05007105E-23,62,4.5299385E-7,-4.5299575E-7,9.4E-44,False,False,0,None,0.0,1.0842022E-19,
361241176,93.885,0.0,0.0,0,-41.57426,-41.72487,-0.051081974,-0.106513835,-0.92490613,0.9324194,13.636472,27.219864,-2.7751,30.57083,-106,502,1344,1438.0,0.13961418,-0.037933916,-0.4081322,0.43301615,0.14467585263427007,-0.14467585263427007,11.073481658008554,-2.2709336468306747,38.89005726054886,38.89005726054887,-212.56696950652756,1.504050661318889,-34.44281515056018,-124.63655117626915,,0.0,,,51.43,2.094612288330076,,0.0,0.0,20151018,131,2015-10-18T00:01:31Z,-17.0,99.99,99.99,3.7500004E7,0,0,0,0.0,0.0,0.0,0,0,0,0,0,0,,,,1316273,48,86,106,3096,3620,4161,4173,-1039,16680,23,212,16674,0,false,false,false,false,false,false,false,false,false,false,0,0,0,0,47,59,59,47,944,944,944,944,940,940,940,940,0.0,0.0,0.0,0.0,1642.3,1637.3,1636.7,1640.5,0.0,0.0,0.0,0.0,0,0,0,0,-45.0,6.001259823302995E-9,5.766703058354043E-9,0,-41.80678,-43.953014,-0.039195567,-0.11763015,-0.94873434,0.95680195,18.618156,33.189884,-1.7541232,38.095684,-98,491,1350,1439.0,0.12683569,0.13553196,-0.25257185,0.31344655,0.18562382558007992,-0.1793228511307329,11.064044427839068,-3.3336815964518376,58.42304777812164,58.423047778121656,-215.21055547955487,3.9887960362048243,-38.86843558005111,-128.99031608410587,,0.10236173305070295,,,51.43,NONE,0.0,0.0,0.0,NONE,2.3749834785137663E-9,3.65920604030787E-9,-0.0010757446,16.51,16.51,5.894,1.3175609,0,2882,4.122,12.0,1.319,80,22.9,OK,89,0,0,0,0,0,65,100,0.0,0,0.0,589232.0,2.69E-43,0.0,-1.05007105E-23,62,4.5299385E-7,-4.5299575E-7,9.4E-44,False,False,0,None,0.0,1.0842022E-19,
365185041,94.910,0.0,0.0,0,-41.764507,-41.654915,0.1622336,-0.2641757,-0.9017803,0.9535808,3.3255796,0.37588936,10.642579,11.1564,-420,661,1204,1436.0,-0.05419819,0.09755252,0.009892918,0.11203485,0.11159721279246453,-0.11159721279246453,17.269805608988,9.676922812741758,39.50170655757807,39.501706557578075,-211.19659154738915,8.763972987773023,-21.400619180451308,-124.44663395719212,,0.0,,,51.78,1.904365706298826,,0.0,0.0,20151018,132,2015-10-18T00:01:32Z,-17.0,99.99,99.99,3.7500004E7,0,0,0,0.0,0.0,0.0,0,0,0,0,0,0,,,,1316274,17,86,107,3096,3620,4161,4173,-1039,16680,23,0,16674,0,false,false,false,false,false,false,false,false,false,false,0,0,0,0,47,59,60,48,944,945,944,944,940,940,940,940,0.0,0.0,0.0,0.0,1641.7,1637.3,1636.1,1641.1,0.0,0.0,0.0,0.0,0,0,0,0,-45.0,4.131465192660942E-9,2.782153076861878E-9,0,-41.775074,-43.856503,0.169876,-0.26132792,-0.8932817,0.94609845,0.8538353,-0.22330786,7.963474,8.012229,-414,667,1201,1434.0,0.06270553,0.09272478,0.03012183,0.115918905,0.11193689576075892,-0.1115548290083442,16.80445293649897,8.794851294723925,59.28093496767869,59.28093496767872,-213.78778017268743,11.334056367429234,-25.132897869031225,-124.98545867067178,,0.10610977186056764,,,51.77,NONE,0.0,0.0,0.0,NONE,3.987096827644559E-9,2.680419226696032E-9,1.18255615E-4,16.509,16.509,5.893,1.3198398,0,2882,4.122,12.0,1.328,80,22.9,OK,90,0,0,0,0,0,65,100,0.0,0,0.0,589232.0,2.69E-43,0.0,-1.05007105E-23,62,4.5299385E-7,-4.5299575E-7,9.4E-44,False,False,0,None,0.0,1.0842022E-19,
369111317,95.930,0.0,0.0,0,-41.764507,-41.703384,0.18428986,-0.3251848,-0.9107989,0.9845114,0.20010968,-1.4042877,1.3380774,1.9500048,-443,705,1152,1421.0,-0.024525572,0.0123060495,0.09934358,0.103063524,0.02743979810774408,-0.02743979810774408,18.95532457750084,11.312395700988509,41.78015800307999,41.780158003079976,-208.4675343608268,9.73108927212622,-18.826006930399554,-120.99446481768102,,0.0,,,52.06,1.904365706298826,,0.0,0.0,20151018,133,2015-10-18T00:01:33Z,-17.0,99.99,99.99,3.7500004E7,0,0,0,0.0,0.0,0.0,0,0,0,0,0,0,,,,1409592,16,86,108,3089,3617,4207,4220,-617,16854,22,0,16157,0,false,false,false,false,false,false,false,false,false,false,0,0,0,0,46,61,60,47,943,944,943,944,940,940,940,940,0.0,0.0,0.0,0.0,1640.5,1636.1,1634.9,1641.1,0.0,0.0,0.0,0.0,0,0,0,0,-45.0,-6.909200907994809E-10,6.6416141092913E-9,0,-41.558407,-43.883575,0.18424281,-0.32474682,-0.91057605,0.9841517,0.6662557,-0.6129168,1.7659025,1.9844333,-443,707,1149,1419.0,0.14829779,-0.015339319,0.10936415,0.1849001,0.14908899212787213,-0.14841592652117652,18.346707890007956,10.47977884383338,61.8652942281389,61.86529422813891,-211.12527640265216,12.502905897985265,-22.905885299058827,-122.45507811594722,,0.10924756677728818,,,52.06,NONE,0.0,0.0,0.0,NONE,-3.591472630542279E-10,5.657472950325714E-9,5.264282E-4,16.508,16.508,5.894,1.3221577,0,2882,4.121,12.0,1.347,80,22.9,OK,91,0,0,0,0,0,65,100,0.0,0,0.0,589232.0,2.69E-43,0.0,-1.05007105E-23,62,4.5299385E-7,-4.5299575E-7,9.4E-44,False,False,0,None,0.0,1.0842022E-19,
372970443,96.933,0.0,0.0,0,-41.75922,-41.806496,0.12288823,-0.32443428,-0.93278974,0.9952165,-3.934431,2.046694,9.973235,10.914858,-345,713,1170,1412.0,0.13522036,0.13938758,0.13257518,0.23513746,0.1941994998012528,-0.1941994998012528,18.036673540817496,9.263481837355977,49.4523956486053,49.45239564860532,-201.4508793263149,8.150536318973595,-18.10342800060604,-111.73851274712396,,0.0,,,52.34,1.9096528767089822,,0.0,0.0,20151018,134,2015-10-18T00:01:34Z,-17.0,99.99,99.99,3.7500004E7,0,0,0,0.0,0.0,0.0,0,0,0,0,0,0,,,,1409592,20,86,109,3089,3617,4207,4220,-617,16854,22,2,16157,0,false,false,false,false,false,false,false,false,false,false,0,0,0,0,46,61,60,47,943,944,944,944,940,940,940,940,0.0,0.0,0.0,0.0,1640.5,1636.1,1636.1,1641.1,0.0,0.0,0.0,0.0,0,0,0,0,-45.0,7.121101911181617E-9,8.031619885538874E-9,0,-41.785645,-43.97454,0.12045821,-0.3182382,-0.9359514,0.9958869,-3.623131,3.162462,11.7523,12.698221,-348,713,1170,1413.0,0.17861246,0.15744247,0.13935846,0.27588278,0.23809775338022215,-0.23721806490853287,17.473791053070077,8.664628487395316,69.6289362809688,69.62893628096879,-203.9406276315075,10.502121286896124,-22.749057266753592,-113.60088355136733,,0.1174109518106225,,,52.33,NONE,0.0,0.0,0.0,NONE,7.31760887530733E-9,8.055179301220026E-9,7.019043E-4,16.507,16.507,5.893,1.325178,0,2881,4.121,12.0,1.343,80,23.0,OK,92,0,0,0,0,0,65,100,0.0,0,0.0,589232.0,2.69E-43,0.0,-1.05007105E-23,62,4.5299385E-7,-4.5299575E-7,9.4E-44,False,False,0,None,0.0,1.0842022E-19,
376911901,97.958,0.0,0.0,0,-42.09744,-41.86856,0.19006753,-0.25097075,-0.9370323,0.9885047,-6.6871443,3.3825085,5.1979065,9.12017,-334,664,1207,1417.0,0.09035025,0.06962072,0.11913963,0.16493775,0.11406231318419326,-0.11406231318419326,14.807092140656179,9.636455590477734,51.798464181969464,51.79846418196945,-199.666562245959,4.695848404475115,-17.26325461763311,-107.5619939300977,,0.0,,,52.64,1.5714341877441385,,0.0,0.0,20151018,135,2015-10-18T00:01:35Z,-17.0,99.99,99.99,3.7500004E7,0,0,0,0.0,0.0,0.0,0,0,0,0,0,0,,,,1409594,114,86,110,3088,3617,4139,4160,-2865,16747,22,3616,16823,0,false,false,false,false,false,false,false,false,false,false,0,0,0,0,47,61,60,47,943,944,944,944,940,940,940,940,0.0,0.0,0.0,0.0,1641.1,1636.1,1636.1,1641.1,0.0,0.0,0.0,0.0,0,0,0,0,-45.0,2.5983629067785447E-9,2.3880683250182496E-9,0,-42.049877,-44.007618,0.18869725,-0.25071442,-0.94004583,0.9910351,-9.238147,4.80033,4.148836,11.207112,-331,670,1204,1417.0,0.053294618,0.05864465,0.114990816,0.13965099,0.07924336803301198,-0.07845831278439618,14.516629797288294,9.350226060264252,72.25540940516701,72.25540940516703,-202.00526157826857,6.973901453206268,-22.166985354354292,-107.5899721439607,,0.11879538637157067,,,52.61,NONE,0.0,0.0,0.0,NONE,-3.5780866697505246E-10,3.0648661575236816E-9,4.6539307E-4,16.505,16.505,5.893,1.3288279,0,2881,4.12,12.0,1.353,80,23.0,OK,93,0,0,0,0,0,65,100,0.0,0,0.0,589232.0,2.69E-43,0.0,-1.05007105E-23,62,4.5299385E-7,-4.5299575E-7,9.4E-44,False,False,0,None,0.0,1.0842022E-19,
380767898,98.960,0.0,0.0,0,-41.875484,-41.95282,0.122229196,-0.24945775,-0.9598084,0.99920034,3.7346978,-4.217377,2.7446263,6.2663555,-253,650,1234,1417.0,0.041669574,0.023008201,0.04205016,0.06351335,0.04759969159479543,-0.04759969159479543,14.006888206878717,7.396550043635233,57.9565868102988,57.9565868102988,-194.1448392391064,3.2720755221306295,-18.135531915215253,-102.9765725895918,,0.0,,,52.91,1.7933885334472635,,0.0,0.0,20151018,136,2015-10-18T00:01:36Z,-17.0,99.99,99.99,3.7500004E7,0,0,0,0.0,0.0,0.0,0,0,0,0,0,0,,,,1409724,48,81,111,2925,3617,4099,4112,-1088,16409,23,212,16410,0,false,false,false,false,false,false,false,false,false,false,0,0,0,0,48,60,61,47,943,944,943,944,940,940,940,940,0.0,0.0,0.0,0.0,1642.3,1636.7,1634.9,1641.7,0.0,0.0,0.0,0.0,0,0,0,0,-45.0,2.6828287857763088E-9,-2.5711892683959354E-9,0,-42.06573,-44.030037,0.113976285,-0.25123614,-0.9570386,0.9960085,-0.8281465,0.34243208,1.2313651,1.52294,-242,658,1231,1416.0,-0.028974654,0.029118571,0.013328934,0.043186598,0.041078240136061005,-0.04052790259604009,14.245506511887193,7.1508582929111055,78.92029328665069,78.92029328665069,-196.24483646230112,4.941031495677674,-23.587163704631,-102.04295256230112,,0.12166693529211438,,,52.96,NONE,0.0,0.0,0.0,NONE,1.7508931509596506E-9,-1.022692941386218E-9,1.2207031E-4,16.505,16.505,5.893,1.3327289,0,2880,4.12,12.0,1.344,80,23.0,OK,94,0,0,0,0,0,65,100,0.0,0,0.0,589232.0,2.69E-43,0.0,-1.05007105E-23,62,4.5299385E-7,-4.5299575E-7,9.4E-44,False,False,0,None,0.0,1.0842022E-19,
384665464,99.973,0.0,0.0,0,-41.965324,-41.945717,0.03014088,-0.2869394,-0.9837523,1.0251884,3.3929672,-7.4829707,-1.766802,8.404086,-104,676,1246,1421.0,0.026617903,0.024909412,0.040575646,0.054546997,0.03645533718984805,-0.03645533718984805,14.670275479189923,0.6041447357503447,59.000349358868505,59.000349358868505,-193.13872541969715,4.3690087092272325,-24.633297882171185,-104.81091678254248,,0.0,,,53.26,1.703548598144529,,0.0,0.0,20151018,135533,2015-10-18T13:55:33Z,-17.0,99.99,99.99,3.7500004E7,0,0,0,0.0,0.0,0.0,0,0,0,0,0,0,,,,1409724,17,81,112,2925,3617,4099,4112,-1088,16409,23,0,16410,0,false,false,false,false,false,false,false,false,false,false,0,0,0,0,48,61,60,47,944,945,943,945,940,940,940,940,0.0,0.0,0.0,0.0,1641.1,1636.1,1636.1,1641.7,0.0,0.0,0.0,0.0,0,0,0,0,-45.0,4.090771752854021E-10,-5.343704462497792E-10,0,-41.843777,-44.01272,0.022904413,-0.27087206,-0.9769524,1.0140672,-1.0543816,-9.568158,0.119281195,9.626817,-112,676,1250,1425.0,-0.011586458,0.009430208,0.036638398,0.039566994,0.01493903734245981,-0.014603942684842733,14.752444495103653,0.7096522951757559,79.94980433101678,79.94980433101676,-194.94313752235465,5.626409280370735,-29.224646467524998,-105.79620232850574,,0.12240456915166123,,,53.26,NONE,0.0,0.0,0.0,NONE,7.373027100389323E-10,-7.164204982077644E-10,6.1035156E-5,16.506,16.506,5.894,1.3357344,0,2880,4.12,12.0,1.315,80,23.1,OK,95,0,0,0,0,0,65,100,0.0,0,0.0,589232.0,2.69E-43,0.0,-1.05007105E-23,62,4.5299385E-7,-4.5299575E-7,9.4E-44,False,False,0,None,0.0,1.0842022E-19,
