Tick#,offsetTime,IMU_ATTI(0):Longitude,IMU_ATTI(0):Latitude,IMU_ATTI(0):numSats,IMU_ATTI(0):barometer:Raw,IMU_ATTI(0):barometer:Smooth,IMU_ATTI(0):accel:X,IMU_ATTI(0):accel:Y,IMU_ATTI(0):accel:Z,IMU_ATTI(0):accel:Composite,IMU_ATTI(0):gyro:X,IMU_ATTI(0):gyro:Y,IMU_ATTI(0):gyro:Z,IMU_ATTI(0):gyro:Composite,IMU_ATTI(0):mag:X,IMU_ATTI(0):mag:Y,IMU_ATTI(0):mag:Z,IMU_ATTI(0):mag:Mod,IMU_ATTI(0):velN,IMU_ATTI(0):velE,IMU_ATTI(0):velD,IMU_ATTI(0):velComposite,IMU_ATTI(0):velH,IMU_ATTI(0):GPS-H,IMU_ATTI(0):roll,IMU_ATTI(0):pitch,IMU_ATTI(0):yaw,IMU_ATTI(0):yaw360,IMU_ATTI(0):totalGyro:Z,IMU_ATTI(0):totalGyro:X,IMU_ATTI(0):totalGyro:Y,IMU_ATTI(0):magYaw,IMU_ATTI(0):distanceHP,IMU_ATTI(0):distanceTravelled,IMU_ATTI(0):directionOfTravel[mag],IMU_ATTI(0):directionOfTravel[true],IMU_ATTI(0):temperature,General:relativeHeight,General:absoluteHeight,GPS(0):Long,GPS(0):Lat,GPS(0):Date,GPS(0):Time,GPS:dateTimeStamp,GPS(0):heightMSL,GPS(0):hDOP,GPS(0):pDOP,GPS(0):sAcc,GPS(0):numGPS,GPS(0):numGLNAS,GPS(0):numSV,GPS(0):velN,GPS(0):velE,GPS(0):velD,RC:Aileron,RC:Elevator,RC:Rudder,RC:Throttle,Controller:navHealth,Controller:ctrl_level,HP:Longitude,HP:Latitude,HP:rthHeight,BatBlackBox:tick,BatBlackBox:id,BatBlackBox:rsoc,BatBlackBox:index,BatBlackBox:rm,BatBlackBox:fcc,BatBlackBox:cell_min,BatBlackBox:cell_max,BatBlackBox:current,BatBlackBox:voltage,BatBlackBox:temp,BatBlackBox:flag,BatBlackBox:reserve,BatBlackBox:user_data,OA:avoidObst,OA:emergBrake,OA:radiusLimit,OA:airportLimit,OA:groundForceLanding,OA:horizNearBoundary,OA:vertLowLimit,OA:vertAirportLimit,OA:roofLimit,OA:hitGroundLimit,Motor:Speed:RFront,Motor:Speed:LFront,Motor:Speed:LBack,Motor:Speed:RBack,Motor:EscTemp:RFront,Motor:EscTemp:LFront,Motor:EscTemp:LBack,Motor:EscTemp:RBack,Motor:PPMrecv:RFront,Motor:PPMrecv:LFront,Motor:PPMrecv:LBack,Motor:PPMrecv:RBack,Motor:PPMsend:RFront,Motor:PPMsend:LFront,Motor:PPMsend:LBack,Motor:PPMsend:RBack,Motor:V_out:RFront,Motor:V_out:LFront,Motor:V_out:LBack,Motor:V_out:RBack,Motor:Volts:RFront,Motor:Volts:LFront,Motor:Volts:LBack,Motor:Volts:RBack,Motor:Current:RFront,Motor:Current:LFront,Motor:Current:LBack,Motor:Current:RBack,Motor:Status:RFront,Motor:Status:LFront,Motor:Status:LBack,Motor:Status:RBack,Motor:thrustAngle,IMU_ATTI(1):Longitude,IMU_ATTI(1):Latitude,IMU_ATTI(1):numSats,IMU_ATTI(1):barometer:Raw,IMU_ATTI(1):barometer:Smooth,IMU_ATTI(1):accel:X,IMU_ATTI(1):accel:Y,IMU_ATTI(1):accel:Z,IMU_ATTI(1):accel:Composite,IMU_ATTI(1):gyro:X,IMU_ATTI(1):gyro:Y,IMU_ATTI(1):gyro:Z,IMU_ATTI(1):gyro:Composite,IMU_ATTI(1):mag:X,IMU_ATTI(1):mag:Y,IMU_ATTI(1):mag:Z,IMU_ATTI(1):mag:Mod,IMU_ATTI(1):velN,IMU_ATTI(1):velE,IMU_ATTI(1):velD,IMU_ATTI(1):velComposite,IMU_ATTI(1):velH,IMU_ATTI(1):GPS-H,IMU_ATTI(1):roll,IMU_ATTI(1):pitch,IMU_ATTI(1):yaw,IMU_ATTI(1):yaw360,IMU_ATTI(1):totalGyro:Z,IMU_ATTI(1):totalGyro:X,IMU_ATTI(1):totalGyro:Y,IMU_ATTI(1):magYaw,IMU_ATTI(1):distanceHP,IMU_ATTI(1):distanceTravelled,IMU_ATTI(1):directionOfTravel[mag],IMU_ATTI(1):directionOfTravel[true],IMU_ATTI(1):temperature,IMUEX(0):err,IMUEX(0):rtk_Longitude,IMUEX(0):rtk_Latitude,IMUEX(0):rtk_Alti,IMUEX(1):err,IMUEX(1):rtk_Longitude,IMUEX(1):rtk_Latitude,IMUEX(1):rtk_Alti,MotorCtrl:Status,MotorCtrl:PWM:RFront,MotorCtrl:PWM:LFront,MotorCtrl:PWM:LBack,MotorCtrl:PWM:RBack,BattInfo:Voltage,BattInfo:BatVoltage,BattInfo:AdVoltage,BattInfo:AvgCurrent,BattInfo:R_time,BattInfo:R_CAP_MAH,BattInfo:LowCellVoltage,BattInfo:LowCellVolThreshold,BattInfo:BatCurrent,BattInfo:Remaining%,BattInfo:Temp,BattInfo:status,battery_info:BatDynCnt,battery_info:Vol1Protect,battery_info:Vol2Protect,battery_info:Cap1Protect,battery_info:Cap2Protect,battery_info:Batpresent,battery_info:sopPercentage,battery_info:sopValue,battery_info:sopScale,battery_info:sopFlg,BattInfo:WindHeading:WindDir,battery_info:home_dir,BattInfo:Wind:rangeMin,BattInfo:Wind:rangeMax,battery_info:cap_speed,battery_info:against_wind,battery_info:emergency_land_cap,battery_info:intel_bat_land_cap,battery_info:intel_bat_gh_cap,BattInfo:Smart:SmartGh,BattInfo:Smart:SmartLand,BattInfo:GoHome:CntDown,BattInfo:GoHome:GhCmd,BattInfo:GoHome:CapLevel,BattInfo:GoHome:LandCapLv,Attribute|Value,ConvertDatV3,3.6.6-Tablet
89656441,.000,10.405603421069326,63.41961745277709,14,49.18414,49.376087,0.040450394,-0.007901169,-0.99534696,0.9961999,0.32437345,0.0096903555,-0.21960011,0.391837,278,367,1425,1497.0,0.015515993,-9.95788E-4,0.016967975,0.023014123,0.01554791473755965,-0.01554791473755965,0.4370264291154806,2.2653801311023263,-41.8902589290783,318.1097410709217,-1.4840810639203887,4.1580846922233645,-0.5325726501684936,-46.81709509448034,1.4146106429206975,2.544452006961982,130.00974904637843,133.16783469587824,64.91,,,10.4056029,63.4196179,20190906,73147,2019-09-06T07:31:47Z,31.151,0.85,1.62,12.38,8,6,14,0.0,0.01,-0.01,-9998,-9998,9998,-9998,4,4,10.405611493937794,63.419629651077344,60,10271633,114,99,384,3474,3488,4273,4305,-2996,17317,23,3503,17416,0,false,false,false,false,false,false,false,false,false,false,0,0,0,0,59,76,77,58,944,945,944,945,940,940,940,940,0.0,0.0,0.0,0.0,1555.8,1553.4,1552.1,1554.6,0.0,0.0,0.0,0.0,0,0,0,0,-45.0,10.405603606694763,63.419617017095504,0,49.141865,49.193733,0.040076405,-0.0075832373,-0.9949253,0.99576104,0.35010898,-0.123976395,-0.108118184,0.3868281,278,367,1425,1497.0,7.625465E-4,-0.0010409782,0.0050969464,0.0052577537,0.0012903924948482763,-0.0012903924948482763,0.4072505650559506,2.286121042305589,-45.63878146620138,314.3612185337986,-1.1756429085267086,3.1175234016913524,-0.4719038900115575,-46.833426502080556,1.458615240484801,7104259.653867984,117.70949056665648,120.86757621615631,64.91,NONE,0.0,0.0,0.0,NONE,-6.26440381418859E-11,4.6932916623086336E-11,2.2888184E-5,,,,,,15.661,15.661,5.589,1.3969433,0,2010,3.9,12.0,1.408,58,32.9,OK,21,0,0,0,0,0,65,100,0.0,0,0.0,-1.1764756E-25,8.7E-44,0.0,NaN,62,3.026841E-10,-3.0268596E-10,1.9637464E-35,False,False,0,None,3.188686E31,1.0842106E-19,Firmware Date| Oct 17 2018
93575931,1.019,10.405603301668496,63.419617142337046,14,49.162476,49.356274,0.040284082,-0.0066423207,-0.9953746,0.9962116,0.13443162,-0.049622092,-0.6690626,0.68423605,281,357,1425,1495.0,0.014392516,6.6014077E-4,0.021341788,0.0257498,0.01440764697363329,0.019977619659743463,0.42214574491221635,2.2756433138824272,-41.90052224621417,318.09947775378583,-1.7571508377176581,4.555280511808651,-0.5715573201727588,-45.75619535411773,1.4494018889610243,2.61964589031047,-139.21486372922573,-136.05677807972592,64.94,,,10.4056026,63.4196175,20190906,73148,2019-09-06T07:31:48Z,31.194,0.85,1.62,12.2,8,6,14,-0.01,0.01,-0.01,0,0,0,0,5,5,10.405611493937794,63.419629651077344,60,10272253,48,54,385,1875,3499,3872,3892,-1121,15557,36,212,15552,0,false,false,false,false,false,false,false,false,false,false,567,565,553,560,62,82,81,63,1311,1320,1316,1314,1302,1302,1302,1302,0.1,0.1,0.1,0.1,1541.1,1538.0,1538.0,1541.1,6.62,6.15,6.79,6.5,0,0,0,0,-154.65382405805332,10.405603212478983,63.41961668297528,0,49.162476,49.191685,0.040324446,-0.007494597,-0.9943691,0.9952146,0.19020389,-0.10183719,0.38365483,0.44015834,281,357,1431,1501.0,-0.0025696203,0.0026989055,0.0048942626,0.0061514913,0.0037265319052132337,0.03751605619582469,0.3975011028132404,2.312716800423609,-45.57808738852091,314.4219126114791,-0.9517129566243485,3.040485934322241,-0.49633063577218733,-45.70588569178645,1.4997011972872007,7104259.751137569,175.34610003924382,178.50418568874366,64.95,NONE,0.0,0.0,0.0,NONE,2.442371899052071E-10,-1.2472777079423888E-10,2.2888184E-5,1,22.5,22.5,22.5,22.5,15.596,15.596,5.534,1.4101313,0,2010,3.9,12.0,2.334,58,32.9,OK,22,0,0,0,0,0,65,100,0.0,0,0.0,-6.1133817E-24,8.7E-44,0.0,NaN,62,3.026841E-10,-3.0268596E-10,2.1937392E-35,False,False,0,None,3.8946832E31,1.0842106E-19,ACType|MavicEnterprise
97434347,2.021,10.405602675890211,63.41961681433911,14,49.162476,49.368748,-0.015555725,-0.0070676226,-1.1841917,1.184315,-3.712577,-32.6058,4.7070365,33.15234,376,357,1404,1496.0,0.04156299,-0.018432375,-0.14683996,0.15371795,0.04546685166099398,0.0023540177629017556,0.11932366261367222,-3.523218637484232,-41.245931152026834,318.75406884797314,-1.8899819916978307,5.669671736150203,-6.430413581397561,-50.78182613669459,1.493286525292713,2.670820397253804,-50.19918074249493,-47.04109509299511,64.91,,,10.4056022,63.4196173,20190906,73149,2019-09-06T07:31:49Z,31.241,0.85,1.62,12.0,8,6,14,-0.01,-0.01,-0.01,0,0,0,10000,5,5,10.405611493937794,63.419629651077344,60,10272253,17,54,386,1875,3499,3872,3892,-1121,15557,36,0,15552,0,false,false,false,false,false,false,false,false,false,false,5593,5593,4269,4414,62,80,79,61,1692,1605,1464,1233,1622,1657,1408,1411,0.0,0.0,0.0,0.0,1514.1,1518.4,1519.6,1522.7,6.18,4.94,3.68,3.12,0,0,0,0,-176.68453331836278,10.405602714693316,63.41961644962903,0,49.162476,49.18745,-0.02154926,-0.008041862,-1.146901,1.1471316,-8.190542,-33.599724,-5.326453,34.99139,334,357,1413,1495.0,0.012897466,-0.007187481,-0.119753584,0.12066037,0.014764975859612485,0.021005314991607696,0.18013159516654673,-2.739522548876945,-44.99188113956833,315.0081188604317,-1.671176390829488,3.211735503229917,-3.9350000688693743,-52.962699643161734,1.5315451722048805,7104259.82287495,-122.30941975301894,-119.15133410351912,64.93,NONE,0.0,0.0,0.0,NONE,2.7512098885492777E-10,-2.2150842286565234E-10,6.484985E-5,2,62.85,67.06,35.92,36.92,15.577,15.577,5.502,1.5091349,0,2009,3.868,12.0,4.073,58,32.9,OK,23,0,0,0,0,0,65,100,0.0,0,0.0,-1.3436929E-20,8.7E-44,0.0,NaN,62,3.026841E-10,-3.0268596E-10,2.3108478E-35,False,False,0,None,4.4521276E31,1.0842106E-19,dateTime|2019-9-6 7:31:33 GMT
101461277,3.068,10.405601909961552,63.419617159092105,13,49.367256,49.532784,4.8671593E-4,-0.0045102104,-0.98421556,0.984226,-3.615007,-3.7047436,-3.8257282,6.4365826,352,351,1413,1497.0,0.018089201,-0.0027653058,-0.06988077,0.07223703,0.0182993473134453,0.03334856351861963,0.30127942021370496,0.43727199015985574,-40.99375506548895,319.0062449345111,-1.9486076933401744,5.557971256742162,-4.188454275832094,-43.4411772641981,0.025406574982149977,2.851597637214925,153.9211451740693,157.0792308235691,64.88,,,10.4056015,63.4196175,20190906,73150,2019-09-06T07:31:50Z,31.627,0.88,1.69,11.84,7,6,13,0.03,-0.01,-0.19,0,0,0,0,4,4,10.405602398280301,63.41961709227797,60,10272915,48,54,387,1875,3499,3927,3940,0,15742,33,212,5,0,false,false,false,false,false,false,true,false,false,false,5534,5650,4455,4768,61,79,78,60,1571,1591,1462,1491,1561,1579,1458,1484,0.0,0.0,0.0,0.0,1525.8,1523.9,1523.3,1526.4,4.36,4.12,3.18,2.86,0,0,0,0,-174.26337253220657,10.405601950488407,63.41961672086624,0,49.451813,49.51341,0.0035651543,-0.0051566516,-0.98765105,0.9876709,-7.0136886,-5.840997,-6.4434295,11.172594,346,351,1410,1493.0,2.7250705E-4,0.0072766254,-0.1724779,0.17263155,0.007281726020484711,0.03909024928303047,0.2291920153735276,0.4656491423050654,-44.614494895727105,315.3855051042729,1.653297922373389,5.731944178313506,0.005517760622960305,-44.013503840660526,0.04692546084212531,7104260.005734652,-13.21187446284169,-10.053788813341866,64.88,NONE,0.0,0.0,0.0,NONE,-2.0252882723324712E-10,1.0788984607510619E-10,-9.0026855E-4,2,55.44,57.4,42.09,45.47,15.501,15.501,5.479,1.8009075,0,2008,3.879,12.0,6.923,58,32.9,OK,24,0,0,0,0,0,65,100,0.0,0,0.0,-3.4372217E26,8.8E-44,0.0,NaN,62,4.0840575E-10,-3.5554323E-10,1.2709404E-36,False,False,0,None,2.2034366E29,1.3084427E-19,geoDeclination|316 degrees
105322561,4.072,10.405601896302032,63.419617640671845,14,49.766216,49.680508,0.0071400898,0.0012798868,-0.9819401,0.9819669,7.147165,5.3093133,6.45343,10.996251,358,338,1410,1493.0,0.006129853,-0.017287929,-0.009058274,0.02045727,0.018342506808979402,0.035022628583914764,-0.062146899184014455,0.26505128190080585,-41.056515695146615,318.94348430485337,-2.3970836831285958,5.156417366312915,-5.713383964738112,-42.96731657857405,0.06589519062765095,2.9740956042256266,-30.02792741034449,-26.869841760844665,64.92,,,10.4056002,63.4196193,20190906,73151,2019-09-06T07:31:51Z,32.533,0.85,1.62,11.46,8,6,14,0.03,0.03,-0.17,0,0,0,0,4,4,10.405602398280301,63.41961709227797,60,10272915,48,54,388,1875,3499,3927,3940,0,15742,33,212,5,0,false,false,false,false,false,false,true,false,false,false,5442,5594,4444,4683,60,79,79,61,1570,1589,1463,1471,1566,1586,1449,1461,0.0,0.0,0.0,0.0,1525.2,1520.8,1520.8,1526.4,4.47,3.94,3.21,2.73,0,0,0,0,-177.3906306477742,10.405601158221073,63.419617894942284,0,49.63146,49.629173,0.004967749,0.0039285375,-0.98417336,0.98419374,0.10736331,0.66517043,-0.69677067,0.9692616,361,338,1410,1494.0,-2.703439E-4,-0.0055605643,-0.05304648,0.05333781,0.005567132451240862,0.13032571775017268,-0.07220095024294938,0.2748105171979463,-44.74861904085262,315.25138095914735,1.6002694628328658,5.559481388404033,-1.06012910400491,-42.73536248023374,0.1085019009493976,7104260.181659692,-29.756396578651476,-26.59831092915165,64.92,NONE,0.0,0.0,0.0,NONE,2.1135393676231817E-10,-8.493313411061224E-11,-3.8909912E-4,2,55.15,57.68,41.63,43.23,15.436,15.436,5.478,2.3573968,0,2005,3.837,12.0,7.676,58,32.9,OK,25,0,0,0,0,0,65,100,0.0,0,0.0,2.5656127E-14,9.0E-44,0.0,NaN,62,4.489351E-10,-3.7581502E-10,1.3288427E-36,False,False,0,None,2.4255404E29,1.3944364E-19,geoInclination|7479 degrees
109179478,5.074,10.405598353278881,63.41962202704208,14,49.855976,49.711823,0.008732294,0.0015324345,-0.97900337,0.9790435,3.8924685,5.1576014,2.3517294,6.876249,346,344,1413,1494.0,-4.823811E-4,-0.022575699,0.016259955,0.027825907,0.022580852921233706,0.4948005224793065,0.03490542472686387,0.6647209174447115,-41.22177941285683,318.77822058714315,-2.7004307440222033,5.8706747133759105,-5.285316865161794,-43.43846734881864,0.5844645564118635,3.4959091809536957,-25.214931951156277,-22.056846301656453,64.94,,,10.4055988,63.4196217,20190906,73152,2019-09-06T07:31:52Z,33.34,0.85,1.62,11.14,8,6,14,0.03,-0.01,-0.11,0,0,0,0,4,4,10.405602398280301,63.41961709227797,60,10272915,48,54,389,1875,3499,3927,3940,0,15742,33,212,5,0,false,false,false,false,false,false,true,false,false,false,5643,5663,4570,4621,60,80,79,61,1591,1597,1470,1482,1585,1587,1455,1474,0.0,0.0,0.0,0.0,1521.4,1518.4,1517.8,1522.0,4.9,4.29,3.09,2.78,0,0,0,0,-179.16026383566683,10.40559870524525,63.41962157102511,0,49.670986,49.646313,0.0050122933,0.0039021224,-1.0146619,1.0146817,-5.4616175,-3.8210156,-2.0877244,6.9848423,349,344,1416,1498.0,7.754831E-4,-0.0036835927,-0.0014723791,0.004042045,0.0037643365160228716,0.42180916382811506,0.2388351029932071,0.37936660124617033,-44.8506590454673,315.1493409545327,1.4071025179892618,5.806222605690847,-0.48037918881517977,-43.33189013133902,0.5308296883579476,7104260.617149125,17.557265161267516,20.71535081076734,64.93,NONE,0.0,0.0,0.0,NONE,-7.078039289545666E-10,-3.8695107327588555E-10,-4.5776367E-5,2,58.13,58.61,42.13,44.24,15.397,15.397,5.464,3.1273248,0,2001,3.828,12.0,7.72,57,32.9,OK,26,0,0,0,0,0,65,100,0.0,0,0.0,1.52354E-8,9.0E-44,0.0,NaN,62,4.6156146E-10,-3.8212464E-10,4.196539E-36,False,False,0,None,1.8976847E30,1.421204E-19,geoIntensity|5185125 nanoTesla
113077076,6.087,10.40559869943012,63.41962428510685,14,49.742172,49.71132,0.003034257,0.006721569,-1.0053455,1.0053725,1.9334553,0.18191409,1.1503738,2.2571447,349,322,1413,1490.0,0.0017811981,0.005953449,8.5535704E-4,0.0062727868,0.006214195120098944,0.24223911924398867,-0.872932902498025,0.4543918300996685,-41.095444250294236,318.90455574970576,-1.6276663208986377,6.17709988867329,-4.811579622503549,-43.643265090133845,0.8207060536280366,3.8098758431834816,-0.4348348155084425,2.723250833991382,64.96,,,10.4055982,63.419624,20190906,73153,2019-09-06T07:31:53Z,34.055,0.85,1.62,10.94,8,6,14,0.02,0.02,-0.06,0,0,0,0,4,4,10.405602398280301,63.41961709227797,60,10272915,48,54,390,1875,3499,3927,3940,0,15742,33,212,5,0,false,false,false,false,false,false,true,false,false,false,5544,5689,4443,4647,61,80,80,61,1571,1599,1470,1468,1567,1590,1453,1466,0.0,0.0,0.0,0.0,1521.4,1518.4,1518.4,1521.4,4.42,4.18,3.17,2.62,0,0,0,0,-178.4229597429074,10.405598443749689,63.41962386775386,0,49.773884,49.647087,0.002443379,0.00662266,-1.0028615,1.0028864,-9.404329,0.8679516,-8.521493,12.720479,349,325,1410,1488.0,0.004415943,0.015010167,-0.0025231545,0.015848406,0.015646266248723253,0.23679578023572226,-0.8574387009662872,0.45568887798920277,-44.78296592342632,315.21703407657367,1.503638109698995,5.164021125550285,-0.4195204440601972,-43.85627792320993,0.7786669074400652,7104260.886247118,-57.928214834619034,-54.77012918511921,65.0,NONE,0.0,0.0,0.0,NONE,1.2205580315501347E-9,6.078508424849836E-10,-4.5776367E-5,2,55.65,59.11,42.34,43.11,15.382,15.382,5.463,3.1273248,0,2001,3.828,12.0,7.72,57,32.9,OK,26,0,0,0,0,0,65,100,0.0,0,0.0,1.3216399E-5,9.0E-44,0.0,NaN,62,4.618883E-10,-3.8228806E-10,6.045028E-36,False,False,0,None,4.0770008E30,1.4218988E-19,
116925682,7.087,10.40559803747176,63.41962614648592,14,49.504185,49.708195,0.004603179,0.008961943,-0.9982211,0.99827194,-1.8548332,-2.390267,-4.44153,5.374102,355,331,1410,1491.0,8.787731E-5,0.0025472436,-0.019858759,0.020021651,0.002548758976108421,0.206981881648809,-0.39614705666945493,0.23914781852897604,-41.231193602596896,318.7688063974031,-1.7949117077156154,6.76051371528986,-5.0905710250583915,-43.3564483779265,1.0298960456663766,4.021140569745965,-14.769252900095877,-11.611167250596052,64.96,,,10.4055976,63.4196259,20190906,73154,2019-09-06T07:31:54Z,34.565,0.85,1.62,10.79,8,6,14,0.01,0.02,-0.02,0,0,0,0,4,4,10.405602398280301,63.41961709227797,60,10272916,16,54,391,1875,3499,3927,3940,0,15743,33,1,17519,0,false,false,false,false,false,false,true,false,false,false,5608,5583,4547,4647,60,79,80,61,1592,1585,1478,1483,1588,1583,1459,1465,0.0,0.0,0.0,0.0,1521.4,1517.2,1517.8,1521.4,4.65,3.96,3.34,2.91,0,0,0,0,-176.41830703978462,10.405597951235551,63.419625540720595,0,49.755203,49.63997,0.0019859686,0.01756712,-1.0041428,1.0042984,8.432891,-3.7015066,6.9982696,11.566788,349,328,1410,1489.0,-3.0101897E-4,0.009875125,-0.01278703,0.016159112,0.009879712057956975,0.17770857467750556,-0.4185558405214199,0.28028122698450186,-44.90586600274903,315.094133997251,0.7967451525994995,5.408189222725802,-0.887511913828239,-43.54847056627355,0.9651287749982325,7104261.094233969,-96.26362457881746,-93.10553892931763,64.95,NONE,0.0,0.0,0.0,NONE,6.947627021571716E-10,-2.040670800434628E-10,-8.392334E-5,2,56.99,57.41,43.5,44.2,15.367,15.367,5.456,3.9916308,0,1999,3.822,12.0,7.842,57,32.9,OK,27,0,0,0,0,0,65,100,0.0,0,0.0,0.0018755496,9.0E-44,0.0,-1.05007105E-23,63,4.5855586E-10,-3.806183E-10,9.685938E-36,False,False,0,None,8.6714605E30,1.4148181E-19,
120774553,8.087,10.405597770114948,63.41962736497565,14,49.741676,49.70681,0.0028782517,0.0088692615,-0.9856264,0.9856705,-6.383893,-5.352952,-6.9561996,10.853428,364,322,1410,1491.0,-0.027822737,-0.031603668,-0.026453244,0.049725953,0.04210577616768259,0.09399410937121215,-0.602250142942745,0.0309700704184736,-41.20426681342904,318.79573318657094,-2.2712978703709013,5.804584147312929,-6.1828564854507055,-42.717959457444024,1.165251133703843,4.168556825348521,-42.50678216463815,-39.34869651513833,64.98,,,10.4055976,63.4196273,20190906,73155,2019-09-06T07:31:55Z,34.953,0.85,1.62,10.71,8,6,14,-0.02,0.01,-0.01,0,0,0,0,4,4,10.405602398280301,63.41961709227797,60,10272917,18,54,392,1886,3518,3962,3971,2660,15851,32,1,15950,0,false,false,false,false,false,false,true,false,false,false,5466,5579,4583,4603,61,79,78,61,1576,1585,1478,1477,1570,1568,1464,1476,0.0,0.0,0.0,0.0,1521.4,1517.2,1517.2,1520.2,4.54,3.89,3.4,2.67,0,0,0,0,177.13605758129577,10.405598025337548,63.41962683471231,0,49.4801,49.64223,0.0029551166,0.006446724,-0.9879206,0.98794603,2.2035651,2.7524538,-3.0985017,4.6938696,364,319,1413,1493.0,-0.027981762,-0.019691354,-0.026952637,0.04355655,0.03421590793251194,0.10967284370662811,-0.6241313537961116,0.06436870977834815,-44.84738936499441,315.1526106350056,0.06050572489350263,5.108751312836791,-1.1071900891595379,-42.44692326330621,1.1049421775147354,7104261.245792826,16.72068760878122,19.878773258281043,64.98,NONE,0.0,0.0,0.0,NONE,1.8643801700223697E-9,-7.942486190677843E-10,-3.0517578E-5,2,56.17,57.94,43.59,43.71,15.352,15.352,5.455,4.8534007,0,1997,3.819,12.0,7.871,57,32.9,OK,28,0,0,0,0,0,65,100,0.0,0,0.0,0.0070775747,9.0E-44,0.0,-1.05007105E-23,63,4.5854165E-10,-3.8061118E-10,1.2707557E-35,False,False,0,None,1.5448563E31,1.414785E-19,
124806128,9.135,10.405598199369669,63.41962789651321,14,49.530228,49.70729,0.0028758089,0.00630866,-0.99041826,0.9904425,8.44782,-0.399288,5.156867,9.905472,355,335,1413,1494.0,-0.014517071,-0.015472601,-0.027004223,0.034342024,0.021216661702143095,0.03876173870210113,-0.18369994383238797,0.15791762044740376,-41.11516285161286,318.88483714838713,-3.1840631763746,4.965796283380869,-4.003380642265477,-43.41205303395077,1.2194055803409853,4.286351177216151,-27.497529062943233,-24.33944341344341,64.95,,,10.4055976,63.4196281,20190906,73157,2019-09-06T07:31:57Z,35.291,0.85,1.62,10.72,8,6,14,-0.02,-0.02,-0.03,0,0,0,0,5,5,10.405602398280301,63.41961709227797,60,10276101,114,99,393,3518,3518,4376,4391,224,17525,31,3487,17589,0,false,false,false,false,false,false,true,false,false,false,5432,5597,4546,4660,62,79,79,61,1570,1588,1482,1481,1567,1582,1467,1469,0.0,0.0,0.0,0.0,1519.6,1515.9,1515.9,1519.0,4.52,3.94,3.48,2.78,0,0,0,0,178.39751903963622,10.405598156498591,63.41962721201027,0,49.64649,49.642097,0.0010924095,0.009213339,-0.9977378,0.997781,6.751798,-5.956788,6.601338,11.164577,355,331,1413,1494.0,-0.014802939,-0.012250919,-0.021869618,0.02911172,0.019214891027148892,0.021306777819853302,-0.2572617404423164,0.16265681443288305,-44.84785445890252,315.15214554109747,-2.467521650607492,3.2665859638724837,0.20530388475569677,-43.21800315379814,1.1448832653606456,7104261.328268254,-174.52392212769195,-171.36583647819214,64.96,NONE,0.0,0.0,0.0,NONE,-1.5018189925267515E-9,-7.844434932806959E-10,-1.449585E-4,2,56.73,56.94,41.74,45.68,15.344,15.344,5.455,6.3363204,0,1992,3.812,12.0,7.911,57,33.0,OK,30,0,0,0,0,0,65,100,0.0,0,0.0,0.046535492,9.0E-44,0.0,-1.05007105E-23,63,4.5974957E-10,-3.8121514E-10,1.5427357E-35,False,False,0,None,1.9622588E31,1.4173327E-19,
128667706,10.139,10.405597932747584,63.41962885921592,14,49.75486,49.700436,-0.0024149688,0.009403343,-0.99287874,0.9929262,5.400805,-7.8322053,2.678444,9.883633,358,328,1410,1491.0,-0.008323708,0.0076343277,-0.017603496,0.020915309,0.011294559116976277,0.09618426585159144,-0.5928731394539992,0.19907492219015271,-41.044134666535676,318.9558653334643,-1.5601892337089547,6.748120495727517,-5.895879079084662,-43.35071138000089,1.3271536925493772,4.399429387046726,-28.119852642837962,-24.961766993338138,64.99,,,10.4055974,63.4196289,20190906,73157,2019-09-06T07:31:57Z,35.523,0.85,1.62,10.68,8,6,14,0.03,0.01,-0.01,0,0,0,0,5,5,10.405602398280301,63.41961709227797,60,10276320,48,99,394,3494,3494,4377,4393,171,17553,31,212,17553,0,false,false,false,false,false,false,true,false,false,false,5495,5602,4514,4855,62,79,79,61,1585,1585,1464,1505,1575,1580,1456,1495,0.0,0.0,0.0,0.0,1518.4,1515.3,1514.1,1516.6,4.53,3.94,3.22,3.02,0,0,0,0,-172.28810758734113,10.40559795598048,63.419628030853936,0,49.807728,49.637466,-9.540887E-4,0.011147329,-0.9956172,0.99568003,0.08621641,3.6757243,-0.7532527,3.7531016,358,325,1413,1493.0,-0.0023899488,0.0048550395,-0.012838563,0.013932407,0.005411401358839176,0.08585562646139784,-0.5799803785846575,0.2593805186075867,-44.698107546939006,315.301892453061,-0.5792751293095224,5.683979209890107,-1.4691475045324864,-42.95779156674732,1.236232936998001,7104261.439690173,-0.7280208081285533,2.430064841371271,64.98,NONE,0.0,0.0,0.0,NONE,1.438746118560983E-9,-3.9361052759404927E-10,-4.9591064E-5,2,57.45,57.58,41.14,46.72,15.334,15.334,5.45,6.3363204,0,1992,3.811,12.0,7.911,57,33.0,OK,30,0,0,0,0,0,65,100,0.0,0,0.0,0.06422806,9.0E-44,0.0,-1.05007105E-23,63,4.5827875E-10,-3.8048328E-10,1.8558948E-35,False,False,0,None,2.8576608E31,1.4142226E-19,
132565165,11.152,10.405598055737103,63.41962961851539,14,50.00033,49.69091,-0.00433506,0.0058585713,-0.99368423,0.99371094,3.204559,11.409551,0.44065073,11.859224,373,315,1410,1492.0,-0.017183844,-0.018062308,-0.02477968,0.03515059,0.024930533647149426,0.05864042752671632,-1.1111340455447227,-0.391625942305214,-41.15716078454049,318.8428392154595,-2.147800083751923,5.653516314401096,-6.099529505143973,-43.28619904441883,1.4095122426386963,4.484722113255363,-12.89400639264253,-9.735920743142705,65.04,,,10.4055975,63.4196295,20190906,73159,2019-09-06T07:31:59Z,35.609,0.85,1.62,10.6,8,6,14,0.0,0.01,0.0,0,0,0,0,5,5,10.405602398280301,63.41961709227797,60,10276320,48,99,395,3494,3494,4377,4393,171,17553,31,212,17553,0,false,false,false,false,false,false,true,false,false,false,5448,5629,4461,4783,61,79,79,62,1568,1594,1467,1494,1558,1582,1464,1484,0.0,0.0,0.0,0.0,1518.4,1514.1,1514.1,1518.4,4.33,4.15,3.2,2.84,0,0,0,0,-175.6012946450045,10.405597935819696,63.419628828650055,0,49.910446,49.63337,-0.0030691053,0.005884815,-1.0026144,1.0026363,6.7405434,9.667181,1.1227534,11.838491,373,315,1407,1489.0,-0.017561452,-0.011988054,-0.01979259,0.02904935,0.02126306780865221,0.06632083740052948,-0.9245104869515125,-0.3088877835820746,-44.82692742431007,315.17307257568996,-1.4282072574895368,5.019744165972489,-1.2372828567947591,-42.737642571515394,1.3237773664075707,7104261.573709164,-40.61115054734848,-37.453064897848655,65.03,NONE,0.0,0.0,0.0,NONE,8.175945504785627E-10,-4.738920832372201E-10,-1.449585E-4,2,55.86,57.55,44.25,45.58,15.328,15.328,5.443,6.9018126,0,1990,3.81,12.0,7.829,57,33.0,OK,31,0,0,0,0,0,65,100,0.0,0,0.0,0.33641052,9.0E-44,0.0,-1.05007105E-23,63,4.566445E-10,-3.7966616E-10,2.2120696E-35,False,False,0,None,3.9510094E31,1.4107484E-19,
136412966,12.152,10.40559802342932,63.419628835691825,14,49.71751,49.691315,-0.009523472,0.011946528,-1.0022817,1.0023981,-3.5505943,-4.522647,-2.3067276,6.1953244,367,331,1410,1494.0,-0.0028768545,0.015580639,-0.027713519,0.031922903,0.01584400882917476,0.07121455553952423,-0.5122653634512678,-0.2853139403439941,-41.10843982646637,318.8915601735336,-3.270162898428097,4.737737266523161,-3.7309643742274288,-43.66503125140129,1.3238255931054699,4.593852806708972,140.75294336828034,143.91102901778015,64.99,,,10.4055974,63.4196291,20190906,73159,2019-09-06T07:31:59Z,35.497,0.85,1.62,10.6,8,6,14,-0.02,0.0,0.01,0,0,0,0,5,5,10.405602398280301,63.41961709227797,60,10276320,48,99,396,3494,3494,4377,4393,171,17553,31,212,17553,0,false,false,false,false,false,false,true,false,false,false,5519,5550,4491,4952,61,81,80,61,1579,1577,1469,1519,1568,1572,1466,1507,0.0,0.0,0.0,0.0,1515.3,1513.5,1512.9,1515.9,4.42,3.79,3.33,3.26,0,0,0,0,-165.18708024363167,10.405597947585468,63.41962825891492,0,49.70168,49.634056,-0.0061736004,0.009928658,-1.0015306,1.001599,-6.6210585,1.2716366,-4.6244097,8.175612,370,328,1404,1488.0,-0.0028698507,0.01832093,-0.029201703,0.034592368,0.01854433850239126,0.044808360158547514,-0.7674691464284644,-0.3077211520269906,-44.816469107758664,315.1835308922413,-0.7818382978316494,6.592560833947447,1.39785343648402,-43.73174813312755,1.2612649783662573,7104261.657702826,164.87862704318383,168.03671269268366,65.01,NONE,0.0,0.0,0.0,NONE,1.946984854336926E-9,-1.1357882425134866E-10,-1.5258789E-4,2,56.37,56.82,42.76,47.89,15.321,15.321,5.443,7.340924,0,1988,3.807,12.0,7.844,57,33.0,OK,32,0,0,0,0,0,65,100,0.0,0,0.0,0.08647156,9.0E-44,0.0,-1.05007105E-23,63,4.5661608E-10,-3.7965195E-10,1.9969541E-35,False,False,0,None,3.2906303E31,1.4106822E-19,
140267675,13.154,10.405597615974784,63.419628649925855,14,50.723988,50.346516,-0.0045397207,0.014590549,-1.2444979,1.2445917,8.0619755,3.795665,5.8209605,10.643595,373,325,1410,1494.0,0.02059678,-0.030026134,-2.3245554,2.3248405,0.03641148342840059,-0.007521721835450027,-0.6787564310300243,0.16533824023174337,-41.11941977235182,318.8805802276482,-6.233126264650633,2.9307742294456887,-3.3051305468898433,-42.18223463483035,1.3069931759995277,4.664796217664084,-129.1245389168704,-125.96645326737055,64.99,,,10.4055977,63.4196291,20190906,73201,2019-09-06T07:32:01Z,36.02,0.85,1.62,10.58,8,6,14,-0.3,-0.23,-0.66,0,0,0,8112,5,5,10.405602398280301,63.41961709227797,60,10276320,48,99,397,3494,3494,4377,4393,171,17553,31,212,17553,0,false,false,false,false,false,false,true,false,false,false,6387,6511,5202,5495,63,80,80,63,1671,1682,1536,1569,1655,1662,1543,1563,0.0,0.0,0.0,0.0,1503.1,1501.2,1500.6,1503.7,5.5,4.91,3.74,3.65,0,0,0,0,-175.6092573688102,10.405598084289998,63.4196279162953,0,50.908936,50.462997,-0.0023051645,0.021967668,-1.1823275,1.1825339,1.6816196,14.478449,-1.1520398,14.621236,373,319,1419,1501.0,0.016252197,-0.019741535,-2.4451718,2.4453056,0.025570728153081257,0.01305886423336964,-0.7667173326274047,0.5221181501239239,-44.82861685230082,315.1713831476992,0.9752770809215672,9.132938532662516,0.6251544479667807,-41.212723118188975,1.2225650187010164,7104261.736737299,-175.57672421650722,-172.41863856700738,64.99,NONE,0.0,0.0,0.0,NONE,-3.738969033038981E-9,6.376008291503641E-10,-0.0090408325,2,67.02,67.64,52.52,55.53,15.292,15.292,5.374,7.9357066,0,1983,3.805,12.0,10.333,57,33.0,OK,34,0,0,0,0,0,65,100,0.0,0,0.0,0.08905411,9.0E-44,0.0,-1.05007105E-23,63,1.1281145E-9,-5.8472355E-10,2.1326135E-35,False,False,0,None,3.7070733E31,2.0280237E-19,
144117182,14.154,10.405597270458955,63.41962897690316,14,53.297386,53.251694,-7.422699E-4,0.00852172,-0.56758,0.5676444,7.104283,-0.10095016,0.5422637,7.1256633,402,399,1434,1541.0,0.012220575,0.043326605,-1.7947475,1.7953119,0.045017076764667825,-0.0048184338680445915,2.642397717305523,-0.9148055707536629,-41.19872361487768,318.8012763851223,-3.996420586755132,9.970103346398195,-4.06830314543297,-41.27393324115272,1.3459127545754743,4.816871477180353,-92.05068810732229,-88.89260245782246,64.96,,,10.4055966,63.4196288,20190906,73202,2019-09-06T07:32:02Z,38.548,0.87,1.69,10.55,8,5,13,-0.13,-0.07,-1.84,0,0,0,0,4,4,10.405602398280301,63.41961709227797,60,10276321,19,100,398,3494,3494,4376,4391,132,17553,31,1,17158,0,false,false,false,false,false,false,true,false,false,false,4377,4330,3530,3787,62,82,82,63,1441,1445,1356,1381,1437,1437,1351,1370,0.0,0.0,0.0,0.0,1530.0,1527.0,1527.0,1530.0,2.62,2.02,1.78,1.54,0,0,0,0,-167.66337134592195,10.405596879314343,63.4196283443351,0,53.403194,53.30039,-0.0017743341,0.013537635,-0.55876356,0.55893034,9.220544,0.9064661,-1.1932065,9.341513,405,418,1431,1544.0,-0.17479327,-0.09094505,-1.4799646,1.4930234,0.19703728140993293,-0.12052441067697127,3.0676522293682593,-0.7843598774738018,-45.29106708990092,314.70893291009907,-2.159537997096665,10.495649176749394,0.0636901419702979,-41.509850767409866,1.2809496577164723,7104261.899545141,-0.26362993305076365,2.8944557164490607,64.9,NONE,0.0,0.0,0.0,NONE,-9.605608447147028E-9,-8.14541082861835E-9,-0.007801056,2,39.85,39.76,28.78,31.27,15.159,15.159,5.484,8.208347,0,1980,3.803,12.0,8.078,57,33.0,OK,35,0,0,0,0,0,65,100,0.0,0,0.0,0.0031417012,9.0E-44,0.0,-1.05007105E-23,63,2.2120275E-8,-2.5932685E-9,4.5015014E-35,False,False,0,None,1.4833245E32,7.878896E-19,
148021180,15.169,10.405600060740296,63.419630071104756,14,53.94861,53.66743,-0.009931281,0.0108704,-1.020932,1.0210382,-1.10683,2.9444895,0.8057652,3.2472062,376,264,1459,1529.0,0.111531295,0.10281982,0.005139403,0.15178129,0.15169424593777883,0.03024326418368309,-3.502778775565419,0.20318089011737522,-41.34332547297554,318.65667452702445,-4.806620777549633,2.145164823461938,-2.3713701376853087,-42.77898902984394,1.44785843121968,5.053267889421137,37.11997101890259,40.278056668402414,65.01,,,10.4056001,63.4196307,20190906,73203,2019-09-06T07:32:03Z,38.852,0.85,1.62,10.53,8,6,14,0.4,0.41,-0.89,0,0,0,0,4,4,10.405602398280301,63.41961709227797,60,10276321,19,100,398,3494,3494,4376,4391,132,17553,31,1,17158,0,false,false,false,false,false,false,true,false,false,false,5700,5528,4719,4624,63,81,80,63,1590,1580,1493,1479,1579,1579,1500,1468,0.0,0.0,0.0,0.0,1512.9,1511.1,1509.8,1512.9,4.57,3.88,3.38,2.9,0,0,0,0,-177.66083628099358,10.405600256374049,63.41962988372634,0,53.84293,53.506226,-0.010234681,0.009598543,-1.0203376,1.0204341,0.9337959,1.6553776,2.898947,3.466431,379,267,1459,1530.0,0.14972933,0.100234985,0.05745932,0.18912296,0.18018302799527783,0.056216424493759076,-3.3065837611850597,0.11779366780144575,-45.30557680372402,314.694423196276,-3.5685772417859316,3.418587641050981,1.4813672842622545,-42.55743382967587,1.4263309448359127,7104262.235224136,32.23389078987504,35.391976439374865,64.99,NONE,0.0,0.0,0.0,NONE,1.3032779995951233E-8,8.596245182700818E-9,3.1280518E-4,2,58.24,57.06,46.61,44.22,15.307,15.307,5.43,8.208347,0,1980,3.75,12.0,8.078,57,33.0,OK,35,0,0,0,0,0,65,100,0.0,0,0.0,484.9375,9.0E-44,0.0,-1.05007105E-23,63,2.6724138E-8,-2.8810099E-9,6.4977304E-35,False,False,0,None,2.7620423E32,8.4891566E-19,
151869234,16.169,10.405600608692232,63.419630779652344,14,54.091778,53.659454,-0.014080531,0.016160708,-1.4904877,1.4906418,10.59923,6.1414933,10.378055,16.05508,420,322,1434,1528.0,-0.039386876,-0.07096089,-0.84310764,0.8470049,0.08115893863914513,0.0022039470030574687,-0.8030179188285548,-1.4344914718005433,-41.14008399343792,318.85991600656206,-3.757341608055069,6.773188617075272,-2.554434777535326,-41.688139272811036,1.5245689318341549,5.359809748201749,-85.64469207772677,-82.48660642822695,65.02,,,10.4055997,63.4196312,20190906,73204,2019-09-06T07:32:04Z,38.699,0.85,1.62,10.36,8,6,14,0.01,0.03,-0.33,0,0,0,10000,4,4,10.405602398280301,63.41961709227797,60,10276322,114,100,399,3494,3494,4375,4389,0,17519,31,3518,679,0,false,false,false,false,false,false,true,false,false,false,6888,6804,5685,5834,64,80,80,63,1741,1736,1610,1624,1731,1727,1611,1617,0.0,0.0,0.0,0.0,1485.3,1481.6,1482.2,1485.3,7.18,6.33,5.32,4.82,0,0,0,0,-173.87984149494113,10.405600755778227,63.41963045938684,0,53.761528,53.469925,-0.014646686,0.019211967,-1.4780515,1.478249,-3.4913795,0.8582931,-4.125481,5.472293,420,315,1428,1521.0,-0.03882597,-0.033981156,-0.70317125,0.7050617,0.05159626797868948,0.01706145504445364,-0.7064943060767078,-1.536486750484197,-45.085224449031855,314.91477555096816,-2.2346615553148914,7.383781054840088,3.250274830103496,-41.0688728859153,1.488599585135709,7104262.473556112,-89.2443719118723,-86.08628626237248,65.04,NONE,0.0,0.0,0.0,NONE,-2.9848317471727505E-9,-1.8527325437969032E-9,-0.00308609,2,76.45,75.32,58.74,61.6,15.262,15.262,5.357,8.394584,0,1979,3.826,12.0,6.911,57,33.1,OK,36,0,0,0,0,0,65,100,0.0,0,0.0,2780.5625,9.0E-44,0.0,-1.05007105E-23,63,2.5913778E-8,-2.8303624E-9,7.296479E-35,False,False,0,None,3.2596447E32,8.3816893E-19,
155718501,17.169,10.405596198213638,63.41963120597206,14,57.29368,56.569412,-0.019084869,0.0119340075,-1.0120264,1.0122766,-4.3411403,-1.5380731,-60.075844,60.25212,275,389,1459,1534.0,-0.049151205,-0.06759635,-4.040554,4.041418,0.08357695796352874,0.14083456468256136,-0.3987803968800938,0.05724571816175639,-59.036226818337035,300.963773181663,-20.650890450321363,8.480160899350205,1.9715618346354788,-55.29285750212478,1.5994019172494487,5.590414442532285,-122.07667441437285,-118.91858876487302,65.03,,,10.405596,63.4196313,20190906,73205,2019-09-06T07:32:05Z,40.903,0.85,1.62,10.32,8,6,14,-0.54,-0.53,-1.75,0,0,-9998,10000,4,4,10.405602398280301,63.41961709227797,60,10276805,16,100,400,3510,3498,4309,4335,-2154,17351,29,0,16770,0,false,false,false,false,false,false,true,false,false,false,5980,6209,5155,5594,62,80,80,62,1635,1652,1533,1590,1631,1644,1518,1579,0.0,0.0,0.0,0.0,1501.8,1498.8,1498.2,1500.0,4.9,4.54,3.98,3.85,0,0,0,0,-171.7028550301631,10.405596837597157,63.419630624400355,0,57.158913,56.31077,-0.019396255,0.009154749,-1.0202656,1.020491,20.444328,5.005906,-44.99322,49.67313,296,376,1459,1535.0,-0.051879015,-0.059899513,-4.076307,4.077077,0.07924256296979965,0.11648634824714915,-0.39107778918860825,0.07533805311760984,-61.524804692871605,298.4751953071284,-19.65972333422929,9.125060111506867,2.4587866897035866,-52.33543283050027,1.529927410287291,7104262.707626519,-83.35992234206876,-80.20183669256893,65.01,NONE,0.0,0.0,0.0,NONE,-5.962781114465195E-9,-2.0803579145403882E-9,-0.019439697,2,64.4,65.37,49.02,57.37,15.223,15.223,5.369,8.463189,0,1976,3.796,12.0,9.147,57,33.1,OK,37,0,0,0,0,0,65,100,0.0,0,0.0,0.055872917,9.0E-44,0.0,1.4640026E-27,64,4.8498623E-7,-1.2357364E-8,1.477222E-34,False,False,0,None,1.20731835E33,3.2632608E-18,
159606112,18.180,10.4055935666017,63.4196309165827,14,61.10983,60.67126,-0.031155143,-0.00139707,-0.97274107,0.97324085,-21.491766,-5.3487887,-77.47407,80.577515,-102,370,1477,1526.0,0.026153669,0.0018639878,-3.9767828,3.976869,0.026220009126838136,0.10722641348261727,0.18394256432332082,-0.8458337771200889,-119.11179457339338,240.88820542660662,-80.43372663761251,6.712833754359424,2.8877095784841007,-108.72496425225906,1.598764212660959,5.7354628178811335,-130.73135561506774,-127.57326996556793,64.97,,,10.4055931,63.4196305,20190906,73206,2019-09-06T07:32:06Z,44.653,0.85,1.62,10.15,8,6,14,-0.32,-0.25,-3.08,0,0,-9998,10000,4,4,10.405602398280301,63.41961709227797,60,10276805,20,100,401,3510,3498,4344,4362,-2281,17351,29,2,17408,0,false,false,false,false,false,false,false,false,false,false,5770,5861,5097,5325,64,80,80,64,1610,1624,1531,1564,1602,1620,1531,1554,0.0,0.0,0.0,0.0,1501.2,1499.4,1499.4,1503.7,4.82,4.48,4.04,3.74,0,0,0,0,-173.5350037039477,10.405592985924812,63.419630058311256,0,60.91958,60.394802,-0.03065855,-9.86618E-4,-0.9757389,0.9762209,16.446655,8.024329,-47.360973,50.77346,-84,376,1477,1526.0,0.018278511,0.0013553514,-4.0270004,4.027042,0.01832869186987155,0.18131148797047114,0.1520069145910053,-0.7041032878329656,-121.3178343785859,238.6821656214141,-81.28064167606655,10.565115799518583,0.5623961513537041,-105.35249584671578,1.515907296654064,7104262.950572645,-88.58128296207383,-85.423197312574,64.95,NONE,0.0,0.0,0.0,NONE,-1.0872449046285686E-11,6.784432617206242E-10,-0.020153046,2,60.56,62.94,51.28,53.73,15.104,15.104,5.391,8.607791,0,1973,3.752,12.0,13.657,57,33.1,OK,38,0,0,0,0,0,65,100,0.0,0,0.0,7.4028503E-7,9.0E-44,0.0,1.4640026E-27,64,3.5675243E-5,-1.0338638E-7,3.4466236E-34,False,False,0,None,5.958433E33,2.3356618E-17,
163669162,19.236,10.405592190681881,63.419632699750764,15,64.898285,64.67149,-0.033134483,-0.021175079,-1.0146217,1.0153834,-18.907763,-11.128007,-72.11054,75.374176,-279,-1,1486,1511.0,0.02778024,-0.024159634,-3.950146,3.9503174,0.03681616011519584,0.16183046207209026,0.7876267292999162,-1.159833992616083,-179.2519999523602,180.7480000476398,-146.70564723237783,-1.4114675230063956,1.1865366823510266,176.03355642730554,1.8082583058148456,6.084007434634686,26.59634789302618,29.754433542526005,64.96,,,10.4055922,63.4196317,20190906,73207,2019-09-06T07:32:07Z,48.556,0.7,1.25,9.72,8,7,15,-0.09,-0.19,-3.65,0,0,-9998,10000,4,4,10.405602398280301,63.41961709227797,60,10276807,114,100,402,3509,3498,4338,4356,-2494,17429,29,3494,17469,0,false,false,false,false,false,false,false,false,false,false,5773,5971,5194,5146,64,80,80,64,1606,1643,1550,1542,1590,1631,1556,1537,0.0,0.0,0.0,0.0,1502.5,1498.8,1499.4,1501.8,4.71,4.66,4.5,3.18,0,0,0,0,170.06187602777513,10.405592319353364,63.41963193531935,0,65.434616,64.769615,-0.030531777,-0.013082154,-1.0063273,1.0068753,13.364589,9.459728,-48.851986,51.522957,-282,-30,1480,1506.0,0.03410864,-0.012094071,-3.9939628,3.9941266,0.03618930415025512,0.16394197481209705,0.6389948477234556,-1.0536588137063128,172.54881565816424,172.54881565816424,-137.9201187974565,20.1840096725172,2.1431449521813937,171.44574464957535,1.7249719237799326,7104263.258673072,114.89643871594683,118.05452436544665,64.96,NONE,0.0,0.0,0.0,NONE,-4.766089716685176E-10,1.0439591299233055E-9,-0.02003479,2,59.18,63.77,53.39,51.6,15.183,15.183,5.389,8.933877,0,1970,3.75,12.0,9.589,57,33.1,OK,39,0,0,0,0,0,65,100,0.0,0,0.0,2.695364E-6,9.0E-44,0.0,1.4640026E-27,64,0.0022633076,-8.2466084E-7,1.213516E-33,False,False,0,None,5.818009E34,1.5666469E-16,
167530439,20.239,10.405587208830934,63.41963252677032,16,69.04839,68.646515,-0.022102606,-0.023335114,-0.9817576,0.9822836,17.05943,-8.98362,-31.35286,36.806675,-40,-338,1474,1512.0,0.05867649,-0.020940876,-3.9535768,3.9540677,0.062301288186140225,0.1854390519807433,1.9110812973906717,-1.0154471666301768,121.8262967052718,121.82629670527183,-206.8442469612895,-5.0142869804434405,-0.05672958038389207,99.66489729395964,1.8752647868742938,6.412098158666833,-108.5009322116289,-105.34284656212908,65.02,,,10.4055877,63.419632,20190906,73208,2019-09-06T07:32:08Z,52.069,0.68,1.22,9.39,9,7,16,-0.07,-0.27,-3.72,0,0,-7680,10000,4,4,10.405602398280301,63.41961709227797,60,10277645,48,52,403,1818,3513,3861,3880,-1090,15515,35,212,15516,0,false,false,false,false,false,false,false,false,false,false,5786,5956,5282,4859,64,81,81,64,1633,1629,1570,1494,1627,1620,1570,1477,0.0,0.0,0.0,0.0,1500.6,1496.9,1499.4,1501.2,5.32,4.31,4.85,2.37,0,0,0,0,159.67569760328647,10.405586369071518,63.419631823142225,0,68.947876,68.75045,-0.021778734,-0.020355485,-0.9916741,0.99212205,-4.821847,-9.49947,-31.287495,33.051437,-16,-344,1474,1513.0,0.061742563,-0.011427787,-3.9763477,3.9768434,0.06279122778820988,0.23248263621825965,1.9400815494116326,-1.2792030530448608,115.56607958895664,115.56607958895665,-193.8955189698664,22.788592133462178,0.1387629151403842,97.0405146324259,1.821834644207385,7104263.614236899,-104.88350595878879,-101.72542030928896,64.98,NONE,0.0,0.0,0.0,NONE,-1.2941471060440597E-9,2.5083645981042547E-9,-0.019943237,2,64.22,61.83,54.98,45.06,15.18,15.18,5.392,9.273986,0,1967,3.768,12.0,9.422,56,33.1,OK,40,0,0,0,0,0,65,100,0.0,0,0.0,2.4384494E-11,9.0E-44,0.0,1.4640026E-27,64,0.14394379,-6.583317E-6,3.0654665E-33,False,False,0,None,3.2853954E35,1.0129499E-15,
171445328,21.257,10.405579742670675,63.41963099240509,16,73.400375,72.94867,-0.0210911,-0.055478662,-0.97619414,0.97799677,4.678051,3.4192321,41.82972,42.229145,-10,-331,1471,1507.0,0.060970593,-0.0024448524,-3.8505173,3.8510008,0.06101959030024455,0.34074652927224935,1.6821441046851906,-1.6949279455226478,124.85063318324174,124.85063318324171,-200.16480257776135,-0.9321189059134052,-0.24520621944855794,98.09472296633143,1.9130010653800003,6.834843340492421,-140.99517932469053,-137.83709367519072,65.01,,,10.4055811,63.4196307,20190906,73209,2019-09-06T07:32:09Z,55.575,0.68,1.22,9.13,9,7,16,-0.25,-0.36,-3.7,0,0,9400,10000,4,4,10.405602398280301,63.41961709227797,60,10277645,17,52,404,1818,3513,3861,3880,-1090,15515,35,0,15516,0,false,false,false,false,false,false,false,false,false,false,6089,5753,5444,4867,63,81,80,63,1634,1626,1600,1506,1627,1638,1592,1497,0.0,0.0,0.0,0.0,1496.9,1495.7,1495.7,1497.6,5.28,4.19,4.78,2.81,0,0,0,0,171.05428002854308,10.405579258192006,63.419630141558244,0,73.516685,72.713234,-0.025430258,-0.050700556,-0.96736544,0.9690269,-19.106613,4.641267,33.285217,38.65889,-1,-331,1474,1510.0,0.020317916,-0.011086205,-3.9169118,3.9169803,0.023145661748969162,0.3701563220493734,1.6922839851853237,-1.7585476761868684,119.85976192071969,119.85976192071968,-193.57398562616953,18.927870147406576,-1.1227073477335467,96.9916570250083,1.8522920657391304,7104264.03784544,-140.06895685978122,-136.9108712102814,64.99,NONE,0.0,0.0,0.0,NONE,-2.529658369203855E-9,3.0492831570716554E-10,-0.019851685,2,63.71,65.13,58.79,47.35,15.18,15.18,5.384,9.505272,0,1964,3.765,12.0,9.318,56,33.2,OK,41,0,0,0,0,0,65,100,0.0,0,0.0,7.051417E-19,9.0E-44,0.0,1.4640026E-27,64,9.020752,-5.2301457E-5,8.01993E-33,False,False,0,None,1.8170605E36,6.6161544E-15,
175293666,22.257,10.405573330699799,63.419628646828144,16,76.39328,76.60131,-0.03485506,-0.025077302,-0.7284834,0.7297478,4.9383345,1.827488,5.791428,7.827356,-40,-405,1471,1526.0,0.18556648,0.09523289,-2.633986,2.6422315,0.2085766603134227,0.20342489379612355,-1.1095993390799248,-2.027667132368523,129.14226896560362,129.14226896560365,-195.11080571237568,-0.34239880151625185,-0.11875160360923265,103.77525561894197,1.9345147369826103,7.250202962435619,-125.40210711800007,-122.24402146850025,64.93,,,10.4055744,63.4196283,20190906,73210,2019-09-06T07:32:10Z,58.92,0.68,1.22,8.9,9,7,16,-0.24,-0.3,-3.52,0,0,0,10000,4,4,10.405602398280301,63.41961709227797,60,10280380,48,52,405,1805,3498,3913,3926,0,15686,23,212,5,0,false,false,false,false,false,false,false,false,false,false,4919,5128,4602,4412,64,80,80,64,1525,1529,1480,1464,1514,1508,1479,1453,0.0,0.0,0.0,0.0,1512.9,1511.7,1511.1,1513.5,3.71,2.99,3.38,2.38,0,0,0,0,158.88076527810077,10.405572386452173,63.41962752909521,0,76.56763,76.3477,-0.032623406,-0.026794441,-0.7262719,0.7274979,2.012964,-0.5084316,1.9681301,2.8607802,-40,-405,1468,1523.0,0.045222446,0.053815894,-2.751304,2.7522016,0.07029381146022545,0.37827581738750404,-1.2945704088270906,-2.2274368909287827,124.97116520595425,124.97116520595426,-191.68198174235008,9.999890295635515,-1.0784931430640738,104.67762664845101,1.8911701158627976,7104264.495292575,-147.84568707261639,-144.68760142311655,64.94,NONE,0.0,0.0,0.0,NONE,3.373273956646885E-9,6.869582971108781E-10,-0.015335083,2,48.05,50.95,42.86,42.4,15.189,15.189,5.425,9.645612,732,1962,3.765,12.0,9.565,56,33.3,OK,42,0,0,0,0,0,65,100,0.0,0,0.0,6.803309E-28,9.0E-44,0.0,1.4640026E-27,64,450.17188,-3.73358E-4,1.8315241E-32,False,False,0,None,8.1089074E36,4.0554586E-14,
179142572,23.257,10.405571047369097,63.41962773188363,16,77.65264,78.119865,-0.030443195,-0.035070088,-0.9251623,0.92632717,11.154942,-3.399267,4.7015615,12.573481,-10,-338,1477,1515.0,0.25067925,0.34939054,-0.98318267,1.0731086,0.43001609722214235,-0.27756220692768785,1.1733266880256619,-3.2397576182858008,131.28341266183162,131.28341266183162,-192.1819694139593,2.721393094866624,-0.8272719728363248,104.18314316468096,1.9577492720724456,7.446861826302274,68.6541140201881,71.81219966968793,64.97,,,10.405571,63.4196273,20190906,73210,2019-09-06T07:32:10Z,60.54,0.68,1.22,8.72,9,7,16,0.17,-0.02,-2.11,0,0,0,10000,5,5,10.405602398280301,63.41961709227797,60,10280380,48,52,406,1805,3498,3913,3926,0,15686,23,212,5,0,false,false,false,false,false,false,false,false,false,false,5149,5418,4883,4622,64,81,82,64,1543,1570,1500,1480,1530,1561,1507,1470,0.0,0.0,0.0,0.0,1511.1,1508.6,1508.6,1511.1,3.94,3.68,3.63,2.66,0,0,0,0,153.47812573977757,10.405570143595387,63.41962675159262,0,77.481,77.97107,-0.030355338,-0.033331383,-0.92058104,0.92168427,8.758199,-1.1478609,4.260131,9.80675,-4,-341,1474,1512.0,0.19843088,0.20936744,-1.058353,1.0969597,0.2884606333100961,-0.14734125332708234,1.0245176240432214,-3.3825132608549695,127.09707940242394,127.09707940242396,-189.1549320361018,12.160367910892024,-2.5037667772326646,103.85443885996352,1.9310752212272042,7104264.691186903,133.23057427303797,136.38865992253778,64.95,NONE,0.0,0.0,0.0,NONE,8.187276916209514E-9,7.916081358405573E-9,-0.0069503784,2,51.67,54.38,47.23,44.1,15.247,15.247,5.416,9.701045,726,1959,3.761,12.0,8.413,56,33.2,OK,43,0,0,0,0,0,65,100,0.0,0,0.0,8.8526574E-32,9.0E-44,0.0,1.4640026E-27,64,3025.25,-9.2217716E-4,2.7992385E-32,False,False,0,None,1.816882E37,9.465216E-14,
183046670,24.272,10.405572214738037,63.419626767411614,16,77.90092,78.576996,-0.030896435,-0.0342368,-0.97220194,0.9732951,-11.619902,6.2763896,-8.926164,15.94025,-105,-325,1471,1510.0,0.10733577,0.23075788,-0.37202173,0.45074418,0.2544998273193133,-0.13429914712168645,1.1254328720700513,-0.29889580369298707,131.57249427266058,131.5724942726606,-192.0773281346196,2.6690888941273347,5.214048969257583,107.65827103763037,1.8473505681722995,7.60208689073642,-163.0562140984548,-159.898128448955,64.98,,,10.4055723,63.4196265,20190906,73212,2019-09-06T07:32:12Z,61.046,0.68,1.22,8.57,9,7,16,-0.05,0.12,-0.95,0,0,0,10000,5,5,10.405602398280301,63.41961709227797,60,10280380,48,52,407,1805,3498,3913,3926,0,15686,23,212,5,0,false,false,false,false,false,false,false,false,false,false,5142,5519,4823,4777,64,82,82,64,1539,1587,1509,1504,1536,1579,1497,1486,0.0,0.0,0.0,0.0,1509.2,1506.1,1505.5,1509.2,3.86,3.95,3.91,2.94,0,0,0,0,158.26379459159472,10.405571727911813,63.41962602456851,0,78.165184,78.59222,-0.0307232,-0.034456074,-0.96446943,0.96557367,-7.9758286,7.2058225,-4.403822,11.615996,-102,-322,1471,1509.0,0.032549765,0.22070046,-0.47323957,0.52318627,0.22308782946426073,-0.11180745758906217,1.3002764195521819,-0.6782557011551075,127.31294481952617,127.31294481952614,-187.82826518429948,12.665489142198936,3.494189712521594,108.56292772208391,1.820751877904087,7104264.857256899,23.929186543899885,27.08727219339971,65.0,NONE,0.0,0.0,0.0,NONE,2.362487277117199E-8,2.4196128652896873E-9,-0.0026931763,2,52.33,57.29,47.36,45.85,15.253,15.253,5.418,9.630172,731,1957,3.788,12.0,7.114,56,33.3,OK,44,0,0,0,0,0,65,100,0.0,0,0.0,1.6497546E-32,9.0E-44,0.0,1.4640026E-27,64,6232.25,-0.0013777394,2.6842845E-32,False,False,0,None,1.7265036E37,1.2969228E-13,
187004511,25.300,10.405570621508014,63.41962667413923,16,78.19021,78.48505,-0.028099043,-0.032027148,-1.2725387,1.2732518,-12.145767,-9.878941,-8.734694,17.927855,-149,-399,1453,1514.0,0.40382403,0.103125155,-0.083730355,0.42511106,0.41678369388634645,-0.3390625473622232,-1.1416798561685255,0.10523710874150506,131.4489117915487,131.4489117915487,-192.84444420259874,-0.2895637665941695,9.54975584028259,111.57795596380653,1.906533743492725,7.731300178397311,-16.797433967675204,-13.639348318175378,64.99,,,10.405571,63.4196254,20190906,73212,2019-09-06T07:32:12Z,60.951,0.68,1.22,8.51,9,7,16,0.09,-0.07,-0.25,0,0,0,4477,5,5,10.405602398280301,63.41961709227797,60,10280380,48,52,408,1805,3498,3913,3926,0,15686,23,212,5,0,false,false,false,false,false,false,false,false,false,false,6015,6255,5644,5304,63,82,82,64,1628,1666,1585,1559,1620,1646,1570,1537,0.0,0.0,0.0,0.0,1500.6,1495.7,1495.7,1500.0,5.14,5.25,4.88,3.57,0,0,0,0,156.31153573359626,10.405569964256076,63.41962530733608,0,78.36447,78.33818,-0.027565746,-0.04266486,-1.2716208,1.2726349,6.061441,-9.2884,2.6688106,11.407804,-155,-395,1453,1513.0,0.1543519,0.10792716,-0.045171484,0.19368336,0.1883421898196995,-0.0730650318505746,-0.8333574145755649,-0.14237822301739056,127.0640387553346,127.0640387553346,-187.2060590802062,10.476422611335204,6.477692532652225,112.99280945345825,1.8543418393515767,7104265.0076041,-116.36908783055783,-113.211002181058,64.97,NONE,0.0,0.0,0.0,NONE,1.3794039138180015E-8,3.027862525620414E-9,-2.0599365E-4,2,62.28,65.16,55.58,51.62,15.243,15.243,5.416,9.417147,746,1953,3.785,12.0,7.536,56,33.3,OK,45,0,0,0,0,0,65,100,0.0,0,0.0,2.5947275E-34,9.0E-44,0.0,1.4640026E-27,64,5261.0,-0.0012619275,2.6648748E-32,False,False,0,None,1.7112512E37,1.1741044E-13,
190863788,26.303,10.405568439952997,63.419628191638964,16,78.49903,78.65227,-0.026919942,-0.026570287,-0.93674034,0.9375037,-0.71622443,1.9850711,-0.8799452,2.2864356,-78,-357,1465,1509.0,0.54579633,0.1665394,-0.036956787,0.5718346,0.5706391378951395,-0.37060700673908364,0.23627101290137162,-1.5638752767429358,131.733903993057,131.73390399305697,-191.17866890679247,1.9184907908499054,6.548881552441135,107.99344055406715,2.092345316501181,8.013178447301334,-14.837987581884681,-11.679901932384857,64.95,,,10.4055682,63.4196277,20190906,73214,2019-09-06T07:32:14Z,61.046,0.68,1.22,8.39,9,7,16,0.33,0.0,-0.21,0,0,0,0,5,5,10.405602398280301,63.41961709227797,60,10280387,48,52,409,1805,3498,3913,3926,0,15688,23,212,8,0,false,false,false,false,false,false,false,false,false,false,5129,5373,4702,4652,63,81,81,63,1536,1570,1498,1489,1529,1561,1503,1480,0.0,0.0,0.0,0.0,1509.2,1506.7,1506.1,1509.2,3.9,3.84,3.87,2.81,0,0,0,0,165.63541755030278,10.405567473310674,63.4196272983966,0,78.19783,78.13815,-0.023350166,-0.028042343,-0.9244651,0.9251851,0.057037417,-2.6691542,0.24213101,2.680721,-75,-354,1468,1511.0,0.25738248,0.1340481,0.0030041984,0.29021314,0.2901975795787207,-0.0372341075082272,0.6225267422755364,-1.9493917540377492,127.23601412934792,127.23601412934795,-188.0982478746489,11.036610923180127,4.507472015252967,108.63680288493123,2.0754366636789436,7104265.284192191,-12.248079059011085,-9.08999340951126,64.96,NONE,0.0,0.0,0.0,NONE,1.3650446111594762E-8,1.1518996289714395E-8,-6.942749E-4,2,51.49,54.52,47.68,45.73,15.203,15.203,5.432,9.13822,768,1951,3.785,12.0,8.397,56,33.3,OK,46,0,0,0,0,0,65,100,0.0,0,0.0,2.953312E-33,9.0E-44,0.0,1.4640026E-27,64,4009.625,-0.0011024553,3.4007154E-32,False,False,0,None,2.4523218E37,1.07093594E-13,
194713330,27.304,10.40556790629958,63.419630896140646,16,77.798355,78.477104,-0.027298845,-0.016468603,-0.7557703,0.7564425,0.835288,-1.8934829,3.4388957,4.0136003,-43,-347,1471,1511.0,0.46783814,0.22962333,-0.066235565,0.5253442,0.5211519760704109,-0.2193997003999219,0.448986545557004,-2.85188946832948,131.87220182498027,131.87220182498027,-190.5264375445652,2.941690382185031,4.733855204666864,107.92896026383528,2.302407929409747,8.332505959552918,-76.64150388402399,-73.48341823452417,64.99,,,10.4055681,63.4196305,20190906,73215,2019-09-06T07:32:15Z,60.91,0.68,1.22,8.27,9,7,16,0.23,0.06,-0.04,0,0,0,-1120,5,5,10.405602398280301,63.41961709227797,60,10280387,48,52,410,1805,3498,3913,3926,0,15688,23,212,8,0,false,false,false,false,false,false,false,false,false,false,4230,4508,4159,4219,63,82,83,63,1390,1429,1385,1401,1388,1428,1385,1381,0.0,0.0,0.0,0.0,1528.8,1524.5,1524.5,1527.0,0.93,0.77,1.15,0.75,0,0,0,0,148.8027656261362,10.405567163378949,63.419629964022654,0,77.64785,77.71473,-0.028720638,-0.015230167,-0.82952213,0.8301589,1.7599144,-6.4723563,1.472716,6.867138,-43,-344,1468,1508.0,0.18584934,0.17914885,-0.05894305,0.26478022,0.25813617040188197,0.03852675916493614,0.7723744342045491,-3.059576305850163,127.31367195776754,127.31367195776755,-187.43280847231077,11.737268955028487,4.889965580171885,108.40447479282354,2.2631573568989283,7104265.584284113,-3.3791910787451753,-0.22110542924535084,64.98,NONE,0.0,0.0,0.0,NONE,1.8786941617108894E-8,1.0823739718405471E-8,-2.2888184E-4,2,33.39,37.52,32.76,33.49,15.231,15.231,5.4,8.865462,791,1948,3.775,12.0,7.549,56,33.3,OK,47,0,0,0,0,0,65,100,0.0,0,0.0,7.2908004E-29,9.0E-44,0.0,2.5635018E-8,64,2628.9375,-8.749256E-4,4.0958558E-32,False,False,0,None,3.544846E37,8.964054E-14,
198613368,28.317,10.405570234077864,63.41963336094208,16,76.187675,76.44451,0.004419131,-0.0072892546,-0.9620675,0.9621052,8.269437,-4.0474057,-0.17991614,9.208553,-69,-328,1474,1511.0,0.35513794,0.396093,3.1150439,3.160144,0.5319893124446184,-0.23844251156006968,1.9643627358412394,-1.748112338263888,131.38981599458884,131.38981599458884,-189.71799835442738,4.16051428864801,6.721498424064774,106.70811636994777,2.4152551881825337,8.644266162437605,44.93742118143369,48.095506830933516,65.02,,,10.4055707,63.4196329,20190906,73216,2019-09-06T07:32:16Z,59.101,0.68,1.22,8.19,9,7,16,0.53,0.41,1.56,0,0,0,-10000,5,5,10.405602398280301,63.41961709227797,60,10280387,48,52,411,1805,3498,3913,3926,0,15688,23,212,8,0,false,false,false,false,false,false,false,false,false,false,4896,4984,4944,4401,63,81,82,64,1581,1537,1514,1435,1523,1513,1536,1451,0.0,0.0,0.0,0.0,1511.1,1507.3,1507.9,1510.4,5.52,3.74,3.71,1.74,0,0,0,0,130.29329617477163,10.405570286430939,63.41963277083142,0,75.71691,75.33462,0.010293724,0.003662208,-0.9174658,0.9175309,-1.9911163,-8.845101,-4.422959,10.087761,-75,-322,1477,1513.0,0.08077057,0.32602945,3.1447337,3.1626205,0.33588553181935776,0.008080168382367414,2.3301364739992194,-1.2559189511675408,126.75326074492837,126.75326074492835,-187.5492614070674,12.030665611503004,3.880407345679194,105.66196367404861,2.3647474700782314,7104265.955182121,50.0187039865799,53.176789636079725,64.98,NONE,0.0,0.0,0.0,NONE,3.377821597724837E-8,7.016491876052032E-9,0.015052795,2,47.59,47.65,54.05,43.2,15.314,15.314,5.438,8.587121,815,1946,3.783,12.0,6.818,56,33.3,OK,48,0,0,0,0,0,65,100,0.0,0,0.0,2.9291604E-24,9.0E-44,0.0,2.5635018E-8,64,425.75,-3.617053E-4,3.53207E-32,False,False,0,None,2.6587156E37,3.9319463E-14,
202475578,29.321,10.405576593997775,63.419634495001496,16,73.59996,73.57336,-0.01731461,-0.03232838,-1.5057862,1.5062326,39.237415,-11.3226385,3.1068501,40.956432,-182,-354,1456,1509.0,0.39182553,0.31817174,2.1866143,2.2441127,0.5047380546074577,-0.16538255450942507,3.0865529758180412,1.1054708776578273,132.04205054503808,132.04205054503808,-187.9431036062337,-0.8951670746895832,7.044045975046563,109.65851310537869,2.322269439084405,8.999748448424908,47.254881893690175,50.41296754319,65.07,,,10.4055772,63.4196339,20190906,73217,2019-09-06T07:32:17Z,55.921,0.68,1.22,8.11,9,7,16,0.17,0.29,2.66,0,0,0,-4694,5,5,10.405602398280301,63.41961709227797,60,10280387,48,52,412,1805,3498,3913,3926,0,15688,23,212,8,0,false,false,false,false,false,false,false,false,false,false,6355,6964,6390,6266,64,81,82,63,1688,1739,1691,1684,1689,1726,1687,1676,0.0,0.0,0.0,0.0,1478.5,1474.9,1474.9,1479.7,6.56,5.85,6.0,5.52,0,0,0,0,132.12940673828655,10.405576700284607,63.41963388413886,0,74.31698,72.09976,-0.020125283,-0.05326284,-1.5467154,1.5477631,-9.147489,-18.110756,5.091496,20.918877,-161,-296,1465,1503.0,0.075912155,0.23726504,1.9366008,1.9525573,0.24911313404988536,0.09188910255111213,5.0146623577632745,-0.5738375864070627,127.36675883604421,127.3667588360442,-187.1932511840616,18.278844139586088,0.886663293193211,112.51944408837312,2.2629883503910326,7104266.313663842,44.92857246498255,48.086658114482375,65.06,NONE,0.0,0.0,0.0,NONE,2.509914109348272E-8,3.9775873417700485E-9,0.010177612,2,72.63,75.63,69.5,70.04,15.245,15.245,5.32,8.282051,845,1945,3.813,12.0,6.862,56,33.3,OK,49,0,0,0,0,0,65,100,0.0,0,0.0,1.1636327E-17,9.0E-44,0.0,2.5635018E-8,64,7.1658936,-4.7172663E-5,1.3496654E-32,False,False,0,None,4.8195062E36,6.0723186E-15,
206389142,30.338,10.405580016868615,63.4196351732034,16,72.45255,72.837265,-0.020213563,-0.02411471,-0.9885654,0.98906606,2.584492,1.3516147,0.6499625,2.9881284,-117,-357,1468,1515.0,0.25646985,0.14802267,0.012875501,0.29640052,0.296120739514485,-0.11300224031434522,0.7575628319562036,-0.6946787905104468,131.83171192901506,131.83171192901506,-188.32344574404794,-4.164099424631035,3.9815791891520167,109.6956802748367,2.2983014263764256,9.22039726198332,47.05155751051133,50.209643160011154,65.05,,,10.4055799,63.4196346,20190906,73218,2019-09-06T07:32:18Z,55.211,0.68,1.22,7.99,9,7,16,-0.24,-0.01,1.03,0,0,0,0,5,5,10.405602398280301,63.41961709227797,60,10280389,16,52,413,1805,3498,3913,3926,0,15685,23,1,17518,0,false,false,false,false,false,false,false,false,false,false,5213,5504,4746,4802,62,82,83,63,1550,1588,1508,1500,1543,1568,1487,1498,0.0,0.0,0.0,0.0,1507.9,1505.5,1505.5,1507.9,3.83,3.8,3.68,2.76,0,0,0,0,168.63352565665696,10.405579671828571,63.419634357763826,0,72.47894,71.70757,-0.018936884,-0.026369464,-0.9857957,0.9863301,-1.9847672,-0.44146457,-5.32693,5.701787,-117,-357,1468,1515.0,-0.014072907,0.12670511,-0.012554902,0.12810098,0.12748424496967256,0.026821751898952334,1.0072550383116299,-0.9729722693076656,127.11675858425535,127.11675858425536,-187.5785630204256,13.857535092825824,-4.070408341749761,110.32851983214687,2.22808067180888,7104266.478107415,61.09418804062756,64.25227369012738,65.04,NONE,0.0,0.0,0.0,NONE,1.2942063450993651E-8,-2.041834994598612E-9,-2.4414062E-4,2,53.11,56.48,45.71,46.46,15.081,15.081,5.408,8.075945,865,1942,3.781,12.0,12.066,56,33.3,OK,50,0,0,0,0,0,65,100,0.0,0,0.0,4.23652E-15,9.0E-44,0.0,2.5635018E-8,64,4.8273926,-3.8251525E-5,1.1782264E-32,False,False,0,None,3.9322724E36,5.126244E-15,
