Tick#,offsetTime,IMU_ATTI(0):Longitude,IMU_ATTI(0):Latitude,IMU_ATTI(0):numSats,IMU_ATTI(0):barometer:Raw,IMU_ATTI(0):barometer:Smooth,IMU_ATTI(0):accel:X,IMU_ATTI(0):accel:Y,IMU_ATTI(0):accel:Z,IMU_ATTI(0):accel:Composite,IMU_ATTI(0):gyro:X,IMU_ATTI(0):gyro:Y,IMU_ATTI(0):gyro:Z,IMU_ATTI(0):gyro:Composite,IMU_ATTI(0):mag:X,IMU_ATTI(0):mag:Y,IMU_ATTI(0):mag:Z,IMU_ATTI(0):mag:Mod,IMU_ATTI(0):velN,IMU_ATTI(0):velE,IMU_ATTI(0):velD,IMU_ATTI(0):velComposite,IMU_ATTI(0):velH,IMU_ATTI(0):GPS-H,IMU_ATTI(0):roll,IMU_ATTI(0):pitch,IMU_ATTI(0):yaw,IMU_ATTI(0):yaw360,IMU_ATTI(0):totalGyro:Z,IMU_ATTI(0):totalGyro:X,IMU_ATTI(0):totalGyro:Y,IMU_ATTI(0):magYaw,IMU_ATTI(0):distanceHP,IMU_ATTI(0):distanceTravelled,IMU_ATTI(0):directionOfTravel[mag],IMU_ATTI(0):directionOfTravel[true],IMU_ATTI(0):temperature,General:relativeHeight,General:absoluteHeight,GPS(0):Long,GPS(0):Lat,GPS(0):Date,GPS(0):Time,GPS:dateTimeStamp,GPS(0):heightMSL,GPS(0):hDOP,GPS(0):pDOP,GPS(0):sAcc,GPS(0):numGPS,GPS(0):numGLNAS,GPS(0):numSV,GPS(0):velN,GPS(0):velE,GPS(0):velD,RC:Aileron,RC:Elevator,RC:Rudder,RC:Throttle,Controller:navHealth,Controller:ctrl_level,HP:Longitude,HP:Latitude,HP:rthHeight,BatBlackBox:tick,BatBlackBox:id,BatBlackBox:rsoc,BatBlackBox:index,BatBlackBox:rm,BatBlackBox:fcc,BatBlackBox:cell_min,BatBlackBox:cell_max,BatBlackBox:current,BatBlackBox:voltage,BatBlackBox:temp,BatBlackBox:flag,BatBlackBox:reserve,BatBlackBox:user_data,OA:avoidObst,OA:emergBrake,OA:radiusLimit,OA:airportLimit,OA:groundForceLanding,OA:horizNearBoundary,OA:vertLowLimit,OA:vertAirportLimit,OA:roofLimit,OA:hitGroundLimit,Motor:Speed:RFront,Motor:Speed:LFront,Motor:Speed:LBack,Motor:Speed:RBack,Motor:EscTemp:RFront,Motor:EscTemp:LFront,Motor:EscTemp:LBack,Motor:EscTemp:RBack,Motor:PPMrecv:RFront,Motor:PPMrecv:LFront,Motor:PPMrecv:LBack,Motor:PPMrecv:RBack,Motor:PPMsend:RFront,Motor:PPMsend:LFront,Motor:PPMsend:LBack,Motor:PPMsend:RBack,Motor:V_out:RFront,Motor:V_out:LFront,Motor:V_out:LBack,Motor:V_out:RBack,Motor:Volts:RFront,Motor:Volts:LFront,Motor:Volts:LBack,Motor:Volts:RBack,Motor:Current:RFront,Motor:Current:LFront,Motor:Current:LBack,Motor:Current:RBack,Motor:Status:RFront,Motor:Status:LFront,Motor:Status:LBack,Motor:Status:RBack,Motor:thrustAngle,IMU_ATTI(1):Longitude,IMU_ATTI(1):Latitude,IMU_ATTI(1):numSats,IMU_ATTI(1):barometer:Raw,IMU_ATTI(1):barometer:Smooth,IMU_ATTI(1):accel:X,IMU_ATTI(1):accel:Y,IMU_ATTI(1):accel:Z,IMU_ATTI(1):accel:Composite,IMU_ATTI(1):gyro:X,IMU_ATTI(1):gyro:Y,IMU_ATTI(1):gyro:Z,IMU_ATTI(1):gyro:Composite,IMU_ATTI(1):mag:X,IMU_ATTI(1):mag:Y,IMU_ATTI(1):mag:Z,IMU_ATTI(1):mag:Mod,IMU_ATTI(1):velN,IMU_ATTI(1):velE,IMU_ATTI(1):velD,IMU_ATTI(1):velComposite,IMU_ATTI(1):velH,IMU_ATTI(1):GPS-H,IMU_ATTI(1):roll,IMU_ATTI(1):pitch,IMU_ATTI(1):yaw,IMU_ATTI(1):yaw360,IMU_ATTI(1):totalGyro:Z,IMU_ATTI(1):totalGyro:X,IMU_ATTI(1):totalGyro:Y,IMU_ATTI(1):magYaw,IMU_ATTI(1):distanceHP,IMU_ATTI(1):distanceTravelled,IMU_ATTI(1):directionOfTravel[mag],IMU_ATTI(1):directionOfTravel[true],IMU_ATTI(1):temperature,IMUEX(0):err,IMUEX(0):rtk_Longitude,IMUEX(0):rtk_Latitude,IMUEX(0):rtk_Alti,IMUEX(1):err,IMUEX(1):rtk_Longitude,IMUEX(1):rtk_Latitude,IMUEX(1):rtk_Alti,MotorCtrl:Status,MotorCtrl:PWM:RFront,MotorCtrl:PWM:LFront,MotorCtrl:PWM:LBack,MotorCtrl:PWM:RBack,BattInfo:Voltage,BattInfo:BatVoltage,BattInfo:AdVoltage,BattInfo:AvgCurrent,BattInfo:R_time,BattInfo:R_CAP_MAH,BattInfo:LowCellVoltage,BattInfo:LowCellVolThreshold,BattInfo:BatCurrent,BattInfo:Remaining%,BattInfo:Temp,BattInfo:status,battery_info:BatDynCnt,battery_info:Vol1Protect,battery_info:Vol2Protect,battery_info:Cap1Protect,battery_info:Cap2Protect,battery_info:Batpresent,battery_info:sopPercentage,battery_info:sopValue,battery_info:sopScale,battery_info:sopFlg,BattInfo:WindHeading:WindDir,battery_info:home_dir,BattInfo:Wind:rangeMin,BattInfo:Wind:rangeMax,battery_info:cap_speed,battery_info:against_wind,battery_info:emergency_land_cap,battery_info:intel_bat_land_cap,battery_info:intel_bat_gh_cap,BattInfo:Smart:SmartGh,BattInfo:Smart:SmartLand,BattInfo:GoHome:CntDown,BattInfo:GoHome:GhCmd,BattInfo:GoHome:CapLevel,BattInfo:GoHome:LandCapLv,Attribute|Value,ConvertDatV3,3.6.6-Tablet
62799422,.000,9.135997121194952,62.68354920048204,18,531.62683,531.7544,0.09439546,-0.029445015,-0.9887789,0.9937108,0.34471858,-0.058514383,-0.14921606,0.38015822,-30,-424,1440,1501.0,0.00405206,0.0077566844,0.025106117,0.026587637,0.008751305469182758,-0.008751305469182758,1.753893290224852,5.453439451016661,81.87103411708816,81.87103411708813,-0.9322920424344951,2.0803565105406943,-0.549290386855288,77.27071670950825,0.31171581953638966,1.1763665488660755,172.82643690282873,175.34633664777107,60.18,,,9.135998,62.6835492,20190821,134223,2019-08-21T13:42:23Z,619.003,0.69,1.18,9.8,11,7,18,0.0,0.0,0.01,0,0,0,0,5,5,9.13599132729412,62.68354831212829,120,,,,,,,,,,,,,,,false,false,false,false,false,false,false,false,false,false,0,0,0,0,50,65,65,50,944,945,944,945,940,940,940,940,0.0,0.0,0.0,0.0,1715.9,1712.2,1712.8,1716.5,0.0,0.0,0.0,0.0,0,0,0,0,-45.0,9.13599705634077,62.68354868328017,0,531.85406,531.51135,0.09516122,-0.030739903,-0.9889441,0.99398744,0.31893262,-0.15558895,-0.15765578,0.38830566,-30,-424,1440,1501.0,-8.137507E-5,-8.080645E-4,2.0566281E-4,8.3778717E-4,8.12151533940973E-4,-8.12151533940973E-4,1.754434116627097,5.4967553587235525,78.41119634700463,78.41119634700465,-0.6904209160603261,1.3662954709719088,-0.3324192599137251,77.14586650372162,0.2952397805548979,7011766.95776017,21.516973043912806,24.03687278885513,60.17,NONE,0.0,0.0,0.0,NONE,-5.935463448160057E-11,1.9274148646098193E-11,0.0,,,,,,17.268,17.268,6.169,1.4616333,0,3616,4.307,12.0,1.279,99,25.0,OK,14,0,0,0,0,0,65,100,0.0,0,0.0,-6.289478E31,2.68E-43,0.0,-3.409732E-7,67,5.49322E-5,-5.4932443E-5,3.1260447E-32,False,False,0,None,1.2009179E30,1.0842106E-19,Firmware Date| Oct 17 2018
66653551,1.002,9.135997108301028,62.68354892392025,18,531.6593,531.7474,0.093557976,-0.034233354,-0.987065,0.9920798,0.5729451,-0.3021425,-0.9285785,1.1321723,-27,-430,1443,1505.0,-0.00591808,-0.0018645178,0.02383746,0.024631782,0.006204844615873887,0.024503152988315017,1.7697671051987969,5.447179422069462,81.88314609850552,81.8831460985055,-1.083698903364479,2.296886177672228,-0.7909196130510312,77.08458681354351,0.3027348626037877,1.2126232736193565,-117.57397517207477,-115.05407542713245,60.47,,,9.1359978,62.6835489,20190821,134224,2019-08-21T13:42:24Z,618.924,0.69,1.18,9.48,11,7,18,0.01,0.0,0.01,0,0,0,0,5,5,9.13599132729412,62.68354831212829,120,,,,,,,,,,,,,,,false,false,false,false,false,false,false,false,false,false,573,573,569,572,55,69,69,55,1310,1320,1316,1314,1302,1302,1302,1302,0.1,0.1,0.1,0.1,1682.1,1677.9,1677.9,1683.4,7.86,7.36,7.96,7.51,0,0,0,0,-149.0362434679265,9.135996979505723,62.68354833234021,0,531.55756,531.5112,0.09661317,-0.021549657,-0.98869175,0.99363464,0.76609707,-0.8315223,1.219418,1.6629235,-24,-430,1440,1503.0,0.0038442637,0.0016428267,-0.0013874681,0.0044048056,0.0041805792769638705,0.034973212063933716,1.7606638326146642,5.49870959677789,78.34952785229036,78.34952785229035,-1.021666432256887,1.5056787326070713,-0.5386046660379077,76.61914988595801,0.28842909380824777,7011767.025465855,172.7712265462326,175.29112629117495,60.49,NONE,0.0,0.0,0.0,NONE,-6.270882708837652E-12,4.3500682712786385E-11,0.0,1,28.75,28.75,28.75,28.75,17.259,17.259,6.041,1.409295,0,3616,4.306,12.0,1.294,99,25.0,OK,15,0,0,0,0,0,65,100,0.0,0,0.0,-7.48419E22,2.68E-43,0.0,-3.409732E-7,67,5.49322E-5,-5.4932443E-5,2.9954426E-32,False,False,0,None,1.142638E30,1.0842106E-19,ACType|MavicEnterprise
70723630,2.059,9.135996887437159,62.68354850337855,18,531.55756,531.7485,0.0971021,-0.03443484,-0.9843444,0.9897214,0.6679519,1.9786355,2.0608654,2.9339945,-30,-424,1431,1492.0,0.0047061755,-0.0132788615,0.020473476,0.024852354,0.014088159899436743,0.031384777597164154,1.8434031373910544,5.504127757277735,81.92616917516163,81.92616917516165,1.8961078598785142,1.9546601538664194,-0.8153355441513624,77.28374744057191,0.28451814321046726,1.2678290380480715,-151.96376045922443,-149.4438607142821,60.78,,,9.1359976,62.6835485,20190821,134225,2019-08-21T13:42:25Z,618.899,0.69,1.18,9.16,11,7,18,0.02,0.01,0.0,0,0,0,0,5,5,9.13599132729412,62.68354831212829,120,,,,,,,,,,,,,,,false,false,false,false,false,false,false,false,false,false,2114,2069,2196,2198,55,69,69,55,1206,1206,1212,1218,1201,1200,1204,1206,0.0,0.0,0.0,0.0,1709.1,1704.8,1704.8,1710.3,0.6,0.21,0.75,0.38,0,0,0,0,-12.557556216278897,9.135996618177762,62.68354788368917,0,531.55756,531.51105,0.09321026,-0.029459082,-0.9901648,0.99497855,0.46568912,-2.2968006,-2.5574112,3.468791,-32,-424,1431,1492.0,0.0063390336,-0.007064222,-3.832297E-4,0.009499129,0.009491394944055312,0.04078853286427963,1.832021205047258,5.5195943364302,78.3845666591808,78.38456665918079,-0.16895553545567019,2.080439973438545,-0.5056416001897972,77.46232122900365,0.2741535466381056,7011767.099140564,-150.41332894897488,-147.89342920403254,60.8,NONE,0.0,0.0,0.0,NONE,-2.1364751246914688E-10,1.75742758159657E-10,0.0,2,10.32,10.0,10.47,10.77,16.98,16.98,6.145,1.4361148,0,3615,4.306,12.0,4.777,99,25.0,OK,16,0,0,0,0,0,65,100,0.0,0,0.0,-3.9505101E10,2.68E-43,0.0,-3.409732E-7,67,5.49322E-5,-5.4932443E-5,2.6657023E-32,False,False,0,None,9.955166E29,1.0842106E-19,dateTime|2019-8-21 13:42:15 GMT
74585125,3.063,9.135996863613965,62.68354790406336,18,531.55756,531.78656,-0.01778417,0.0078036627,-1.2984066,1.2985518,-17.902462,-0.5885696,1.2387118,17.954914,200,-433,1422,1499.0,-0.0781624,0.033497144,-0.37263012,0.38221017,0.08503775576777743,-0.01862396970666831,0.6829892768466086,-2.4666287577618715,80.17757223380958,80.1775722338096,0.49906156167623467,1.7740348445137277,-8.970078571343606,72.85016397796268,0.28612735579918314,1.3471551301003022,170.8123045677391,173.33220431268143,61.08,,,9.1359975,62.6835481,20190821,134226,2019-08-21T13:42:26Z,618.869,0.69,1.18,8.92,11,7,18,-0.01,0.0,-0.03,0,0,0,10000,5,5,9.13599132729412,62.68354831212829,120,3471713,17,78,288,2713,3508,4104,4115,-1127,16447,27,0,16441,0,false,false,false,false,false,false,false,false,false,false,6187,5946,4789,4993,53,68,68,52,1580,1592,1469,1473,1568,1610,1492,1458,0.0,0.0,0.0,0.0,1645.9,1641.1,1641.1,1645.9,5.6,4.62,3.52,4.7,0,0,0,0,-169.28178978452846,9.135996653056637,62.68354744565953,0,531.55756,531.58075,-0.005931233,0.0010771938,-1.2523756,1.2523901,-13.327297,11.299304,-4.337918,18.00302,212,-445,1419,1502.0,-0.08035449,0.0638752,-0.5811866,0.59018195,0.1026493297055885,-0.05408426713835143,-0.3511797019823741,-1.6961236607601415,76.80965513715113,76.80965513715114,-0.7719327458840073,2.71462130770747,-7.464513430411522,68.7316183863373,0.2883357417005518,7011767.186467203,160.05826733876106,162.5781670837034,61.11,NONE,0.0,0.0,0.0,NONE,6.308799467332316E-10,-1.2573704984500026E-9,-6.713867E-4,2,62.63,59.51,34.63,28.64,17.136,17.136,5.982,1.6154194,0,3614,4.226,12.0,2.968,98,25.0,OK,17,0,0,0,0,0,65,100,0.0,0,0.0,-5.449226E-30,2.65E-43,0.0,-3.409732E-7,67,5.6183897E-5,-5.5558292E-5,1.0160458E-32,False,False,0,None,1.7182704E29,1.1035335E-19,geoDeclination|252 degrees
78540441,4.091,9.13599674021315,62.68354737700347,18,534.3623,533.8688,0.0077459803,0.01730309,-1.1850437,1.1851953,-2.117208,8.858459,-10.09213,13.594336,113,-479,1422,1504.0,0.013722847,0.06606839,-3.8384933,3.8390865,0.06747850589133256,-0.010138548404561833,-0.5562207611125338,2.0329061048400114,80.67979319925183,80.67979319925183,2.4142709614920737,3.530592607726457,-6.602027890834785,70.63053165263956,0.29513370352961804,1.4371101198683132,-23.72445329770222,-21.204553552759894,61.44,,,9.1359967,62.683548,20190821,134227,2019-08-21T13:42:27Z,620.831,0.69,1.18,8.63,11,7,18,0.11,-0.01,-2.15,0,0,0,10000,5,5,9.13599132729412,62.68354831212829,120,3472494,16,78,289,2709,3504,4107,4127,-1205,16414,26,0,15865,0,false,false,false,false,false,false,true,false,false,false,7032,7114,5835,6042,54,68,68,54,1686,1682,1549,1587,1674,1666,1544,1572,0.0,0.0,0.0,0.0,1624.5,1618.4,1619.0,1624.5,6.53,5.73,4.44,4.52,0,0,0,0,-176.84674296902915,9.135996506455758,62.68354693141499,0,534.1324,533.5962,0.006136257,0.013170685,-1.2270409,1.227127,-4.1136236,10.73926,-4.5290356,12.359845,124,-485,1413,1499.0,0.07447834,0.043315705,-3.8318882,3.8328567,0.08615842241693389,-0.0300588280169407,-0.7973289841788661,1.8738237025650433,76.70334455653469,76.70334455653472,1.0071488554124413,4.9013624408354115,-6.484787760454435,69.89121643150347,0.30563984148166706,7011767.287591097,53.1212903577537,55.64119010269603,61.42,NONE,0.0,0.0,0.0,NONE,8.900276574238799E-10,-7.685565585542866E-10,-0.0064086914,2,69.07,68.33,53.05,56.25,16.826,16.826,5.848,1.9282241,0,3613,4.289,12.0,5.598,98,25.0,OK,18,0,0,0,0,0,65,100,0.0,0,0.0,-9.319507E-33,2.66E-43,0.0,-3.409732E-7,67,1.0821596E-4,-7.852216E-5,1.4820355E-32,False,False,0,None,3.31265E29,1.541873E-19,geoInclination|7434 degrees
82388949,5.091,9.135994340419282,62.68354843368105,18,538.52136,537.9263,8.433212E-4,0.0017317049,-1.0006812,1.0006831,10.907159,5.076131,8.398337,14.671922,156,-457,1443,1521.0,-0.01645583,0.015315628,-3.9422219,3.942286,0.02248027477048144,0.14719312036073343,-0.10580545569141842,-0.4124332508840346,81.53943252227675,81.53943252227674,1.3767284433955593,2.676342635534774,-7.308093430799154,72.23064786943935,0.1273821418538773,1.690005602590433,149.89617228174984,152.41607202669218,61.61,,,9.1359968,62.6835478,20190821,134228,2019-08-21T13:42:28Z,624.865,0.69,1.18,8.39,11,7,18,-0.08,0.03,-3.73,0,0,0,10000,5,5,9.135996784236193,62.68354819995658,120,3472494,20,78,290,2709,3504,4107,4127,-1205,16414,26,2,15865,0,false,false,false,false,false,false,true,false,false,false,6184,6300,5223,5306,54,69,69,53,1593,1603,1503,1498,1585,1596,1486,1492,0.0,0.0,0.0,0.0,1643.5,1637.3,1638.0,1641.7,5.0,4.52,4.05,3.24,0,0,0,0,179.0329508040642,9.135995630472147,62.68354744056949,0,537.8925,537.3425,-0.0012865642,0.005499458,-0.95843065,0.9584473,-9.389192,0.009995982,-1.8150827,9.56303,153,-442,1437,1511.0,-0.04870534,0.0098121585,-4.0685163,4.0688195,0.0496838871749034,0.022435258995314157,0.1263692285065013,-0.3055169772046859,77.0711174333545,77.07111743335452,-0.1099566482416372,6.123320129317836,-8.154416749227613,71.91893720558056,0.10293821035614305,7011767.53966195,146.448516420014,148.96841616495632,61.63,NONE,0.0,0.0,0.0,NONE,3.513149366824408E-10,-1.0247413092035183E-9,-0.010192871,2,57.48,60.66,45.69,48.05,16.411,16.411,5.906,2.5035994,0,3609,4.161,12.0,12.209,98,25.1,OK,19,0,0,0,0,0,65,100,0.0,0,0.0,-1.4540789E-24,8.8E-44,0.0,1.0298358E-23,63,0.025013447,-0.001172312,5.2400735E-32,False,False,0,None,3.2296308E30,1.5769968E-18,geoIntensity|5165832 nanoTesla
86237838,6.092,9.135996064716531,62.68354650282859,18,542.02216,541.9174,0.002996398,0.008465981,-0.98921114,0.9892519,-4.472631,-11.7281475,10.776045,16.543186,86,-513,1437,1528.0,0.1362501,-0.15957543,-3.9401515,3.9457347,0.20982947558767212,0.02212959757735719,-2.076798750887891,1.7378133795186341,82.78381298529548,82.78381298529547,2.7066352261764846,0.3137182424864755,-4.964449217538911,74.22985732927678,0.19225051380144814,1.9544679094648976,-140.87531173777222,-138.3554119928299,61.92,,,9.1359972,62.6835467,20190821,134229,2019-08-21T13:42:29Z,628.759,0.69,1.18,8.18,11,7,18,-0.01,-0.04,-3.92,0,0,1298,10000,5,5,9.135996784236193,62.68354819995658,120,3473278,48,69,291,2601,3707,4020,4030,-1231,16102,30,212,16100,0,false,false,false,false,false,false,true,false,false,false,6167,6128,5241,5184,53,68,68,53,1597,1611,1482,1495,1584,1595,1472,1500,0.0,0.0,0.0,0.0,1641.1,1636.1,1635.5,1639.8,5.14,5.11,3.75,3.07,0,0,0,0,179.4485068550367,9.135996347338983,62.68354604419695,0,541.6259,541.2877,0.0036029269,0.009307359,-1.0011296,1.0011795,-3.5326052,4.2967334,2.1924553,5.9789696,80,-507,1437,1525.0,-0.05791809,0.02346763,-3.9600103,3.9605033,0.06249187833945839,0.09697919056220551,-1.2937260210908872,2.0141216615720294,77.05832648131936,77.05832648131934,-0.15955075665509688,5.5980841656087525,-4.471774466937718,74.58139530190068,0.2407440156965982,7011767.701972407,175.03856528824804,177.55846503319037,61.9,NONE,0.0,0.0,0.0,NONE,3.513149366824408E-10,-1.0247413092035183E-9,-0.010192871,2,57.96,59.56,43.67,47.66,16.569,16.569,5.901,3.4604893,0,3607,4.084,12.0,9.27,98,25.1,OK,20,0,0,0,0,0,65,100,0.0,0,0.0,-2.6318372E-28,8.5E-44,0.0,1.0298358E-23,63,1.5317383,-0.009108367,2.2499232E-31,False,False,0,None,3.813103E31,9.6534765E-18,
90259466,7.137,9.135993481931925,62.683547347786174,18,546.52106,545.867,0.034642868,-0.011335325,-1.041274,1.0419117,-12.987027,-1.7056754,41.723644,43.731396,-103,-430,1434,1500.0,0.18991338,-0.0787318,-3.983118,3.9884202,0.20558644829044603,-0.050730900448259786,0.2655539012176358,1.0863742715008764,110.66004839019045,110.66004839019047,31.641710108812507,4.80707195092329,-3.05939061165111,99.85226936241122,0.19332451553785046,2.1243097077809314,-27.640348689765194,-25.12044894482287,62.32,,,9.1359944,62.6835473,20190821,134230,2019-08-21T13:42:30Z,632.667,0.69,1.18,7.99,11,7,18,0.13,-0.17,-3.98,0,0,5301,10000,5,5,9.135996784236193,62.68354819995658,120,3473278,17,69,292,2601,3707,4020,4030,-1156,16107,30,0,16100,0,false,false,false,false,false,false,false,false,false,false,6343,6263,5058,5044,54,70,70,54,1606,1604,1472,1506,1596,1594,1452,1508,0.0,0.0,0.0,0.0,1639.2,1635.5,1636.1,1638.6,5.46,4.9,3.18,3.64,0,0,0,0,-178.49015731062454,9.13599359029798,62.68354675463737,0,546.0507,545.6269,0.036249906,-0.009496036,-1.0228758,1.023562,-2.4935005,1.6505994,50.000767,50.090107,-82,-448,1428,1498.0,0.051125374,0.0028756408,-3.966352,3.9666824,0.05120618176146674,0.10316364690575813,0.7209152531423425,0.7498117098521542,104.40409720785503,104.40409720785505,26.548925882941344,9.507703257610602,-5.540913870712949,97.74643309750944,0.2288904562553961,7011767.885865808,-40.69271555489127,-38.17281580994894,62.29,NONE,0.0,0.0,0.0,NONE,-3.8290217164509624E-9,4.662861655195204E-9,-0.029663086,2,57.87,61.61,40.39,44.83,16.585,16.585,5.896,4.5900536,0,3604,4.132,12.0,8.779,98,25.1,OK,21,0,0,0,0,0,65,100,0.0,0,0.0,1.93171E-9,8.8E-44,0.0,1.0298358E-23,63,40.78125,-0.048038732,5.5004874E-31,False,False,0,None,1.7128138E32,4.0212257E-17,
94147597,8.147,9.135991052052672,62.68354892970926,18,550.04193,549.84076,0.044213768,-0.010570681,-0.9883304,0.9893754,-7.266488,-2.0561635,-3.6162717,8.372997,-193,-411,1428,1498.0,0.1617795,-0.052981477,-4.0478764,4.0514545,0.1702340754786006,0.04273808690774408,-0.27033460460703773,2.932779139129685,115.70838555614398,115.70838555614398,34.755266902463276,1.533472453240997,-2.024532688267074,106.47909376761126,0.3035480028279985,2.3522558062989916,-34.22929143074901,-31.70939168580668,62.6,,,9.135992,62.6835486,20190821,134231,2019-08-21T13:42:31Z,636.577,0.69,1.18,7.83,11,7,18,0.25,-0.16,-4.02,0,0,0,10000,5,5,9.135996784236193,62.68354819995658,120,3475439,16,69,293,2579,3686,4036,4050,-1191,16124,27,0,15572,0,false,false,false,false,false,false,false,false,false,false,6108,6343,5025,4931,54,69,69,55,1593,1616,1491,1461,1588,1601,1469,1453,0.0,0.0,0.0,0.0,1641.1,1636.1,1636.1,1639.8,4.76,4.72,4.01,2.51,0,0,0,0,172.4881039381412,9.135991260630506,62.68354836278667,0,550.2401,549.5908,0.045149293,-0.009448921,-1.0055537,1.0066112,-6.924244,10.981467,-1.9651481,13.130102,-184,-411,1425,1494.0,0.006829292,0.019430982,-4.0194063,4.019459,0.020596171943968445,0.19189839401446343,0.2354826232855158,2.489097397556286,110.9364402369868,110.93644023698681,34.626108813476456,11.269233097862394,-2.891683741738417,106.31483266099919,0.2824387920547181,7011768.110506103,-29.182080778840813,-26.662181033898488,62.59,NONE,0.0,0.0,0.0,NONE,1.4221740796369705E-9,8.06165910874895E-10,-0.029663086,2,59.45,61.48,42.84,43.76,16.584,16.584,5.905,5.6591067,0,3602,4.132,12.0,8.691,98,25.2,OK,22,0,0,0,0,0,65,100,0.0,0,0.0,-5.8436456E-10,8.8E-44,0.0,1.0298358E-23,63,474.85156,-0.1659327,9.644639E-31,False,False,0,None,4.8436137E32,1.1125694E-16,
98009071,9.151,9.135988394839108,62.68355121653124,18,554.6501,553.8864,0.042742297,-0.021244068,-1.0069684,1.008099,-0.8761094,-10.149712,-8.0532465,12.986108,-129,-335,1464,1507.0,0.11947994,-0.0075282585,-4.024188,4.0259686,0.11971687663541092,0.1674305238326957,3.0365657111903475,-0.3582148289444108,115.79866119384253,115.79866119384252,34.21384379273614,4.750200972018566,-5.492363765139281,108.518218430655,0.5438524472812594,2.640918826719776,-28.47853740151793,-25.958637656575604,62.92,,,9.1359889,62.683551,20190821,134232,2019-08-21T13:42:32Z,640.495,0.69,1.18,7.71,11,7,18,0.34,-0.19,-4.03,0,0,0,10000,5,5,9.135996784236193,62.68354819995658,120,3475439,16,69,293,2579,3686,4036,4050,-1191,16124,27,0,15572,0,false,false,false,false,false,false,false,false,false,false,6318,6604,5170,5192,54,70,70,55,1616,1640,1490,1501,1611,1631,1476,1489,0.0,0.0,0.0,0.0,1632.5,1627.0,1627.6,1631.2,5.4,5.18,3.75,3.24,0,0,0,0,174.11218571560119,9.135987861608447,62.68355106481513,0,554.76105,553.97864,0.04298667,-0.015255343,-1.0221192,1.0231364,8.334484,-3.5005744,3.682061,9.760902,-123,-329,1458,1499.0,0.1761141,-0.05932605,-3.9892316,3.993558,0.1858379790893597,0.159845911720686,3.5615709949396845,-0.9166108690964087,111.02895878161418,111.02895878161416,35.91824289189888,16.031303623097454,-5.133040146539816,109.20571059149715,0.5556793833878468,7011768.459005708,-26.113176362923742,-23.593276617981417,62.96,NONE,0.0,0.0,0.0,NONE,-4.4544994577270706E-9,4.999215371110514E-9,-0.0099487305,2,61.44,64.33,44.7,45.39,16.571,16.571,5.885,5.6591067,0,3602,4.132,12.0,8.691,98,25.2,OK,22,0,0,0,0,0,65,100,0.0,0,0.0,-3.4329563E32,8.8E-44,0.0,1.0298358E-23,63,13289.25,-0.8555643,3.0645523E-30,False,False,0,None,3.8345638E33,4.7535833E-16,
101890696,10.160,9.135986682784784,62.683551212721085,18,558.5838,557.9154,0.029508986,-0.019650966,-1.0083969,1.0090199,0.9098257,-4.625763,3.7602582,6.03034,-114,-378,1452,1504.0,-0.2826265,0.13324931,-4.035675,4.0477533,0.3124629952455605,-0.22586303344705624,1.1687823194954468,-0.3788361092791441,115.55313903374534,115.55313903374531,33.29674973526853,3.7400010189288193,-6.75101521534463,106.86462950359417,0.6147537699941512,2.797535011020544,-175.1254246139799,-172.60552486903757,63.2,,,9.1359868,62.6835514,20190821,134233,2019-08-21T13:42:33Z,643.607,0.69,1.18,7.61,11,7,18,0.0,-0.16,-4.02,0,0,0,10000,5,5,9.135996784236193,62.68354819995658,120,3475698,48,67,295,2480,3686,3988,4003,-1187,16001,29,212,16001,0,false,false,false,false,false,false,false,false,false,false,6194,6464,5152,5167,54,69,69,54,1596,1632,1491,1495,1592,1620,1485,1483,0.0,0.0,0.0,0.0,1634.9,1629.4,1629.4,1633.7,5.07,5.01,3.6,3.06,0,0,0,0,173.77813223394025,9.135985604157945,62.68355065664171,0,558.6842,557.9803,0.026529867,-0.019728413,-0.9988466,0.9993936,8.958508,-3.471708,3.759602,10.317084,-114,-387,1458,1512.0,-0.110601135,0.0070652994,-4.011281,4.0128117,0.110826575539596,0.011903132224993576,1.4218430777467415,-0.5764870821577196,111.18364571945158,111.18364571945159,36.460100378989814,14.538669245407624,-4.718445669106142,106.9034242324953,0.6325247632172267,7011768.641013389,-120.3311755642245,-117.81127581928217,63.26,NONE,0.0,0.0,0.0,NONE,3.5408468247612685E-10,-7.263647006365354E-9,-0.030029297,2,59.1,62.17,45.16,45.51,16.487,16.487,5.865,7.3971086,0,3597,4.122,12.0,9.228,98,25.2,OK,24,0,0,0,0,0,65,100,0.0,0,0.0,1.5242047E-34,9.0E-44,0.0,1.0298358E-23,63,5.4961152E7,-55.008068,6.8304664E-29,False,False,0,None,7.515647E35,1.8236824E-14,
105804298,11.177,9.135985723103836,62.6835489074063,18,562.6569,562.26215,0.021676112,-0.012498367,-1.012325,1.0126342,-4.1418686,-1.4396212,-1.3738704,4.5951176,-129,-451,1425,1500.0,-0.22700906,0.24696794,-4.026902,4.0408497,0.33544937422525284,-0.0788689934486756,-0.8445246244909714,0.9289635305843656,112.86611471196,112.86611471196,29.025239004162653,0.7476734417118976,-8.226036385158583,103.82127885955674,0.5698815019865408,3.0759910719713592,158.2072691523426,160.72716889728494,63.55,,,9.1359862,62.683549,20190821,134234,2019-08-21T13:42:34Z,648.309,0.69,1.18,7.46,11,7,18,-0.17,0.03,-4.0,0,0,0,10000,5,5,9.135996784236193,62.68354819995658,120,3475698,17,67,296,2480,3686,3990,4004,-1135,16001,29,0,16004,0,false,false,false,false,false,false,false,false,false,false,6292,6472,5209,5223,55,69,69,55,1603,1632,1480,1512,1591,1624,1478,1500,0.0,0.0,0.0,0.0,1632.5,1625.1,1628.2,1630.0,5.4,5.23,3.66,3.65,0,0,0,0,175.92835183790234,9.135985251388286,62.683548366999524,0,562.6595,561.8509,0.0210261,-0.011586469,-1.0164301,1.0167136,2.1678007,-1.5898452,-0.6934291,2.7762947,-129,-448,1428,1502.0,-0.13260184,0.09590713,-3.9573364,3.9607189,0.1636503184924274,0.08728394954408236,-0.34370349089629354,0.6864663480460834,108.88528999649336,108.88528999649338,33.068906736818455,12.864869471427442,-5.875162156329669,104.28065758978163,0.5887897540113802,7011768.905532872,151.96386276366488,154.4837625086072,63.54,NONE,0.0,0.0,0.0,NONE,3.9220544623080425E-9,-3.337624634973021E-9,-0.0099487305,2,60.15,61.88,46.41,45.92,16.487,16.487,5.866,8.051427,0,3594,4.11,12.0,9.097,98,25.2,OK,25,0,0,0,0,0,65,100,0.0,0,0.0,-6.315045E16,8.8E-44,0.0,1.0298358E-23,63,3.13248973E9,-417.11923,1.4366902E-28,False,False,0,None,2.6419055E36,1.0280536E-13,
109652371,12.177,9.136001409258649,62.683545189838114,18,566.79083,566.30975,0.023509115,-0.006546452,-0.94613534,0.94645,5.5458436,1.148533,1.3436136,5.820722,790,-384,1239,1518.0,-1.3617933,2.9205375,-3.640988,4.862182,3.222424530021544,-2.3216407779227515,0.12418695630124062,-34.48067042291075,112.70287681245992,112.70287681245992,28.249992600746985,1.5242467972688538,-44.99983650095229,97.33118268681748,0.40954744978693136,3.9866640598394216,111.66179747529824,114.18169722024057,63.83,,,9.1359921,62.6835469,20190821,134235,2019-08-21T13:42:35Z,652.21,0.69,1.18,7.37,11,7,18,-0.43,0.84,-3.98,0,10000,0,9582,5,5,9.135996784236193,62.68354819995658,120,3561171,16,67,297,2471,3699,3991,4014,-1329,16112,21,0,15923,0,false,false,false,false,false,false,false,false,false,false,6120,6177,4946,4992,54,71,71,54,1621,1623,1494,1505,1612,1613,1509,1513,0.0,0.0,0.0,0.0,1622.6,1622.0,1620.2,1622.6,6.07,5.5,4.08,3.58,0,0,0,0,179.7328321294064,9.135999128882364,62.68354518496898,0,566.5978,565.76184,0.030182593,-0.010140485,-0.9001068,0.90066975,-4.7430696,10.928372,-5.990208,13.33449,796,-381,1242,1523.0,-0.9427328,2.5506248,-3.6290586,4.5348096,2.7192705905643617,-1.9277328322599434,0.36499599451511505,-34.17704023598975,109.8817765193526,109.88177651935257,31.90363692723888,12.839991587853058,-43.18969853326484,95.54899678084293,0.3559603000741111,7011769.714492756,108.98303748754772,111.50293723249004,63.83,NONE,0.0,0.0,0.0,NONE,1.208494577290463E-7,-2.0261187632570348E-8,-0.009216309,2,70.22,72.29,42.71,44.38,16.47,16.47,5.858,8.559146,0,3592,4.112,12.0,9.169,98,25.3,OK,26,0,0,0,0,0,65,100,0.0,0,0.0,-8.805418E32,2.66E-43,0.0,1.0298358E-23,63,1.84025088E11,-3214.3289,1.7336532E-28,False,False,0,None,3.9821672E36,6.183006E-13,
113501283,13.177,9.136103091938518,62.683518000923314,18,570.10864,569.60223,-0.07720802,-0.01129557,-1.1561997,1.1588297,-2.10276,-1.716372,1.9071784,3.3173575,813,-396,1224,1521.0,-4.4158792,8.018676,-3.5455842,9.816839,9.154187904394623,-3.15089061124908,0.3317174873441346,-34.45518656841619,114.00576335844178,114.00576335844175,22.193789378505635,-2.0380902166610464,-46.047880410828256,92.95524343695706,6.379886167425388,10.00073140365788,120.50042988314016,123.02032962808248,64.16,,,9.1360723,62.6835256,20190821,134236,2019-08-21T13:42:36Z,655.604,0.69,1.18,7.32,11,7,18,-3.63,6.27,-3.53,0,10000,0,9515,5,5,9.135996784236193,62.68354819995658,120,3561171,20,67,298,2470,3699,3947,3976,-2041,15865,21,2,15923,0,false,false,false,false,false,false,false,false,false,false,6912,7038,6527,6509,55,70,71,55,1686,1701,1632,1636,1678,1692,1622,1629,0.0,0.0,0.0,0.0,1598.7,1596.3,1595.0,1599.3,6.1,5.8,5.36,4.88,0,0,0,0,171.04668873874198,9.13609720523545,62.683519096011075,0,570.43524,569.07526,-0.0764132,-0.012867752,-1.1594889,1.1620754,-6.3029566,-3.1768746,-3.9099011,8.068898,811,-384,1227,1520.0,-4.0926714,7.9511285,-3.5718591,9.629568,8.9426173785203,-3.1598133077184762,0.39073474626823623,-33.41766793036973,112.3121683166319,112.31216831663187,24.346145325531314,9.232113773835742,-41.78948422220991,89.61651215149581,6.060629631647701,7011775.509869861,117.90585277826898,120.4257525232113,64.15,NONE,0.0,0.0,0.0,NONE,6.297959189158727E-7,-1.3737546182220197E-7,-0.023071289,2,70.19,72.47,64.17,64.94,16.494,16.494,5.743,8.941877,0,3589,4.112,12.0,9.645,98,25.3,OK,27,0,0,0,0,0,65,100,0.0,0,0.0,-1.533825E-37,2.68E-43,0.0,1.0298358E-23,63,5.8085406E12,-17373.13,3.5532848E-21,False,False,0,None,-1.048588E-33,2.7665788E-12,
117427694,14.198,9.136309863248423,62.683468077276025,18,574.97797,573.69476,-0.19664928,-0.016150918,-0.9901802,1.0096478,10.325743,0.7864673,-0.1731518,10.357098,717,-485,1263,1531.0,-6.160638,12.654997,-4.0106173,14.635144,14.07488549628019,-2.391531401152493,-2.2294193293700277,-29.15355366508096,112.18807136408722,112.18807136408725,20.757173153921322,-6.517051765030569,-40.17531495281733,89.71446840099702,18.292073609679676,21.925211884130057,113.8024736929876,116.32237343792993,64.33,,,9.1362599,62.6834794,20190821,134237,2019-08-21T13:42:37Z,659.284,0.69,1.18,7.28,11,7,18,-5.9,11.49,-3.75,0,10000,0,10000,5,5,9.135996784236193,62.68354819995658,120,3561172,114,67,299,2470,3699,3951,3978,-2732,15821,21,3507,15988,0,false,false,false,false,false,false,false,false,false,false,7201,7271,7156,6997,55,72,71,55,1709,1717,1691,1675,1701,1698,1685,1681,0.0,0.0,0.0,0.0,1592.0,1588.9,1588.3,1591.4,6.4,6.11,5.72,4.4,0,0,0,0,144.3266308583618,9.136300795750454,62.68346911841304,0,574.62036,573.0275,-0.1999252,-0.020161781,-1.0526607,1.0716674,4.42634,8.385831,0.646998,9.50438,726,-482,1263,1534.0,-6.097122,12.507233,-4.0234075,14.484252,13.91422864074729,-2.368627668740693,-2.435403508121669,-28.4497162942751,111.82038146008072,111.82038146008074,25.50081956956065,5.993185999607306,-37.42192774437741,86.33156354934066,17.83201501413764,7011787.293090426,114.34720280623245,116.86710255117477,64.32,NONE,0.0,0.0,0.0,NONE,6.091112256643692E-7,-1.3668280777329208E-7,-0.010009766,2,70.76,70.28,69.8,69.22,16.115,16.115,5.713,9.328618,0,3586,4.102,12.0,14.343,98,25.3,OK,28,0,0,0,0,0,65,100,0.0,0,0.0,-2.0466532E-34,2.68E-43,0.0,3.537226E-12,64,3.62907557E14,-136925.05,2.613834E-7,False,False,0,None,-1.1144191E-21,1.615741E-11,
121411623,15.233,9.136578043919085,62.68340993997542,20,576.6675,576.9952,-0.2052882,0.0122384345,-0.49444845,0.53551126,-8.579759,-0.8955911,-10.628097,13.688345,846,-454,1194,1532.0,-6.607392,14.318263,-0.9338937,15.796912,15.769282571732566,-1.151991259765179,-1.7705260306404895,-35.9464034751101,112.57547685921426,112.57547685921429,22.354431806752697,-7.580218600864096,-44.3642946670091,93.28359142221447,33.40808477253379,37.0604152065512,112.5179278946938,115.03782763963612,64.46,,,9.1365774,62.6834103,20190821,134238,2019-08-21T13:42:38Z,662.9,0.64,1.11,7.24,11,9,20,-6.56,14.15,-2.66,0,10000,0,0,5,5,9.135996784236193,62.68354819995658,120,3561343,48,66,300,2406,3699,3955,3967,-1062,15862,23,212,15844,0,false,false,false,false,false,false,false,false,false,false,5766,5891,6097,6124,56,72,72,56,1582,1559,1562,1594,1573,1571,1569,1575,0.0,0.0,0.0,0.0,1626.4,1625.1,1623.9,1626.4,4.85,3.67,4.16,3.92,0,0,0,0,9.857232297905512,9.13656566491089,62.68341152583631,0,577.1658,576.21155,-0.20135893,0.0070501044,-0.45021215,0.49324042,-9.712132,-2.2175777,-4.195124,10.809359,846,-448,1194,1530.0,-6.565021,14.222884,-1.0259752,15.698489,15.664927014017403,-1.2201786377985648,-1.733307460049066,-35.198222141889914,112.38242540691056,112.38242540691056,26.386478424790962,7.5375331436270745,-43.18410889573809,90.61319330237724,32.76639285721166,7011802.2501534,111.4262538291645,113.94615357410682,64.46,GPS_CONSIST_ERROR,0.0,0.0,0.0,NONE,6.86072408088805E-7,-1.4633688627965492E-7,-0.0053100586,2,56.51,57.09,56.98,56.5,16.104,16.104,5.882,9.882574,0,3582,4.101,12.0,14.216,98,25.4,OK,29,0,0,0,0,0,65,100,0.0,0,0.0,-5.808635E-32,2.68E-43,0.0,3.537226E-12,64,9.5305668E15,-749252.2,1.130854E-4,False,False,0,None,-2.074602E-19,6.8640656E-11,
125313511,16.247,9.13688100116955,62.68334402312885,20,574.6461,576.6584,-0.35759637,-0.001514189,-1.0394689,1.0992602,8.029499,5.5262175,1.4349619,9.852464,697,-482,1284,1538.0,-7.7411947,16.270493,0.06328746,18.018297,18.018186071213577,-1.1468746735617223,-2.3414022878160714,-28.179706372873028,112.3892289366577,112.38922893665767,22.753326524865646,-7.002533028670328,-37.21349545994099,90.10174931101808,50.509878983858066,54.169911088783245,113.194084024767,115.71398376970932,64.57,,,9.1368775,62.6833448,20190821,134239,2019-08-21T13:42:39Z,662.807,0.64,1.11,7.21,11,9,20,-7.78,16.09,-0.47,0,10000,0,0,5,5,9.135996784236193,62.68354819995658,120,3561343,17,66,301,2406,3699,3956,3969,-1014,15852,23,0,15844,0,false,false,false,false,false,false,false,false,false,false,6322,6526,7074,7190,56,71,72,56,1610,1646,1678,1692,1600,1620,1672,1688,0.0,0.0,0.0,0.0,1601.8,1595.7,1595.7,1601.8,5.04,4.75,5.82,5.25,0,0,0,0,3.5561810942551233,9.136871618732787,62.683345282358275,0,574.7643,576.32544,-0.35405922,-3.454811E-4,-1.0334823,1.0924485,-1.7781421,7.792172,-2.9930305,8.534516,705,-476,1287,1542.0,-7.693666,16.127588,0.009755698,17.868734,17.86873234057146,-0.8457995195111145,-2.4015299920846154,-27.58141237098589,112.34552653205574,112.34552653205571,22.82912920375843,8.13510101139123,-34.752085526214394,87.24695728723378,50.01934529774473,7011819.514263647,113.09027128187151,115.61017102681383,64.55,NONE,0.0,0.0,0.0,NONE,7.479322314876357E-7,-1.6673306154017575E-7,6.1035156E-5,2,58.66,59.49,65.5,68.06,16.266,16.266,5.744,10.498248,0,3579,3.991,12.0,9.721,98,25.4,OK,30,0,0,0,0,0,65,100,0.0,0,0.0,-6.5068747E-31,2.68E-43,0.0,3.537226E-12,64,1.09176007E16,-789604.2,6.340036E-4,False,False,0,None,-8.981726E-19,7.25291E-11,
129228177,17.265,9.137230130074245,62.683268882189246,20,572.92474,575.706,-0.22588515,-0.003003854,-1.0656114,1.0892937,12.460456,17.363754,-2.8318627,21.558811,-266,-500,1404,1513.0,-6.933579,15.033579,0.07213391,16.55561,16.55545251004937,2.7853651916159627,-0.9411677143332248,9.014047117617007,112.79176687966044,112.79176687966043,24.676342704701835,-2.985768811626631,-1.1605702427154279,94.9717457082003,70.18188906176107,73.84743905738596,112.26818133658207,114.7880810815244,64.54,,,9.1372001,62.6832755,20190821,134240,2019-08-21T13:42:40Z,662.885,0.64,1.11,7.15,11,9,20,-7.3,15.91,-0.25,97,4329,0,0,5,5,9.135996784236193,62.68354819995658,120,3561343,17,66,301,2406,3699,3956,3969,-1014,15852,23,0,15844,0,false,false,false,false,false,false,false,false,false,false,3886,3895,4931,4855,56,73,73,56,1391,1387,1486,1472,1385,1393,1458,1445,0.0,0.0,0.0,0.0,1650.2,1644.7,1644.7,1648.4,2.9,2.6,4.07,3.36,0,0,0,0,2.427544526822203,9.137221343987457,62.68327028089199,0,572.56244,576.0046,-0.2295858,-0.0029574283,-1.060197,1.0847747,18.96078,9.243782,0.37173474,21.097319,-254,-504,1401,1510.0,-6.9346766,15.118824,-0.14578985,16.633995,16.63335742120521,2.7280850562830317,-1.0207239304746825,9.012751034962815,112.84884938817382,112.84884938817379,20.977204227841458,7.811552029093229,1.9708504192549803,93.5864080723556,69.7110393587869,7011839.212906386,112.32490578419161,114.84480552913394,64.57,NONE,0.0,0.0,0.0,NONE,7.845165236665343E-7,-1.6642468319284274E-7,-7.9345703E-4,2,33.73,33.73,41.79,41.25,16.372,16.372,5.842,10.498248,0,3579,4.011,12.0,9.721,98,25.4,OK,30,0,0,0,0,0,65,100,0.0,0,0.0,-1.473529E-30,2.68E-43,0.0,3.537226E-12,64,9.9841153E15,-762452.2,0.001845308,False,False,0,None,-2.4566073E-18,6.991253E-11,
133076672,18.265,9.137493003805403,62.683214027779634,20,575.131,575.36816,-0.095878154,-0.0036053576,-1.2435685,1.2472643,-8.33274,23.185509,-0.17889468,24.638067,-824,-528,1191,1541.0,-4.893257,10.7713375,-0.017550237,11.830722,11.830709318692538,2.901931221340158,-0.7931295927833656,32.91802016482834,113.23709846103588,113.23709846103588,26.04185591132834,-4.8467160527348,36.714602033015396,94.5342734600871,84.91146208407348,88.5834907258069,112.18234798551057,114.7022477304529,64.59,,,9.1374703,62.6832189,20190821,134241,2019-08-21T13:42:41Z,663.144,0.64,1.11,7.08,11,9,20,-5.55,12.16,-0.31,0,0,0,0,5,5,9.135996784236193,62.68354819995658,120,3563504,20,66,303,2407,3698,3969,3990,-1326,15874,24,2,15344,0,false,false,false,false,false,false,false,false,false,false,4284,4406,4798,4943,56,72,72,56,1387,1428,1522,1547,1369,1404,1533,1543,0.0,0.0,0.0,0.0,1634.9,1632.5,1632.5,1634.3,2.86,4.15,4.63,4.58,0,0,0,0,-1.2536561573137988,9.137486837675727,62.68321474981596,0,575.1711,576.02576,-0.0689099,-0.006522904,-1.1488853,1.1509686,1.607251,6.334319,2.7736833,7.099308,-818,-528,1194,1540.0,-4.943138,10.899667,-0.18410951,11.969597,11.968180749966438,2.9172796405467274,-0.773269561048108,32.87569034018235,113.0054875914725,113.0054875914725,20.679885724094596,5.933414290668191,38.115940148084285,93.9189471246908,84.59343356949388,7011854.101693446,112.12611095859127,114.64601070353359,64.57,NONE,0.0,0.0,0.0,NONE,2.8410377421527034E-6,-5.918921235757388E-7,-0.0036621094,2,27.37,25.08,49.52,53.11,16.468,16.468,5.838,11.119229,0,3571,4.041,12.0,5.771,97,25.5,OK,32,0,0,0,0,0,65,100,0.0,0,0.0,-6.829925E-30,2.68E-43,0.0,3.537226E-12,64,7.9733834E15,-673844.2,0.01891101,False,False,0,None,-1.8005803E-17,6.137713E-11,
136925682,19.265,9.137633786082773,62.68318426493017,20,577.4516,576.4169,-0.019588089,0.0014855787,-1.1837444,1.1839074,16.431585,-2.939167,3.538113,17.063234,-795,-510,1212,1536.0,-1.7788818,3.8712518,-0.7327224,4.3229494,4.260400276183644,3.646467410726734,1.5829170456557649,30.530980312420958,112.57104998001621,112.5710499800162,27.573059445773577,-1.9011832495190712,35.70995297199457,98.01177159116588,92.8193875316861,96.49312401491524,112.9588205491181,115.47872029406042,64.66,,,9.1376251,62.6831863,20190821,134242,2019-08-21T13:42:42Z,663.608,0.64,1.11,7.04,11,9,20,-2.3,5.07,-0.4,2269,0,0,0,5,5,9.135996784236193,62.68354819995658,120,3563960,48,61,304,2229,3698,3912,3922,-1173,15688,26,212,15684,0,false,false,false,false,false,false,false,false,false,false,6154,6137,5572,5536,57,73,73,57,1602,1599,1526,1528,1592,1590,1528,1523,0.0,0.0,0.0,0.0,1623.9,1618.4,1618.4,1622.0,5.28,4.3,3.92,3.29,0,0,0,0,179.07985949145984,9.137631934763291,62.68318421453541,0,577.56366,575.7444,-0.022093728,0.006300616,-1.1931535,1.1933746,8.283584,-1.9691045,-8.950961,12.353738,-795,-525,1212,1541.0,-1.8649132,4.0400934,-0.30467442,4.4601665,4.449747939954125,3.692967592981133,0.8314888908941693,30.6857905788582,112.52585021720546,112.52585021720546,19.881392434855275,6.600757102993517,34.26638237120882,97.2601738526062,92.73682397165898,7011862.247455238,112.66104787818173,115.18094762312406,64.66,NONE,0.0,0.0,0.0,NONE,2.9552737459483704E-7,-6.195096781504474E-8,-2.4414062E-4,2,60.65,60.16,48.13,50.94,16.595,16.595,5.853,11.119229,0,3571,4.068,12.0,5.771,97,25.5,OK,32,0,0,0,0,0,65,100,0.0,0,0.0,-9.101367E-30,2.68E-43,0.0,3.537226E-12,64,5.9153726E15,-554052.2,0.030687934,False,False,0,None,-2.7081337E-17,5.402279E-11,
140947481,20.310,9.137656367091518,62.68317471990339,20,577.62366,576.9746,0.0619112,0.0035248864,-0.8255531,0.82787883,-44.493034,-13.690821,-7.2013316,47.105495,-301,-494,1383,1499.0,-0.7976644,-0.21051069,-0.5393211,0.98562187,0.824974689673377,0.673804312191473,-4.5971025615658325,8.710837840014728,113.73701730436306,113.73701730436306,28.230803100055965,-8.235879053341963,15.670710036201141,102.23670189512714,94.32021045185842,98.22206439207011,-159.1197696064761,-156.59986986153376,64.86,,,9.1376565,62.683176,20190821,134243,2019-08-21T13:42:43Z,664.152,0.64,1.11,6.99,11,9,20,-0.71,-0.11,-0.47,0,0,0,-418,5,5,9.135996784236193,62.68354819995658,120,3563960,17,61,305,2229,3698,3914,3923,-1108,15688,26,0,15684,0,false,false,false,false,false,false,false,false,false,false,5479,5664,4124,4055,56,73,73,56,1532,1553,1389,1377,1520,1532,1381,1374,0.0,0.0,0.0,0.0,1647.8,1641.7,1641.1,1644.7,4.08,3.58,2.56,1.45,0,0,0,0,175.10200409516835,9.1376563748124,62.683174799662794,0,577.5076,576.1601,0.058817744,0.005182923,-0.8390709,0.8411459,-47.448284,-12.41189,6.0463595,49.41612,-319,-418,1395,1490.0,-0.7525419,-0.17868294,-0.1683411,0.7915716,0.7734642024199176,0.7843385719646745,-3.621848459588312,9.624814207937442,113.36228253804464,113.36228253804461,24.92888057711731,5.184191372094694,13.723841563277983,103.22418761030048,94.31665949685028,7011864.057855167,-168.4438818204988,-165.92398207555647,64.82,NONE,0.0,0.0,0.0,NONE,-2.0906421912658483E-9,-1.8503053463704783E-8,-6.713867E-4,2,50.47,51.98,32.72,31.96,16.381,16.381,5.849,10.642714,0,3566,4.137,12.0,10.101,97,25.6,OK,34,0,0,0,0,0,65,100,0.0,0,0.0,-5.7191453E-30,2.68E-43,0.0,3.537226E-12,64,8.1795419E15,-685828.2,0.055713903,False,False,0,None,-4.6126873E-17,6.2531764E-11,
144799364,21.311,9.137652667827906,62.6831715327128,20,578.2206,577.0856,0.042120986,0.03491324,-1.2714558,1.2726322,-10.441578,5.851102,0.8571776,11.999863,828,-411,1209,1521.0,-1.0220053,1.5145161,-0.20153669,1.8381705,1.8270889345936476,-1.4259875812318494,-0.2494123591571772,-35.83988396977263,113.48243208869364,113.48243208869366,28.378070260854678,-0.9368869606996552,-27.843506610781056,95.31047763605537,94.30762561927357,98.85684523237954,132.25692813161595,134.7768278765583,65.01,,,9.1376504,62.6831725,20190821,134244,2019-08-21T13:42:44Z,664.254,0.64,1.11,6.96,11,9,20,-0.26,0.09,-0.12,246,9998,0,-712,5,5,9.135996784236193,62.68354819995658,120,3565416,16,61,306,2228,3698,3942,3957,-1166,15864,26,0,15728,0,false,false,false,false,false,false,false,false,false,false,6771,6757,4549,4993,57,73,74,58,1654,1675,1455,1508,1648,1656,1468,1503,0.0,0.0,0.0,0.0,1614.1,1607.3,1609.8,1612.2,6.1,5.74,4.01,3.84,0,0,0,0,-173.44533644908978,9.137651387853943,62.68317152162882,0,577.8831,576.43616,0.045755066,0.03168138,-1.2639129,1.2651376,-1.753732,-15.899257,-2.6435158,16.212654,808,-414,1227,1526.0,-0.81575394,1.3094449,0.032840483,1.5431069,1.542757430273055,-1.0986961585102069,-0.47614949815361696,-34.689820577133254,113.27002635034229,113.27002635034228,27.041803341990423,11.078979243491066,-31.417157040424737,95.07879911025364,94.24965777068827,7011864.685662659,123.21655271659294,125.73645246153527,65.03,NONE,0.0,0.0,0.0,NONE,2.7014077582356967E-7,-7.092836682751073E-8,1.8310547E-4,2,66.14,66.87,44.31,48.92,16.405,16.405,5.85,10.309096,0,3564,4.082,12.0,7.414,97,25.6,OK,35,0,0,0,0,0,65,100,0.0,0,0.0,-2.2955159E-30,2.68E-43,0.0,3.537226E-12,64,1.17482817E16,-813796.2,0.051101934,False,False,0,None,-4.2572723E-17,7.4857905E-11,
148697017,22.324,9.13773601340786,62.68315180417891,20,577.794,577.253,-0.052436803,0.0119641395,-0.7097399,0.7117749,5.587936,-0.42770195,-1.0675308,5.7050486,813,-393,1212,1511.0,-3.221999,6.610043,0.7747703,7.3942013,7.353498765335918,-2.6293921779381835,0.8532917055236775,-34.484261482928,113.27195801443563,113.27195801443565,25.450490181135986,-3.374841602771921,-27.550909268301602,91.76696381930707,99.09247955534609,103.64455114641362,113.90395369532627,116.42385344026859,65.06,,,9.1377236,62.6831546,20190821,134245,2019-08-21T13:42:45Z,664.225,0.64,1.11,6.95,11,9,20,-2.84,5.9,0.04,1429,10000,0,-6212,5,5,9.135996784236193,62.68354819995658,120,3565416,20,61,307,2228,3698,3942,3957,-1166,15864,26,2,15728,0,false,false,false,false,false,false,false,false,false,false,4836,4792,4511,4712,57,72,72,57,1454,1467,1442,1437,1453,1461,1434,1437,0.0,0.0,0.0,0.0,1650.2,1644.7,1642.9,1648.4,3.15,2.55,3.18,2.7,0,0,0,0,-148.82865097228017,9.137745032591582,62.68314923094448,0,577.8982,576.63715,-0.064956106,0.010445005,-0.7286047,0.73156893,1.9151795,-0.0021515095,1.2338393,2.2782178,816,-387,1212,1511.0,-3.2152193,6.9035583,1.117859,7.6971655,7.615559721906833,-2.30142025270811,0.525856686459535,-33.431031332013596,113.10597315943367,113.10597315943369,24.541594733613973,10.326246160643985,-32.8554098286002,87.8067397394003,99.63196607423941,7011870.070883159,114.86311250303295,117.38301224797527,65.05,NONE,0.0,0.0,0.0,NONE,9.080846588336992E-7,-1.9263732424894475E-7,0.0024414062,2,42.14,43.07,40.04,40.52,16.457,16.457,5.865,9.957793,0,3561,4.073,12.0,9.469,97,25.6,OK,36,0,0,0,0,0,65,100,0.0,0,0.0,-1.8241445E-30,2.68E-43,0.0,3.537226E-12,64,1.68274757E16,-961604.2,0.067049526,False,False,0,None,-5.3109813E-17,8.909718E-11,
152578685,23.333,9.137904948885259,62.683112938119066,20,575.7682,575.688,-0.22524856,0.0020145895,-1.4303159,1.4479449,8.297656,-10.098803,2.182859,13.251483,796,-402,1224,1514.0,-5.56907,11.136226,0.55298567,12.46338,12.451106770663126,-2.8923159764628856,0.47671901235359004,-33.658334626313504,112.98039300756218,112.98039300756216,24.096219516991155,-4.361595578866711,-24.965399177584647,91.93916491472828,108.73559537212851,113.28782784188577,114.33375493088403,116.85365467582635,64.96,,,9.1378837,62.6831179,20190821,134246,2019-08-21T13:42:46Z,662.476,0.64,1.11,6.94,11,9,20,-5.02,9.91,1.45,339,9752,0,0,5,5,9.135996784236193,62.68354819995658,120,3565480,48,60,308,2204,3698,3927,3936,-1120,15732,27,212,15728,0,false,false,false,false,false,false,false,false,false,false,6683,6834,7091,7078,56,74,74,57,1657,1680,1703,1688,1658,1655,1692,1675,0.0,0.0,0.0,0.0,1592.0,1586.4,1587.7,1590.8,5.58,5.16,6.26,5.28,0,0,0,0,14.118921303056368,9.137920619620445,62.68310878967286,0,575.83704,575.0408,-0.21602434,0.022583734,-1.3439635,1.3614017,13.562351,-8.515819,17.465792,23.69621,808,-399,1221,1517.0,-5.596578,11.521716,0.41728804,12.81584,12.809044646493328,-2.8716713763437784,-0.05552935769739552,-33.36948087394335,113.74263606340182,113.74263606340185,26.329237688886646,11.557607398612792,-34.22351468785383,89.56971800732413,109.657006736632,7011880.096454574,114.24564153616691,116.76554128110924,64.9,NONE,0.0,0.0,0.0,NONE,5.592456282907004E-7,-1.2475857111158507E-7,0.001159668,2,67.68,66.5,71.41,69.35,16.396,16.396,5.687,9.596435,1335,3559,4.109,12.0,6.705,97,25.7,OK,37,0,0,0,0,0,65,100,0.0,0,0.0,-1.6512442E-30,2.68E-43,0.0,3.537226E-12,64,2.85708096E15,-402234.1,0.35048875,False,False,0,None,-2.147669E-16,4.0831564E-11,
156492117,24.350,9.138184656042908,62.68304376963461,20,574.1094,575.3236,-0.24657753,0.032970894,-1.0383233,1.0677091,1.3722589,47.833645,-1.4343863,47.874817,162,-316,1470,1512.0,-7.803013,13.263051,-0.09861046,15.388478,15.388162080851712,0.5529404056939917,2.495630863991358,-8.099957382964362,126.14412782717365,126.14412782717363,32.70321430061387,5.15253055104819,1.1373230782447248,96.69987458108874,124.94137283939055,129.50549590624195,117.90486899494017,120.4247687398825,64.83,,,9.1381304,62.6830584,20190821,134247,2019-08-21T13:42:47Z,662.126,0.64,1.11,6.92,11,9,20,-7.51,13.46,0.49,0,5303,0,0,5,5,9.135996784236193,62.68354819995658,120,3565480,17,60,309,2204,3698,3927,3936,-1120,15732,27,0,15728,0,false,false,false,false,false,false,false,false,false,false,5164,5315,5848,5987,57,74,74,57,1475,1484,1571,1566,1471,1471,1551,1551,0.0,0.0,0.0,0.0,1633.1,1628.2,1627.6,1631.8,2.89,2.66,4.53,3.88,0,0,0,0,0.5070290609147605,9.138175329571592,62.68304564904564,0,574.5345,574.8504,-0.23969415,0.02513308,-1.0431535,1.0706326,-11.078876,40.909916,-7.5697193,43.05419,209,-304,1461,1506.0,-7.7054067,13.215104,-0.12755089,15.297991,15.297459529817566,-0.7730228892428972,2.045889336314059,-8.72453708144802,126.35441556900695,126.35441556900696,33.68711162090894,21.309365695638682,-9.540663516369587,92.13034671102898,124.42229374812564,7011894.873456562,117.90212174472077,120.4220214896631,64.81,NONE,0.0,0.0,0.0,NONE,6.494406667065385E-7,-1.690973808681791E-7,-1.2207031E-4,2,43.78,43.88,53.67,53.72,16.365,16.365,5.847,9.321201,1373,3556,4.072,12.0,13.342,97,25.7,OK,38,0,0,0,0,0,65,100,0.0,0,0.0,-7.898479E-31,2.68E-43,0.0,5.695E-12,64,2.23712821E15,-365298.1,1.612862,False,False,0,None,-8.2280103E-16,3.727352E-11,
160340353,25.350,9.138396209958065,62.6829842629038,20,575.2983,574.9629,-0.053032406,0.006903478,-1.2283326,1.2294964,-11.123101,-5.1899395,9.421177,15.47312,-1005,-362,1113,1542.0,-4.801767,7.6656294,-0.05919348,9.04557,9.045376721113138,3.6146941395528582,3.9760354302051084,37.0608357398253,124.69001080653219,124.6900108065322,32.53179315282645,11.966420270196801,33.69724226948395,108.6538682805531,137.56238540952074,142.16813734992584,119.54354241738145,122.06344216232377,64.75,,,9.1383647,62.6829935,20190821,134248,2019-08-21T13:42:48Z,662.253,0.64,1.11,6.91,11,9,20,-6.07,10.01,0.04,452,0,0,0,5,5,9.135996784236193,62.68354819995658,120,3579858,16,60,310,2204,3696,3933,3948,-1315,15709,22,0,15189,0,false,false,false,false,false,false,false,false,false,false,5327,5030,6427,6403,58,74,73,58,1564,1566,1608,1581,1569,1580,1593,1586,0.0,0.0,0.0,0.0,1607.9,1606.1,1605.5,1607.9,4.99,4.49,6.69,3.96,0,0,0,0,-6.299502339869264,9.138393620767056,62.68298466781209,0,574.90985,574.2804,-0.067606084,0.012489035,-1.3185706,1.3203617,-16.266556,10.39669,-9.265291,21.413492,-1008,-368,1104,1539.0,-4.8057275,7.802893,-0.073186256,9.164361,9.164069160270385,3.8748067116144806,3.8749892539879345,37.074881691226764,124.55551800905302,124.555518009053,30.347734510273472,19.479489810750852,43.71838184639417,109.35604324992535,137.42426571141667,7011907.914726705,119.60752102182515,122.12742076676747,64.75,NONE,0.0,0.0,0.0,NONE,1.1679151546283828E-6,-3.290117942880922E-7,-5.493164E-4,2,57.01,44.35,52.1,64.04,16.358,16.358,5.814,9.223309,1386,3553,4.115,12.0,7.811,97,25.8,OK,39,0,0,0,0,0,65,100,0.0,0,-3.156414E-36,-2.0225723E-31,-2.5897464E-37,-5.509089E-38,5.695083E-12,64,1.27357806E15,-257633.05,6.8340163,False,False,0,None,-2.9685455E-15,2.7785442E-11,
164189658,26.351,9.13848333484383,62.6829472458444,20,576.3373,575.4088,-0.004933087,-0.030325998,-1.148219,1.14863,5.583451,5.668949,5.9749804,9.950492,-640,297,1347,1520.0,-4.653949,1.423559,-0.2657864,4.874054,4.866801679819946,1.1894054252886654,27.967059196303808,19.32876688230102,121.66859172399298,121.66859172399296,38.281122064743556,34.534917287508605,15.53367940819123,113.94727886529442,143.40516500453242,148.39067254687052,160.9842949475197,163.50419469246202,64.84,,,9.1384753,62.6829561,20190821,134249,2019-08-21T13:42:49Z,662.476,0.64,1.11,6.92,11,9,20,-3.92,3.14,-0.15,8526,0,0,0,5,5,9.135996784236193,62.68354819995658,120,3579858,20,60,311,2204,3696,3933,3948,-1315,15709,22,2,15189,0,false,false,false,false,false,false,false,false,false,false,6298,6630,5619,5398,58,73,73,58,1623,1663,1556,1526,1614,1651,1545,1519,0.0,0.0,0.0,0.0,1608.5,1606.1,1604.9,1609.1,5.51,5.54,4.52,3.44,0,0,0,0,163.8607573488068,9.138483026707778,62.682948378154464,0,576.27014,574.6453,-0.003238379,-0.032375686,-1.1416088,1.1420724,10.605244,-3.1233742,11.303874,15.811522,-643,294,1344,1518.0,-4.5268,1.4987195,-0.16335523,4.7712436,4.768446390428811,1.319784828490163,27.0581357398747,20.030906200914433,121.04104864121203,121.041048641212,37.126386776735885,42.970502349982034,28.32186740337681,112.99276061397903,143.33261892178365,7011914.131459916,153.37283002107307,155.8927297660154,64.84,NONE,0.0,0.0,0.0,NONE,4.081202999707455E-7,-2.806982409861666E-7,-0.0016479492,2,61.93,66.37,53.65,50.7,16.458,16.458,5.792,9.205307,1388,3551,4.045,12.0,10.159,97,25.9,OK,40,0,0,0,0,0,65,100,0.0,0,-9.2243635E-37,-3.2014633E-32,-2.5897464E-37,-1.609982E-38,5.695083E-12,64,1.88401317E15,-324194.1,11.279849,False,False,0,None,-4.5467102E-15,3.3313134E-11,
168048565,27.354,9.138455570356188,62.682908385646954,20,576.0118,575.7611,0.07338275,-0.07370722,-1.3432857,1.3473063,-76.647514,-112.25814,-39.458984,141.5406,-634,-961,1026,1542.0,-2.4842575,-2.9042854,-0.48946446,3.8530488,3.821833208406141,0.7123587457982987,-28.659462290321084,14.38970503682733,132.91047496564582,132.9104749656458,23.00899939092041,-21.304746971372964,13.415950551826306,128.14659162966942,144.23487290477303,153.18431939941826,-137.89694909792883,-135.3770493529865,65.11,,,9.1384685,62.6829142,20190821,134250,2019-08-21T13:42:50Z,662.583,0.64,1.11,6.9,11,9,20,-4.24,-2.37,-0.12,0,0,0,0,5,5,9.135996784236193,62.68354819995658,120,3580430,48,54,312,1977,3696,3864,3874,-1149,15500,26,212,15495,0,false,false,false,false,false,false,false,false,false,false,6367,7164,5102,4322,58,73,74,58,1629,1692,1480,1368,1616,1681,1483,1333,0.0,0.0,0.0,0.0,1622.0,1615.9,1615.9,1620.2,5.92,5.62,3.35,0.02,0,0,0,0,158.99428048028227,9.138457808192896,62.682908514416454,0,575.63855,574.5286,0.077525385,-0.08091796,-1.3187385,1.3234912,-97.77256,-116.17179,-42.036263,157.55128,-754,-820,1041,1524.0,-2.7479146,-3.0569272,-0.25238517,4.1181955,4.110454693073928,0.4918084651107595,-25.960846933087137,18.49906058833286,133.04985187008202,133.04985187008202,19.59801925039855,-11.016113839180345,27.809648914926303,137.21209423116642,144.3271616303867,7011919.0025048675,-136.4767258172927,-133.95682607235037,65.11,NONE,0.0,0.0,0.0,NONE,-4.5336671709855535E-7,-1.9441916758038572E-7,-0.0017700195,2,61.69,69.64,45.18,26.49,16.271,16.271,5.751,9.232939,1383,3548,4.091,12.0,10.643,97,25.9,OK,41,0,0,0,0,0,65,100,0.0,0,1.963362E37,-1.2227418E-34,-2.5897464E-37,3.4267888E35,5.695083E-12,64,1.70018857E15,-302786.1,12.908511,False,False,0,None,-5.174355E-15,3.1250783E-11,
171897952,28.354,9.138428749201672,62.682900053641596,20,575.8933,575.6402,0.09633759,-0.014443104,-1.0125962,1.0172712,24.905277,6.9493465,6.586214,26.682287,-190,-556,1401,1519.0,-0.16404518,-0.3951223,-0.15484893,0.45498422,0.42782292255108323,1.2242017058513575,-4.478536075056324,2.2647539076734864,126.5001596914009,126.50015969140088,16.26558151863982,0.2849701625550316,5.0452481688318676,106.63662563496048,143.50895383133803,154.84934130435713,-111.11507317627826,-108.59517343133594,65.21,,,9.1384297,62.6829003,20190821,134251,2019-08-21T13:42:51Z,662.759,0.64,1.11,6.88,11,9,20,-0.27,-0.83,-0.14,0,0,0,0,5,5,9.135996784236193,62.68354819995658,120,3580430,17,54,313,1977,3696,3864,3874,-1149,15500,26,0,15495,0,false,false,false,false,false,false,false,false,false,false,6123,6213,4380,4393,58,74,75,59,1597,1606,1420,1419,1590,1602,1416,1413,0.0,0.0,0.0,0.0,1627.6,1623.2,1623.9,1627.6,5.15,4.5,2.78,2.42,0,0,0,0,178.7619735064483,9.138427018975673,62.68289974190408,0,575.9092,574.7187,0.092015654,-0.0138607975,-1.0154411,1.0196958,20.902012,10.635457,6.011379,24.210405,-181,-574,1398,1522.0,-0.06798265,-0.38185647,-0.048992153,0.39094275,0.38786079852936317,1.4606552800686192,-5.128176469467033,2.8495344881979587,126.27640890429663,126.27640890429666,11.598053868534317,9.479643956804088,13.096406296419394,103.7121454295022,143.45003241845177,7011920.869284479,-104.3725821631454,-101.85268241820307,65.19,NONE,0.0,0.0,0.0,NONE,-9.840861850630453E-8,-1.637863218830991E-8,-3.6621094E-4,2,58.77,59.89,36.95,37.12,16.287,16.287,5.852,9.315814,1369,3545,4.06,12.0,8.731,97,25.9,OK,42,0,0,0,0,0,65,100,0.0,0,Infinity,-1.6914536E-35,-2.5897464E-37,3.0158293E35,5.695083E-12,64,2.02007774E15,-340034.1,11.324283,False,False,0,None,-4.5638406E-15,3.4839024E-11,
175924716,29.401,9.138426136033015,62.68290047708914,20,576.5645,576.0287,0.087248266,-0.008800836,-0.9848245,0.9887209,-1.612594,1.8312246,2.2343223,3.3084798,-284,-381,1419,1496.0,0.07056246,0.029417485,-0.29257345,0.30239654,0.07644899406203222,0.058678626315598933,1.1850620672224956,5.073989816484443,126.48692944189588,126.48692944189588,16.672157001293083,5.580904777691603,7.671556465284458,111.07605239432068,143.36999828477806,155.0825225301313,22.316109994038907,24.836009738981232,65.15,,,9.1384269,62.6829004,20190821,134252,2019-08-21T13:42:52Z,662.916,0.64,1.11,6.83,11,9,20,0.13,0.03,-0.15,0,0,0,0,5,5,9.135996784236193,62.68354819995658,120,3580521,16,54,314,1977,3696,3871,3887,-1160,15587,26,0,15444,0,false,false,false,false,false,false,false,false,false,false,6026,6132,4256,4413,58,75,75,58,1580,1598,1423,1414,1576,1597,1413,1402,0.0,0.0,0.0,0.0,1630.6,1625.7,1627.0,1630.6,4.85,4.29,2.7,2.15,0,0,0,0,-179.1625460981115,9.138425785488678,62.682900079479815,0,576.3408,574.75635,0.0904094,-0.005084618,-0.98300487,0.98716676,2.2990644,3.095398,0.34298328,3.8710237,-281,-384,1419,1496.0,0.097999915,0.035451755,-0.14424469,0.1779532,0.10421521476085605,-0.03418771838709346,0.8048348895587669,5.517665499145105,126.27416293221015,126.27416293221017,11.871501794509351,16.730391344799784,16.130282666182705,109.59612902971963,143.37675046681326,7011921.061994221,73.7335837551665,76.25348350010883,65.15,NONE,0.0,0.0,0.0,NONE,1.7919627011056015E-9,2.261484776585602E-9,-3.6621094E-4,2,57.12,59.22,36.24,35.87,16.439,16.439,5.861,9.342652,1365,3543,4.042,12.0,7.848,97,26.0,OK,43,0,0,0,0,0,65,100,0.0,0,Infinity,-1.6959719E-35,-2.5897464E-37,3.0158293E35,5.695083E-12,64,2.07388509E15,-346298.1,10.996646,False,False,0,None,-4.4376395E-15,3.5442985E-11,
179779628,30.403,9.138426521310754,62.68290114373503,20,577.0279,576.2371,0.08422566,-0.005714329,-0.9789277,0.98256093,1.9556607,-4.951796,3.2861207,6.2564754,-287,-396,1407,1489.0,0.049243942,-0.06539285,-0.17696673,0.19498311,0.08186080231671877,-0.005313759552281444,0.5348053687170067,5.095987754391057,126.48097216274172,126.48097216274175,16.629838234120943,5.035690878094668,7.152763287729199,111.50827429402194,143.34977660469323,155.17893399955952,-66.7304751197672,-64.21057537482488,65.08,,,9.1384269,62.6829008,20190821,134253,2019-08-21T13:42:53Z,663.111,0.64,1.11,6.77,11,9,20,0.05,-0.06,-0.15,0,0,0,0,5,5,9.135996784236193,62.68354819995658,120,3580521,20,54,315,1977,3696,3871,3887,-1160,15587,26,2,15444,0,false,false,false,false,false,false,false,false,false,false,6031,6123,4326,4373,58,75,74,58,1588,1600,1421,1411,1583,1592,1406,1407,0.0,0.0,0.0,0.0,1629.4,1627.0,1627.6,1630.6,4.98,4.4,2.74,2.08,0,0,0,0,179.25378746805663,9.138425906746805,62.68290056041889,0,576.8212,574.8572,0.08362589,-0.007684473,-0.98228425,0.9858675,3.5159812,-1.4592496,3.2462628,5.0029745,-287,-396,1407,1489.0,0.043202903,-0.04332664,-0.09103185,0.10968357,0.0611856893065972,-0.007451639413557816,0.2419039194375646,5.4883146364619915,126.27638553436593,126.27638553436594,11.820282511752666,17.488107321417097,16.903774739550446,110.62472147096943,143.3552267521967,7011921.17190086,-130.3141586065122,-127.79425886156987,65.07,NONE,0.0,0.0,0.0,NONE,-5.077227680436716E-9,2.8782533150032426E-9,-7.324219E-4,2,58.37,58.7,35.04,36.42,16.431,16.431,5.862,9.253953,1377,3541,4.095,12.0,7.67,97,26.0,OK,44,0,0,0,0,0,65,100,0.0,0,Infinity,-1.8020235E-35,-2.5897464E-37,3.0158293E35,5.695083E-12,64,2.24472171E15,-366186.1,10.676333,False,False,0,None,-4.3142573E-15,3.7358786E-11,
