Tick#,offsetTime,IMU_ATTI(0):Longitude,IMU_ATTI(0):Latitude,IMU_ATTI(0):numSats,IMU_ATTI(0):barometer:Raw,IMU_ATTI(0):barometer:Smooth,IMU_ATTI(0):accel:X,IMU_ATTI(0):accel:Y,IMU_ATTI(0):accel:Z,IMU_ATTI(0):accel:Composite,IMU_ATTI(0):gyro:X,IMU_ATTI(0):gyro:Y,IMU_ATTI(0):gyro:Z,IMU_ATTI(0):gyro:Composite,IMU_ATTI(0):mag:X,IMU_ATTI(0):mag:Y,IMU_ATTI(0):mag:Z,IMU_ATTI(0):mag:Mod,IMU_ATTI(0):velN,IMU_ATTI(0):velE,IMU_ATTI(0):velD,IMU_ATTI(0):velComposite,IMU_ATTI(0):velH,IMU_ATTI(0):GPS-H,IMU_ATTI(0):roll,IMU_ATTI(0):pitch,IMU_ATTI(0):yaw,IMU_ATTI(0):yaw360,IMU_ATTI(0):totalGyro:Z,IMU_ATTI(0):totalGyro:X,IMU_ATTI(0):totalGyro:Y,IMU_ATTI(0):magYaw,IMU_ATTI(0):distanceHP,IMU_ATTI(0):distanceTravelled,IMU_ATTI(0):directionOfTravel[mag],IMU_ATTI(0):directionOfTravel[true],IMU_ATTI(0):temperature,General:relativeHeight,General:absoluteHeight,GPS(0):Long,GPS(0):Lat,GPS(0):Date,GPS(0):Time,GPS:dateTimeStamp,GPS(0):heightMSL,GPS(0):hDOP,GPS(0):pDOP,GPS(0):sAcc,GPS(0):numGPS,GPS(0):numGLNAS,GPS(0):numSV,GPS(0):velN,GPS(0):velE,GPS(0):velD,RC:Aileron,RC:Elevator,RC:Rudder,RC:Throttle,Controller:navHealth,Controller:ctrl_level,HP:Longitude,HP:Latitude,HP:rthHeight,BatBlackBox:tick,BatBlackBox:id,BatBlackBox:rsoc,BatBlackBox:index,BatBlackBox:rm,BatBlackBox:fcc,BatBlackBox:cell_min,BatBlackBox:cell_max,BatBlackBox:current,BatBlackBox:voltage,BatBlackBox:temp,BatBlackBox:flag,BatBlackBox:reserve,BatBlackBox:user_data,OA:avoidObst,OA:emergBrake,OA:radiusLimit,OA:airportLimit,OA:groundForceLanding,OA:horizNearBoundary,OA:vertLowLimit,OA:vertAirportLimit,OA:roofLimit,OA:hitGroundLimit,Motor:Speed:RFront,Motor:Speed:LFront,Motor:Speed:LBack,Motor:Speed:RBack,Motor:EscTemp:RFront,Motor:EscTemp:LFront,Motor:EscTemp:LBack,Motor:EscTemp:RBack,Motor:PPMrecv:RFront,Motor:PPMrecv:LFront,Motor:PPMrecv:LBack,Motor:PPMrecv:RBack,Motor:PPMsend:RFront,Motor:PPMsend:LFront,Motor:PPMsend:LBack,Motor:PPMsend:RBack,Motor:V_out:RFront,Motor:V_out:LFront,Motor:V_out:LBack,Motor:V_out:RBack,Motor:Volts:RFront,Motor:Volts:LFront,Motor:Volts:LBack,Motor:Volts:RBack,Motor:Current:RFront,Motor:Current:LFront,Motor:Current:LBack,Motor:Current:RBack,Motor:Status:RFront,Motor:Status:LFront,Motor:Status:LBack,Motor:Status:RBack,Motor:thrustAngle,IMU_ATTI(1):Longitude,IMU_ATTI(1):Latitude,IMU_ATTI(1):numSats,IMU_ATTI(1):barometer:Raw,IMU_ATTI(1):barometer:Smooth,IMU_ATTI(1):accel:X,IMU_ATTI(1):accel:Y,IMU_ATTI(1):accel:Z,IMU_ATTI(1):accel:Composite,IMU_ATTI(1):gyro:X,IMU_ATTI(1):gyro:Y,IMU_ATTI(1):gyro:Z,IMU_ATTI(1):gyro:Composite,IMU_ATTI(1):mag:X,IMU_ATTI(1):mag:Y,IMU_ATTI(1):mag:Z,IMU_ATTI(1):mag:Mod,IMU_ATTI(1):velN,IMU_ATTI(1):velE,IMU_ATTI(1):velD,IMU_ATTI(1):velComposite,IMU_ATTI(1):velH,IMU_ATTI(1):GPS-H,IMU_ATTI(1):roll,IMU_ATTI(1):pitch,IMU_ATTI(1):yaw,IMU_ATTI(1):yaw360,IMU_ATTI(1):totalGyro:Z,IMU_ATTI(1):totalGyro:X,IMU_ATTI(1):totalGyro:Y,IMU_ATTI(1):magYaw,IMU_ATTI(1):distanceHP,IMU_ATTI(1):distanceTravelled,IMU_ATTI(1):directionOfTravel[mag],IMU_ATTI(1):directionOfTravel[true],IMU_ATTI(1):temperature,IMUEX(0):err,IMUEX(0):rtk_Longitude,IMUEX(0):rtk_Latitude,IMUEX(0):rtk_Alti,IMUEX(1):err,IMUEX(1):rtk_Longitude,IMUEX(1):rtk_Latitude,IMUEX(1):rtk_Alti,MotorCtrl:Status,MotorCtrl:PWM:RFront,MotorCtrl:PWM:LFront,MotorCtrl:PWM:LBack,MotorCtrl:PWM:RBack,BattInfo:Voltage,BattInfo:BatVoltage,BattInfo:AdVoltage,BattInfo:AvgCurrent,BattInfo:R_time,BattInfo:R_CAP_MAH,BattInfo:LowCellVoltage,BattInfo:LowCellVolThreshold,BattInfo:BatCurrent,BattInfo:Remaining%,BattInfo:Temp,BattInfo:status,battery_info:BatDynCnt,battery_info:Vol1Protect,battery_info:Vol2Protect,battery_info:Cap1Protect,battery_info:Cap2Protect,battery_info:Batpresent,battery_info:sopPercentage,battery_info:sopValue,battery_info:sopScale,battery_info:sopFlg,BattInfo:WindHeading:WindDir,battery_info:home_dir,BattInfo:Wind:rangeMin,BattInfo:Wind:rangeMax,battery_info:cap_speed,battery_info:against_wind,battery_info:emergency_land_cap,battery_info:intel_bat_land_cap,battery_info:intel_bat_gh_cap,BattInfo:Smart:SmartGh,BattInfo:Smart:SmartLand,BattInfo:GoHome:CntDown,BattInfo:GoHome:GhCmd,BattInfo:GoHome:CapLevel,BattInfo:GoHome:LandCapLv,Attribute|Value,ConvertDatV3,3.6.6-Tablet
76321000,.000,13.993096059840516,66.38570911376381,14,27.630737,27.726961,0.0725066,-0.037707005,-0.97301686,0.97644293,0.3482045,-0.009686832,0.22487357,0.41461828,-340,146,1508,1552.0,0.007099738,-0.0020986516,0.062191382,0.06263049,0.0074034191107104665,-0.0074034191107104665,2.3117887967675403,4.271373202613051,-159.5649305359829,200.4350694640171,1.5247415329969054,2.600447277261513,-0.19920747126101337,-159.4094675602109,0.21294928541624353,0.8268985445347621,127.77229165666807,133.0476626560932,30.81,,,13.9930956,66.3857087,20190521,153346,2019-05-21T15:33:46Z,67.835,0.74,1.57,17.56,7,7,14,0.01,0.0,0.01,-9998,-9998,9998,-9998,5,5,13.993091546034206,66.3857097448512,50,1684525,48,100,137,3514,3561,4359,4364,0,17420,18,212,0,0,false,false,false,false,false,false,false,false,false,false,0,0,0,0,44,56,56,43,944,945,945,945,940,940,940,940,0.0,0.0,0.0,0.0,1730.0,1722.0,1721.4,1728.8,0.0,0.0,0.0,0.0,0,0,0,0,-45.0,13.993096046030018,66.38570847742594,0,27.646591,27.727648,0.07257513,-0.039264485,-0.9724492,0.9759438,0.3259832,-0.09775221,0.14570037,0.3702015,-340,149,1508,1553.0,-1.6846923E-4,0.0015185766,-1.2634535E-4,0.001533108,0.0015278929590974086,-0.0015278929590974086,2.3258109537466356,4.313737926095011,-155.41892031418183,204.58107968581817,0.7316975023008988,1.6829888831909319,0.04318410658482611,-158.73100528778085,0.24502589526673862,0.35738123204086075,124.89336248584846,130.16873348527358,30.82,NONE,0.0,0.0,0.0,NONE,5.747630072871429E-11,-3.6945036139423667E-11,3.8146973E-6,,,,,,17.384,17.384,6.22,1.2509509,0,3581,4.344,12.0,1.223,100,22.9,OK,17,0,0,0,0,0,65,100,0.0,0,0.0,-1.6698709E-22,2.68E-43,0.0,-2.9251623E-8,67,7.748713E-8,-7.7487606E-8,9.551665E-35,False,False,0,None,3.0206704E29,1.0842106E-19,Firmware Date| Oct 17 2018
80174665,1.002,13.99309688128418,66.38570868337064,14,27.704723,27.726645,0.07323923,-0.037609592,-0.97066593,0.9741514,-0.10422456,-0.4433798,0.9655963,1.0676256,-334,142,1502,1545.0,0.012627718,0.015635673,0.057044793,0.06048175,0.020098097375138024,0.04005059875792506,2.3569266448447763,4.307614633856514,-159.5634314735362,200.4365685264638,2.073892918191484,2.795640355561724,-0.3546557368598525,-159.9827111689337,0.2653411487397523,0.9003930927323294,104.00748580563925,109.28285680506437,31.13,-0.006303641845704533,,13.993096,66.3857083,20190521,153347,2019-05-21T15:33:47Z,67.846,0.74,1.57,17.05,7,7,14,-0.01,0.0,0.01,0,0,0,0,5,5,13.993091546034206,66.3857097448512,50,1684525,48,100,138,3514,3561,4359,4364,0,17420,18,212,0,0,false,false,false,false,false,false,false,false,false,false,559,559,541,554,46,61,60,47,1332,1341,1337,1335,1322,1322,1322,1322,0.1,0.1,0.1,0.1,1698.1,1690.1,1690.7,1696.8,7.92,7.4,8.06,7.6,0,0,0,0,-150.52411099675425,13.993096592984593,66.38570819681863,0,27.704723,27.728249,0.07317448,-0.039428446,-0.9721046,0.9756518,0.07513544,-0.029384235,0.08942962,0.120442614,-340,142,1505,1549.0,-0.0055589904,5.958736E-4,-0.00238919,0.00607994,0.005590835460908848,0.03393457719287701,2.3394632342635293,4.297351686189005,-155.45229024179866,204.54770975820134,0.9443616375162202,1.8986230063459635,-0.023030502103409657,-160.40057458204657,0.2831359174626268,0.4065683906509512,122.3168568065643,127.59222780598942,31.07,NONE,0.0,0.0,0.0,NONE,7.518702027176742E-11,1.5862270949130627E-10,-1.9073486E-5,1,22.5,22.5,22.5,22.5,17.359,17.359,6.096,1.2509509,0,3581,4.344,12.0,1.223,100,22.9,OK,17,0,0,0,0,0,65,100,0.0,0,0.0,-3.6332067E-31,2.68E-43,0.0,-5.9807744E7,62,7.748713E-8,-7.7487606E-8,1.0852241E-34,False,False,0,None,3.680357E29,1.0842106E-19,ACType|MavicEnterprise
84139499,2.032,13.993096488625168,66.38570836678683,14,27.704723,27.7253,0.074214585,-0.03704858,-0.971122,0.9746581,0.27897412,1.5892311,0.5745001,1.7127558,-337,146,1497,1541.0,-0.0011919051,-0.018361373,0.05203457,0.055192005,0.01840001817258878,0.01974662902632497,2.310808917973129,4.27861550598887,-159.3582914765815,200.6417085234185,0.71901030671493,3.127755416148338,-0.7782303989412714,-159.10570955277524,0.2682318121295103,0.9569636418748153,50.80369154464399,56.07906254406911,31.46,-0.006303641845704533,,13.9930964,66.3857083,20190521,153348,2019-05-21T15:33:48Z,68.048,0.74,1.57,16.53,7,7,14,-0.01,0.01,0.01,0,0,0,0,5,5,13.993091546034206,66.3857097448512,50,1684525,48,100,139,3514,3561,4359,4364,0,17420,18,212,0,0,false,false,false,false,false,false,false,false,false,false,2165,2121,2199,2227,48,60,59,49,1209,1206,1212,1214,1201,1200,1205,1207,0.0,0.0,0.0,0.0,1721.4,1716.5,1716.5,1721.4,0.4,0.01,0.6,0.15,0,0,0,0,-27.2161115573075,13.993096642386336,66.38570809923105,0,27.704723,27.728405,0.073917665,-0.03836115,-0.9722239,0.9757841,1.128559,-0.41229403,0.0074602207,1.2015355,-337,146,1497,1541.0,-0.0010115682,-0.0061478396,-0.0020301114,0.0065529044,0.0062305057594230035,0.004514493441829386,2.3092051821644457,4.2612602941050675,-155.53734564619864,204.46265435380136,-1.2183596276407436,2.150352061040455,1.1599655941756415,-159.13558798852117,0.2915709161243713,0.47457321566228244,5.768774004529138,11.044145003954261,31.46,NONE,0.0,0.0,0.0,NONE,-8.971899979233818E-10,-3.2741868979251694E-10,-1.1444092E-5,2,10.16,10.0,10.58,10.7,17.17,17.17,6.19,1.4431316,0,3579,4.344,12.0,3.912,100,22.9,OK,19,0,0,0,0,0,65,100,0.0,0,0.0,6.1332993E35,2.68E-43,0.0,-5.9807744E7,62,7.748713E-8,-7.7487606E-8,1.1191371E-34,False,False,0,None,3.8790077E29,1.0842106E-19,dateTime|2019-5-21 15:33:36 GMT
87993470,3.034,13.99309711933956,66.38570842251579,14,27.704723,27.740225,-0.0103826355,-0.0035042139,-1.112295,1.112349,-14.749596,-45.312088,14.561937,49.82756,-237,139,1532,1556.0,0.02424404,-0.02557893,-0.08925237,0.09595853,0.03524280198858941,-0.006520890302651579,1.1973825637059374,-2.235445203869335,-157.78188939515263,202.21811060484737,2.346966566786128,3.8937547089442406,-5.874917756464771,-160.1751248855819,0.019825214904882264,1.0563102511769815,-151.4308255774982,-146.1554545780731,31.78,-0.006303641845704533,,13.9930966,66.3857082,20190521,153349,2019-05-21T15:33:49Z,68.173,0.74,1.57,16.06,7,7,14,0.01,-0.01,0.0,0,0,4984,7798,5,5,13.993096683579926,66.38570845882772,50,1684525,48,100,140,3514,3561,4359,4364,0,17420,18,212,0,0,false,false,false,false,false,false,true,false,false,false,5654,5384,4503,4264,46,59,59,46,1547,1553,1422,1408,1540,1540,1426,1411,0.0,0.0,0.0,0.0,1676.0,1670.5,1671.7,1677.3,5.48,5.24,3.06,2.23,0,0,0,0,-179.21793973678493,13.993096926105569,66.38570786196432,0,27.704723,27.677376,0.070348874,-0.026539005,-0.9933657,0.9962071,-5.7804246,-15.462449,-1.5150943,16.576977,-334,142,1508,1551.0,0.0042149825,-0.023950169,0.038810648,0.045800034,0.024318237599576627,0.004887554197258399,2.329673517311089,3.897088705959237,-155.56392712477287,204.43607287522713,-1.0766855521984826,1.4085242171992316,0.12494443214830753,-160.72474998177591,0.06724159641243604,0.5141253332628104,-173.02489555706816,-167.74952455764304,31.69,NONE,0.0,0.0,0.0,NONE,-1.24081870805878E-8,1.7552908118127565E-9,-6.3705444E-4,2,58.83,58.29,39.72,39.28,17.262,17.262,6.162,1.4431316,0,3579,4.274,12.0,3.912,100,22.9,OK,19,0,0,0,0,0,65,100,0.0,0,0.0,-7.561808E-35,2.68E-43,0.0,-5.9807744E7,62,7.748713E-8,-7.7487606E-8,1.1576051E-34,False,False,0,None,4.104545E29,1.0842106E-19,geoDeclination|528 degrees
91849944,4.036,13.993096508225806,66.38570853058243,15,29.613276,29.075891,0.007911834,-0.019740287,-1.3780041,1.3781682,-0.40037033,1.2514335,-6.2231197,6.3603144,-222,139,1520,1542.0,-0.027321024,0.01922717,-3.1298156,3.129994,0.033408417381841776,-0.0037214035808536203,1.1723277302435002,1.1345636014373344,-152.04357082591142,207.95642917408858,4.4500297590883715,-0.14457812663975153,-2.7951579894192347,-150.6469001192331,0.011165437040420717,1.1745913604871259,87.59243901512768,92.8678100145528,32.1,1.9022485279541002,,13.9930966,66.3857078,20190521,153350,2019-05-21T15:33:50Z,69.361,0.7,1.54,15.65,8,7,15,-0.15,0.01,-1.0,0,0,1364,10000,5,5,13.993096683579926,66.38570845882772,50,1684528,114,99,141,3514,3561,4360,4363,0,17420,18,3563,3,0,false,false,false,false,false,false,true,false,false,false,7061,7378,6098,6013,46,57,59,46,1691,1716,1591,1582,1685,1696,1582,1575,0.0,0.0,0.0,0.0,1634.3,1627.6,1628.2,1633.7,7.1,6.84,5.34,4.5,0,0,0,0,170.20275846964276,13.993096635410046,66.38570791574737,0,28.994965,28.40673,0.008974078,-0.024490569,-1.390096,1.3903406,-14.448199,3.2871737,-14.900004,21.013474,-214,127,1517,1537.0,-0.08578369,0.025015846,-2.3612227,2.362913,0.08935678199678539,-0.07512663883014262,0.3787020126235085,0.7171692908185231,-148.44288211211548,211.55711788788452,0.10904305850896445,-0.27380294220950113,-8.153211890866606,-149.0407165896994,0.06042588413716644,0.5883687627117146,96.90757957964014,102.18295057906526,31.99,NONE,0.0,0.0,0.0,NONE,2.6140017856672757E-9,-3.778031137365821E-9,-0.011457443,2,70.7,73.71,57.95,56.51,17.218,17.218,5.909,1.7049214,0,3579,4.317,12.0,2.319,100,23.0,OK,20,0,0,0,0,0,65,100,0.0,0,0.0,-9.7100071E16,8.8E-44,0.0,-5.9807744E7,62,1.399967E-7,-1.0354463E-7,8.5458824E-35,False,False,0,None,2.4310531E29,1.5063705E-19,geoInclination|7646 degrees
95747673,5.049,13.99309979905701,66.38570818250152,15,33.92415,33.44543,0.017323375,-0.040045317,-1.024599,1.0255276,-6.9176106,-31.360346,39.661938,51.033264,212,300,1526,1569.0,-0.096543916,-0.2733419,-4.1344104,4.144561,0.2898905338461363,-0.14023166509513477,1.105528658525805,-11.499806956831685,-118.19045469681959,241.8095453031804,34.40174775343873,-4.460948962842798,-16.978672539182703,-109.83692960821702,0.1421311282541734,1.3622879591450632,177.60093430437192,-177.12369469620296,32.35,6.213121559570311,,13.9931004,66.3857086,20190521,153351,2019-05-21T15:33:51Z,72.833,0.7,1.54,14.77,8,7,15,-0.26,0.19,-3.02,-115,63,9159,10000,5,5,13.993096683579926,66.38570845882772,50,1809721,80,99,142,3501,3566,4354,4359,0,17400,22,0,4,0,false,false,false,false,false,false,true,false,false,false,6321,6514,5445,5277,47,58,60,47,1613,1646,1490,1473,1604,1635,1491,1467,0.0,0.0,0.0,0.0,1657.0,1649.6,1650.8,1656.4,5.93,5.46,3.83,2.69,0,0,0,0,170.30478726429976,13.993100733006449,66.38570831646611,0,33.9666,32.632378,0.017964197,-0.040612012,-1.0183414,1.0193093,-17.494453,-55.2977,34.73159,67.603065,80,303,1526,1557.0,-0.1505796,-0.07824229,-3.9612722,3.9649053,0.16969405171266824,0.01577070168602812,1.5728531234624517,-8.519304935705364,-118.35632414139512,241.64367585860487,25.800835487248648,-3.8464989691112517,-16.36019394264895,-119.57120430945233,0.1810636592118153,0.8361801164067227,38.277523166413445,43.552894165838566,32.34,NONE,0.0,0.0,0.0,NONE,-6.4764797301922655E-9,-5.964025275775741E-9,-0.019866943,2,57.4,59.72,50.63,50.59,16.636,16.636,5.963,2.9087882,0,3574,4.281,12.0,10.971,100,23.1,OK,22,0,0,0,0,0,65,100,0.0,0,0.0,-2.6554403E-10,2.68E-43,0.0,-5.9807744E7,62,1.0920921E-5,-8.896497E-7,3.1615074E-34,False,False,0,None,2.3566897E30,1.0197814E-18,geoIntensity|5257919 nanoTesla
99624038,6.056,13.993066935246734,66.38571076380443,13,39.11061,36.90158,-0.036870897,-0.014669838,-1.0909986,1.0917201,13.652712,-4.451484,-2.976598,14.665346,848,254,1328,1595.0,0.42839718,-3.8375666,-3.868526,5.4658885,3.86140407088155,-2.3807338299439653,0.9581025798983394,-24.307243960422802,-71.1178805206893,288.8821194793107,80.78555599258432,13.038595282935631,-29.003396722494582,-45.910180579350765,1.3496162584104585,3.0161704677371617,-81.98634665244994,-76.71097565302482,32.69,11.399583961914061,,13.9930802,66.385711,20190521,153352,2019-05-21T15:33:52Z,76.371,0.79,1.7,13.72,8,5,13,-0.06,-2.22,-3.94,0,10000,1042,10000,4,4,13.993096683579926,66.38570845882772,50,1809743,114,99,143,3501,3566,4354,4358,-16,17399,22,3561,0,0,false,false,false,false,false,false,true,false,false,false,6651,6990,6053,6358,47,60,60,47,1655,1687,1577,1593,1646,1671,1572,1586,0.0,0.0,0.0,0.0,1636.1,1631.2,1630.0,1635.5,6.44,5.77,5.2,4.27,0,0,0,0,178.4166174278391,13.993089966593832,66.38570883865427,0,37.25171,35.108093,-0.01713001,-0.03414928,-1.0885459,1.0892161,27.054312,-4.2907233,62.028507,67.807686,762,247,1369,1586.0,-0.5536254,-2.2385266,-3.7740963,4.4228163,2.3059709499014835,-1.82648102485145,-2.038142786255031,-23.89844338366763,-78.52289006045609,281.4771099395439,61.221797588697974,3.3640496812636482,-33.289320746033226,-63.71344939827384,0.3021556214584069,1.3981193668071674,-100.1303460316027,-94.85497503217758,32.55,NONE,0.0,0.0,0.0,NONE,-2.895545748381447E-7,-2.2071955273555805E-8,-0.018920898,2,64.06,68.32,57.77,60.66,16.69,16.69,5.904,2.9087882,0,3574,4.145,12.0,10.971,100,23.1,OK,22,0,0,0,0,0,65,100,0.0,0,0.0,-6.2151692E22,8.8E-44,0.0,-5.9807744E7,62,2.0814687E-4,-3.824623E-6,1.0370508E-33,False,False,0,None,1.9222423E31,3.7430655E-18,
103589789,7.087,13.992956925981689,66.38572868658262,15,44.072113,40.87562,-0.11344764,-0.03339047,-1.0547765,1.0613854,-1.6760887,1.4346495,-0.13945517,2.2106426,859,284,1307,1589.0,2.8406916,-6.211839,-4.0035553,7.9173813,6.830554241966124,-1.6981948189774894,1.5613385438177987,-24.799557515239748,-55.78703590519399,304.212964094806,77.26059186401447,11.261630632664065,-31.29119397256379,-47.372603555706505,6.618985930402699,8.314250697537323,-69.71707622396634,-64.44170522454122,32.99,16.361086037109374,,13.9929861,66.385724,20190521,153353,2019-05-21T15:33:53Z,80.813,0.7,1.54,12.94,8,7,15,2.25,-5.24,-4.43,0,10000,0,10000,4,4,13.993096683579926,66.38570845882772,50,1815059,114,98,144,3478,3567,4346,4350,-16,17367,27,3566,5,0,false,false,false,false,false,false,false,false,false,false,6893,7173,6604,6753,47,60,59,48,1663,1699,1631,1651,1654,1694,1632,1632,0.0,0.0,0.0,0.0,1627.0,1620.8,1621.4,1627.0,6.11,6.1,5.38,5.28,0,0,0,0,169.53167513491343,13.992969368647724,66.3857267209625,0,43.71971,40.195786,-0.09866175,-0.03737259,-1.0616559,1.0668852,-2.754126,4.860182,3.3957932,6.53743,862,288,1307,1591.0,2.4545753,-5.921312,-3.986983,7.5487027,6.40990451688068,-0.8525025138211486,1.3344062613840417,-24.345883279450206,-57.27112354238283,302.72887645761716,82.15629234452467,11.548484026200653,-36.30657801770929,-46.549275041817566,6.023495572265225,7.150787525587147,-68.34919085382404,-63.07381985439891,32.94,NONE,0.0,0.0,0.0,NONE,-6.597522642634774E-7,1.0925696810231502E-7,-0.019886017,2,68.19,70.67,62.47,63.55,16.621,16.621,5.864,4.040854,0,3571,4.169,12.0,10.289,100,23.2,OK,23,0,0,0,0,0,65,100,0.0,0,0.0,-1.4548271E32,8.8E-44,0.0,-5.9807744E7,62,0.027669907,-4.6858808E-5,1.8299132E-29,False,False,0,None,-1.02597E-40,3.4009435E-17,
107495934,8.102,13.992796002409852,66.38576990211098,15,49.30694,44.98934,-0.14551492,-0.0359157,-0.5803783,0.5994193,-5.662637,3.323995,-14.690627,16.091269,802,451,1271,1569.0,4.681051,-8.049836,-3.1434429,9.828191,9.311933461820015,-0.9314698956124907,7.038869036729321,-25.080322626010872,-65.70765308595085,294.2923469140492,65.2143101174858,13.223613269844577,-31.551002831804166,-60.03605875522569,15.034982576027803,16.848049794289157,-63.658942061351986,-58.383571061926865,33.27,21.595911171386717,,13.9927992,66.3857677,20190521,153354,2019-05-21T15:33:54Z,86.418,0.7,1.54,12.23,8,7,15,4.64,-7.88,-4.72,0,10000,-9991,620,4,4,13.993096683579926,66.38570845882772,50,1816080,114,98,145,3470,3566,4344,4349,-15,17362,27,3567,3,0,false,false,false,false,false,false,false,false,false,false,5742,6446,5791,6670,48,60,59,48,1499,1606,1451,1617,1493,1614,1470,1577,0.0,0.0,0.0,0.0,1664.4,1657.6,1657.6,1663.7,2.18,3.87,0.77,5.28,0,0,0,0,-32.66091272167381,13.992794730248425,66.38576983380644,0,49.49559,44.64787,-0.1437365,-0.036169674,-0.58173007,0.60031515,-11.319435,-0.5987194,-11.488115,16.138924,796,460,1271,1568.0,4.499675,-7.6822686,-3.107768,9.429875,8.903051611831176,0.09757093905057701,6.303687054407087,-24.420634593194986,-63.87032818535543,296.12967181464455,69.08091573686282,9.612680745560393,-36.10363335125015,-60.24343286859519,15.082042598654448,16.30665594837492,-62.61347273929877,-57.33810173987365,33.29,NONE,0.0,0.0,0.0,NONE,-8.160453816691686E-7,1.9117135016568664E-7,-0.02027893,2,51.14,50.04,50.34,43.85,16.509,16.509,5.912,5.321058,0,3568,4.147,12.0,12.207,100,23.2,OK,24,0,0,0,0,0,65,100,0.0,0,0.0,1.8323477E-37,9.0E-44,0.0,-5.9807744E7,62,1.9776917,-4.0011303E-4,4.760354E-24,False,False,0,None,-3.9675285E-34,2.2084945E-16,
111418210,9.122,13.992604462525351,66.38581204077657,15,49.355076,46.53053,-0.2868495,-0.17973556,-1.1128111,1.1631578,-74.93217,216.8086,-13.659721,229.79857,633,482,1340,1558.0,5.0252924,-9.216321,-0.12168628,10.498045,10.4973395473921,-0.9488203138772509,5.4007978818747056,-10.890062805262572,-84.78314964037833,275.2168503596217,57.800768109467796,9.62420908718978,-13.326788751613083,-44.418241366012644,24.765819451638798,26.585907044891073,-67.5501230085309,-62.27475200910578,33.59,21.64404883618164,,13.9926066,66.3858116,20190521,153355,2019-05-21T15:33:55Z,88.57,0.7,1.54,11.74,8,7,15,5.15,-9.12,-2.88,0,490,-9547,0,4,4,13.993096683579926,66.38570845882772,50,1816080,114,98,145,3470,3566,4344,4349,-15,17362,27,3567,3,0,false,false,false,false,false,false,false,false,false,false,5510,5623,5401,5091,48,60,59,47,1529,1489,1587,1328,1556,1472,1460,1281,0.0,0.0,0.0,0.0,1669.9,1655.2,1659.4,1668.0,2.52,1.48,10.7,1.55,0,0,0,0,146.57892476771667,13.992641987747563,66.38580430145919,0,49.522377,46.13922,-0.18239261,-0.15527977,-0.86816305,0.9006031,4.405397,6.835323,-17.267532,19.086561,759,414,1316,1574.0,4.7383,-8.680907,-0.38447702,9.8973465,9.889875579452493,-2.2296220733348733,3.594697018765489,-24.857658562778703,-74.3917322649397,285.6082677350603,64.63044432854771,9.401969579333318,-38.610568770209035,-69.19289211186839,22.88590766939512,24.116053008834605,-66.95055530804719,-61.675184308622065,33.54,NONE,0.0,0.0,0.0,NONE,-1.9957931343233268E-6,4.3263904286713135E-7,-0.003063202,2,10.0,14.52,69.49,53.29,16.435,16.435,5.953,7.7892075,0,3560,4.112,12.0,6.786,100,23.3,OK,26,0,0,0,0,0,65,100,0.0,0,0.0,1.0263765E-36,9.0E-44,0.0,-5.9807744E7,62,18.562988,-0.0012012798,5.0158794E-20,False,False,0,None,-1.5578847E-30,6.245852E-16,
115331551,10.139,13.992424630177272,66.38584822478914,15,50.00852,46.790165,-0.057204552,-0.09168129,-1.0917494,1.0970846,11.806059,-3.469047,1.1050214,12.354691,-543,-26,1488,1584.0,2.3380466,-4.901814,-0.1023953,5.431825,5.430860126580092,3.382594799923541,-8.650630812558687,22.486302593331235,-88.98371444755674,271.01628555244326,51.63816056176682,-3.3209149893044883,14.556339099980072,-72.51383562025842,33.72853787072479,35.55090393465415,-70.96807615910677,-65.69270515968165,33.85,22.29749121899414,,13.9924358,66.3858453,20190521,153356,2019-05-21T15:33:56Z,89.459,0.7,1.54,11.32,8,7,15,2.72,-6.02,-1.56,0,0,-1523,0,4,4,13.993096683579926,66.38570845882772,50,1816080,114,98,145,3470,3566,4344,4349,-15,17362,27,3567,3,0,false,false,false,false,false,false,false,false,false,false,4383,5068,4568,4323,47,61,61,48,1454,1500,1447,1372,1448,1460,1472,1358,0.0,0.0,0.0,0.0,1671.7,1666.2,1666.8,1673.5,4.78,4.16,3.52,1.99,0,0,0,0,121.05427111635282,13.992432031007061,66.38584538925309,0,49.596474,46.144417,-0.056594886,-0.09005401,-1.1211407,1.1261746,1.7869828,-1.9565011,-0.06707224,2.6506042,-546,-17,1491,1587.0,2.272385,-5.1712875,0.025736004,5.6485934,5.648534919035854,4.585117045130029,-9.487272005811459,23.422104212028994,-87.20531319771473,272.79468680228524,55.89192663047549,-1.6741535191416408,-26.657354620396944,-69.70753810765883,33.29093566576512,34.52756555114879,-71.43170566523149,-66.15633466580637,33.83,NONE,0.0,0.0,0.0,NONE,-7.507544746045944E-7,1.4079766190696397E-7,6.4086914E-4,2,37.58,49.04,44.36,31.93,16.768,16.768,6.009,7.7892075,0,3560,4.182,12.0,6.786,100,23.3,OK,26,0,0,0,0,0,65,100,0.0,0,0.0,3.7222075E-37,9.0E-44,0.0,-5.9807744E7,62,16.226074,-0.0011299629,1.125636E-19,False,False,0,None,-3.2583846E-30,5.956912E-16,
119248516,11.157,13.992366093970832,66.38585641497659,15,51.6904,47.096207,-0.0012857397,-0.097952686,-0.9201009,0.9253011,23.732384,-47.768917,8.654799,54.037033,-474,210,1479,1567.0,0.29122865,-0.8158418,0.29725602,0.9158456,0.8662632321094366,1.8466893919523577,0.4310114653212881,15.235658619052542,-94.82760877203526,265.17239122796474,49.379177011861856,6.717929235197919,8.183786307923032,-108.9470303897275,36.464327723797524,38.318865551386644,-77.62506697672511,-72.34969597729999,34.2,23.979372169921874,,13.9923669,66.3858559,20190521,153357,2019-05-21T15:33:57Z,90.102,0.7,1.54,10.97,8,7,15,0.42,-1.57,-0.94,0,0,0,0,4,4,13.993096683579926,66.38570845882772,50,1829000,48,96,147,3411,3566,4325,4330,-16,17286,30,212,4,0,false,false,false,false,false,false,false,false,false,false,5224,5953,4768,4215,49,62,62,49,1485,1560,1432,1386,1480,1555,1411,1365,0.0,0.0,0.0,0.0,1675.4,1668.7,1669.3,1674.8,3.38,4.02,2.52,1.59,0,0,0,0,149.70136437751694,13.992365046028022,66.38585570327562,0,51.82386,47.05091,0.0022462786,-0.10179545,-0.8999391,0.90568084,20.053232,-49.738,-1.6870142,53.654884,-454,220,1488,1571.0,0.12240249,-0.71369326,0.0021334414,0.7241166,0.7241135209061198,2.415831904833013,-0.060941216995744264,14.892985051697032,-93.73223671027215,266.26776328972784,60.33511706172885,15.052013093904984,-34.280753441598534,-104.27357191740478,36.47039468844135,37.72690434599872,-78.38693343227413,-73.11156243284901,34.22,NONE,0.0,0.0,0.0,NONE,-1.632224690662999E-7,1.5925940089545763E-8,-1.9073486E-5,2,45.13,55.16,40.56,33.65,16.871,16.871,5.988,8.517811,0,3558,4.182,12.0,5.8,100,23.4,OK,27,0,0,0,0,0,65,100,0.0,0,0.0,1.7106083E-37,9.0E-44,0.0,3.041665E-35,64,40.393555,-0.0017394203,1.2337651E-19,False,False,0,None,-3.5387037E-30,8.4253695E-16,
123173452,12.177,13.992363540434487,66.38585593781643,15,51.248215,47.039066,0.028810348,-0.07025115,-0.9632963,0.96628416,-2.3915381,-0.89134717,-2.2250156,3.385949,-65,365,1514,1558.0,0.08191544,-0.029777708,0.779721,0.7845774,0.08715991544777865,0.03587647593802075,4.212060258066322,2.203553342260305,-95.06671869383933,264.93328130616067,54.940359878253155,15.080759118811995,-4.00103248711687,-91.32905456299582,36.54202773351241,38.58644032725856,113.45622661321251,118.73159761263763,34.45,23.537187721679686,,13.9923635,66.3858558,20190521,153358,2019-05-21T15:33:58Z,89.981,0.7,1.54,10.66,8,7,15,0.03,-0.01,-0.19,0,0,0,0,5,5,13.993096683579926,66.38570845882772,50,1829000,48,96,148,3411,3566,4325,4330,-16,17286,30,212,4,0,false,false,false,false,false,false,false,false,false,false,5558,5978,4283,3474,50,61,61,49,1528,1560,1410,1338,1514,1538,1392,1339,0.0,0.0,0.0,0.0,1671.7,1665.6,1666.8,1673.5,3.85,4.19,3.4,2.12,0,0,0,0,161.9845257541603,13.992364525312691,66.3858555072218,0,50.982914,47.137283,0.033936,-0.068483554,-0.9401478,0.94324946,12.969495,2.5539956,10.792711,17.064972,-59,355,1505,1547.0,0.03941191,-0.0029705712,0.42872477,0.43054274,0.03952370116848455,-0.00831935933984531,3.362280577051661,2.81203666911592,-94.04683500809944,265.95316499190056,65.61494978923264,26.9212865108863,-52.28725661010659,-86.60224543518358,36.481345279932476,37.968816207133635,98.04807327519278,103.3234442746179,34.56,NONE,0.0,0.0,0.0,NONE,-5.132781810977187E-10,1.7819232694870499E-9,0.0020599365,2,49.74,55.83,36.02,24.81,16.782,16.782,6.004,8.819489,0,3556,4.213,12.0,7.439,99,23.4,OK,28,0,0,0,0,0,65,100,0.0,0,0.0,1.601611E-37,9.0E-44,0.0,3.041665E-35,64,47.9209,-0.0018542785,1.184035E-19,False,False,0,None,-3.4097627E-30,8.899471E-16,
127022723,13.177,13.992367185789405,66.38585513589244,15,50.99569,47.40109,0.036899626,-0.08410892,-1.0524299,1.0564301,1.4494338,3.0825548,-1.3115404,3.6500878,-13,374,1514,1559.0,0.005506359,-0.07815647,0.30875456,0.31854063,0.07835020151381697,0.10681906214159687,4.478033918965698,1.0996934696238823,-94.90834706057599,265.091652939424,51.66188965791705,12.896600952104098,-7.2425771188603925,-86.28577747092982,36.35690910910124,38.81648314157313,-99.02522448428903,-93.7498534848639,34.88,23.284662392089842,,13.9923656,66.3858553,20190521,153359,2019-05-21T15:33:59Z,89.51,0.7,1.54,10.41,8,7,15,-0.02,-0.03,0.22,0,0,0,0,5,5,13.993096683579926,66.38570845882772,50,1829000,48,96,149,3411,3566,4325,4330,-16,17286,30,212,4,0,false,false,false,false,false,false,false,false,false,false,5929,6320,4583,3983,49,61,61,49,1565,1606,1450,1384,1556,1592,1431,1376,0.0,0.0,0.0,0.0,1661.9,1655.8,1657.6,1661.3,4.7,4.59,3.46,2.36,0,0,0,0,164.93988066748653,13.992366682344896,66.38585482279403,0,51.260326,46.341602,0.035416048,-0.0826635,-1.0416843,1.045559,-4.2886972,1.3366661,-3.7989733,5.883179,-13,371,1517,1561.0,-0.02069839,-0.04717763,0.36484957,0.36846894,0.051518464882412365,0.0709999083815332,3.8390505973559352,1.79310409291727,-93.89854827126467,266.10145172873536,63.51988208404906,27.63729346922044,-54.19232264343449,-82.54548647328299,36.36135603985761,38.12141258803957,-110.93990530069678,-105.66453430127166,34.87,NONE,0.0,0.0,0.0,NONE,-8.554636936304686E-10,-5.054494345701701E-10,0.0023002625,2,53.95,60.16,40.34,30.77,16.833,16.833,5.971,8.84674,0,3554,4.193,12.0,6.323,99,23.5,OK,29,0,0,0,0,0,65,100,0.0,0,0.0,1.5813785E-37,9.0E-44,0.0,3.041665E-35,64,21.706543,-0.0012972135,1.4625963E-19,False,False,0,None,-4.13189E-30,6.634403E-16,
131001204,14.211,13.992365454774063,66.3858552195163,16,51.20052,48.10304,0.047172282,-0.07526181,-1.0346559,1.0384616,-12.950774,-5.585972,-11.117727,17.959106,-50,374,1499,1545.0,-0.0074383467,-0.14910798,-0.5254467,0.54624426,0.14929339578987122,-0.07418484151362201,4.433315621957474,1.996820454713107,-94.9007535328533,265.0992464671467,46.582158452965764,6.915473785881132,-8.45614693334606,-89.30612953813436,36.42999930493156,38.91811898085768,-69.6569167920509,-64.38154579262577,35.18,23.489492561767577,,13.9923644,66.3858553,20190521,153400,2019-05-21T15:34:00Z,89.56,0.67,1.43,10.16,9,7,16,-0.05,-0.17,-0.08,0,0,0,0,5,5,13.993096683579926,66.38570845882772,50,1831780,114,96,150,3391,3567,4321,4326,-16,17270,28,3566,3,0,false,false,false,false,false,false,false,false,false,false,5869,6320,4923,4298,48,62,61,49,1552,1616,1471,1403,1551,1597,1455,1396,0.0,0.0,0.0,0.0,1660.7,1654.6,1655.2,1661.3,4.42,4.87,3.7,2.07,0,0,0,0,160.07271312006506,13.992365345096102,66.3858548223914,0,51.16921,45.745956,0.045271643,-0.07634928,-1.0371101,1.0409015,-1.4919554,-5.1425657,-4.4323096,6.9510636,-48,374,1505,1551.0,-0.013453187,-0.054536548,-0.043636348,0.071129136,0.05617137462050889,0.0014343096138519362,3.704560830511808,2.6589054697591665,-93.85599534063861,266.14400465936137,60.30592142426294,23.36985764632801,-54.72117017117626,-85.26819503343164,36.41461011696949,38.19719680743223,-72.69384209699125,-67.41847109756613,35.17,NONE,0.0,0.0,0.0,NONE,-8.3835453421981E-9,-2.1417351805489602E-10,-4.234314E-4,2,53.79,59.03,41.0,34.1,16.773,16.773,5.961,8.702147,0,3552,4.205,12.0,7.232,99,23.5,OK,30,0,0,0,0,0,65,100,0.0,0,0.0,1.4596965E-37,9.0E-44,0.0,3.041665E-35,64,10.911133,-8.945057E-4,1.745062E-19,False,False,0,None,-4.8640324E-30,4.6710484E-16,
134858042,15.214,13.992362667356028,66.38585610162487,16,51.464226,48.901287,0.048249006,-0.07044466,-1.0134913,1.0170816,-2.8332918,0.31952506,-1.0877528,3.0516956,-82,377,1505,1553.0,0.045156557,-0.13332382,-0.8862798,0.89738864,0.14076347288581922,0.017088759427929756,4.707757453605319,2.945197534757946,-94.73699126045389,265.2630087395461,46.17757185595578,6.50146225474113,-8.071327825111734,-90.73481418434206,36.584954651886676,39.07949865929548,-57.02661448267547,-51.75124348325035,35.41,23.753198769042967,,13.9923616,66.3858562,20190521,153401,2019-05-21T15:34:01Z,90.18,0.67,1.43,9.9,9,7,16,0.03,-0.18,-0.57,0,0,0,0,5,5,13.993096683579926,66.38570845882772,50,1850380,114,93,151,3296,3564,4293,4298,-17,17160,28,3567,5,0,false,false,false,false,false,false,false,false,false,false,5720,6242,4740,4345,50,63,63,50,1537,1611,1447,1398,1540,1592,1431,1403,0.0,0.0,0.0,0.0,1661.3,1655.2,1655.8,1660.7,4.5,4.8,3.12,2.1,0,0,0,0,162.32110995282866,13.99236274887276,66.38585578572356,0,51.56946,45.557095,0.047676813,-0.06829484,-1.0134856,1.0169023,7.9316382,0.57910794,6.08454,10.013385,-79,377,1508,1556.0,0.02563064,-0.04757373,-0.2485679,0.25437412,0.05403877688033644,0.10321702725663433,4.229997542630484,3.419590127524741,-93.72885559487392,266.27114440512605,53.190006214695515,17.0350188806573,-56.96555328598537,-87.2960988789625,36.565959410390896,38.36418199876884,-34.84700490925117,-29.571633909826044,35.42,NONE,0.0,0.0,0.0,NONE,-8.041360229429747E-9,5.225833969297332E-10,-0.0011711121,2,52.34,59.02,40.92,35.33,16.743,16.743,5.972,8.484741,0,3550,4.184,12.0,7.814,99,23.5,OK,31,0,0,0,0,0,65,100,0.0,0,0.0,1.6186867E-37,9.0E-44,0.0,3.041665E-35,64,8.868408,-8.3217415E-4,1.840287E-19,False,False,0,None,-5.1108403E-30,4.3034867E-16,
138755770,16.227,13.992360403477106,66.38585792827004,16,52.44444,50.136032,0.060707983,-0.01975546,-0.9604457,0.9625652,3.651477,6.748803,-7.167131,10.499876,-174,229,1532,1558.0,0.0607887,-0.11119591,-1.051264,1.0588748,0.12672724803506086,0.09712938260486553,0.4745278437965821,3.486766110767622,-111.70665249670999,248.29334750329002,29.77201843996044,3.322995998586232,-6.661484233018761,-110.3883158680241,36.7664663049491,39.30945684323336,-22.41122639263208,-17.135855393206956,35.73,24.73341193432617,,13.9923599,66.3858574,20190521,153402,2019-05-21T15:34:02Z,90.934,0.67,1.43,9.73,9,7,16,0.12,-0.13,-0.86,0,0,-6105,0,5,5,13.993096683579926,66.38570845882772,50,1876980,114,89,152,3152,3565,4254,4259,-15,17003,24,3564,4,0,false,false,false,false,false,false,false,false,false,false,5699,5993,4142,3897,49,65,64,50,1549,1575,1399,1361,1541,1558,1404,1362,0.0,0.0,0.0,0.0,1666.8,1659.4,1661.3,1665.6,4.61,4.4,2.59,1.78,0,0,0,0,171.60657152050518,13.992360296793734,66.38585742592748,0,52.311207,45.67834,0.046772785,-0.03171328,-0.99454004,0.99614424,9.244825,8.034738,-17.539557,21.392986,-136,263,1538,1566.0,0.08171578,-0.05586183,-0.3331968,0.34758902,0.0989849113443803,0.1108715772653127,0.8628309064271618,2.8168081606884803,-107.40562270115026,252.59437729884974,37.91963912856962,13.119488022356082,-57.7678688403626,-104.06222381974914,36.74549148655763,38.59743649029706,-10.101885374756137,-4.826514375331013,35.7,NONE,0.0,0.0,0.0,NONE,-9.495649260651225E-9,3.4610440552736994E-9,-0.0016517639,2,52.53,54.19,38.06,28.12,16.75,16.75,5.98,8.275861,0,3548,4.176,12.0,7.621,99,23.6,OK,32,0,0,0,0,0,65,100,0.0,0,0.0,2.114455E-37,9.0E-44,0.0,3.041665E-35,64,10.752441,-8.896777E-4,1.8043874E-19,False,False,0,None,-5.017818E-30,4.632017E-16,
142651271,17.239,13.992360203043749,66.38585879501913,16,53.770443,51.4463,0.058835436,-0.02213248,-0.88993645,0.89215374,-3.3134875,-0.525151,-2.0141191,3.9130116,-211,223,1535,1565.0,0.01984625,0.05822537,-0.7616806,0.7641606,0.06151477434836089,0.03408823651440619,0.6728889032991606,4.14694484894134,-112.56195491457653,247.43804508542348,29.5118898673806,4.240855710483971,-4.773411578305366,-115.84130783620692,36.8180880467385,39.42461062754106,42.09251486302886,47.36788586245398,36.05,26.059415962646483,,13.9923585,66.3858585,20190521,153403,2019-05-21T15:34:03Z,92.222,0.67,1.43,9.54,9,7,16,0.02,0.0,-1.02,0,0,0,0,5,5,13.993096683579926,66.38570845882772,50,1887780,114,87,153,3097,3562,4239,4243,-15,16942,22,3565,3,0,false,false,false,false,false,false,false,false,false,false,5559,5637,3946,3686,49,64,64,49,1536,1528,1366,1355,1520,1521,1367,1342,0.0,0.0,0.0,0.0,1669.9,1665.6,1665.6,1671.1,4.5,3.48,2.4,2.1,0,0,0,0,174.5824284734301,13.992358993164455,66.38585830485842,0,53.5229,46.249897,0.057724807,-0.01928752,-0.9354289,0.9374068,16.132624,-2.7360358,12.775504,20.759598,-217,213,1520,1550.0,-0.007240081,0.031460453,-0.19429867,0.19696231,0.03228279467447844,0.08000317157229966,0.103232136433311,4.691745516147738,-111.56070336329657,248.43929663670343,35.70531963663124,16.748439041368368,-55.93349488950136,-113.61204003210256,36.841430029209725,38.720993988462084,7.191646915048868,12.467017914473992,35.99,NONE,0.0,0.0,0.0,NONE,1.4542885617904398E-9,1.8847268245198344E-10,-0.0012016296,2,48.26,51.31,33.07,27.18,16.789,16.789,5.995,8.083422,0,3546,4.179,12.0,7.136,99,23.6,OK,33,0,0,0,0,0,65,100,0.0,0,0.0,2.4982125E-37,9.0E-44,0.0,3.041665E-35,64,20.118164,-0.0012487251,1.5685085E-19,False,False,0,None,-4.406335E-30,6.438027E-16,
146539279,18.249,13.992362008398224,66.38585900867099,18,54.886696,51.920414,0.04589851,0.012700715,-1.0123438,1.0134633,-0.97228086,-3.6900392,2.6332326,4.636338,-234,161,1532,1558.0,0.05075767,0.10922627,-0.4536919,0.46940714,0.1204438419976021,-0.037463259690763084,0.1598260292589558,3.0679527648833274,-123.59972018379943,236.40027981620057,17.85659288578306,1.8329837937229747,-6.291941530717859,-134.056581829176,36.75727178332741,39.51663007218786,61.725556504744134,67.00092750416925,36.31,27.175668861816405,,13.9923602,66.3858585,20190521,153404,2019-05-21T15:34:04Z,92.809,0.6,1.25,9.41,9,9,18,0.02,0.06,-0.68,0,0,0,0,5,5,13.993096683579926,66.38570845882772,50,1903780,114,85,154,3021,3564,4216,4220,-15,16854,25,3562,5,0,false,false,false,false,false,false,false,false,false,false,5999,6077,3900,4098,52,63,63,50,1573,1566,1379,1415,1565,1569,1371,1406,0.0,0.0,0.0,0.0,1660.7,1655.8,1655.2,1660.7,4.9,4.24,2.43,2.83,0,0,0,0,-178.31448992792406,13.992360771999657,66.38585851346274,0,54.194626,46.37102,0.044094637,-0.0036427192,-1.0390917,1.0400332,-11.720156,-3.3142781,-13.715604,18.342962,-234,152,1535,1560.0,7.4602733E-4,0.06746902,0.21089047,0.22142136,0.06747314714275164,0.014229240548656555,-0.49784489596477627,3.461989787697839,-122.39986173745262,237.60013826254738,26.854928948097644,22.049937004552614,-57.69188217921378,-130.45117074026413,36.781297405052776,38.808198840689556,74.89089243305558,80.1662634324807,36.27,NONE,0.0,0.0,0.0,NONE,1.5740534821814588E-8,1.542049182797086E-9,0.0019111633,2,56.98,57.43,31.22,35.31,16.822,16.822,5.966,7.8794312,0,3544,4.188,12.0,6.429,99,23.7,OK,34,0,0,0,0,0,65,100,0.0,0,0.0,2.8590686E-37,9.0E-44,0.0,3.041665E-35,64,20.643066,-0.0012647588,1.5479614E-19,False,False,0,None,-4.353083E-30,6.5029435E-16,
150437805,19.263,13.992363826413449,66.38585808466581,18,55.458416,52.926563,0.037542697,-0.020090038,-1.0183189,1.0192087,20.269127,-0.62536144,10.301376,22.745262,-225,127,1544,1565.0,-0.1878685,0.1779064,-0.9340652,0.9692384,0.2587378109258557,-0.12962326780944078,-0.5782574932945603,2.4667228421649345,-123.82301355920795,236.17698644079206,18.328781868527457,2.3203975591282244,-5.59811540587915,-138.00914791238094,36.638427407720165,39.67668290113044,129.8363347030883,135.11170570251343,36.69,27.74738898510742,,13.9923616,66.3858581,20190521,153405,2019-05-21T15:34:05Z,93.479,0.6,1.25,9.27,9,9,18,-0.13,0.08,-0.78,0,0,0,0,5,5,13.993096683579926,66.38570845882772,50,1921205,114,83,155,2948,3568,4191,4195,-16,16755,30,3564,5,0,false,false,false,false,false,false,false,false,false,false,5866,6009,4356,4362,50,65,65,50,1566,1573,1407,1421,1551,1574,1409,1393,0.0,0.0,0.0,0.0,1661.3,1655.8,1655.2,1660.7,5.12,4.24,2.66,2.7,0,0,0,0,177.5151726330168,13.992362708580961,66.38585760139495,0,55.464,46.043587,0.0375124,-0.023853574,-1.0280607,1.0290213,19.574512,2.885147,10.821924,22.552155,-225,130,1547,1568.0,-0.11466211,0.12584178,-0.05615237,0.17926696,0.17024556384489806,-0.03884194019577933,-0.32123436775982134,2.711265260839947,-122.86493465559859,237.13506534440143,25.260457465392204,22.36895969766869,-57.92709125089249,-137.55144551869938,36.658454034370386,38.95981839310935,136.08555205537903,141.36092305480415,36.66,NONE,0.0,0.0,0.0,NONE,9.41010254258325E-9,-8.823948465448162E-10,1.0681152E-4,2,53.38,55.98,36.73,35.55,16.761,16.761,5.963,7.660199,0,3542,4.204,12.0,7.122,99,23.7,OK,35,0,0,0,0,0,65,100,0.0,0,0.0,2.6731017E-37,9.0E-44,0.0,3.041665E-35,64,14.674561,-0.0010421652,1.6586712E-19,False,False,0,None,-4.640143E-30,5.6014294E-16,
154286760,20.263,13.992366094313013,66.38585583345271,18,56.44429,54.112267,0.04874305,-0.039220918,-0.9273787,0.9294867,12.142878,-4.2034335,10.383267,16.52061,-259,272,1526,1571.0,-0.17335406,0.16245417,-0.8249424,0.8584713,0.23757733666973793,0.03227204902368638,4.301350350040196,3.647468708591843,-124.11948273368058,235.88051726631943,23.629925895250764,13.385258544806916,-1.9594218489368125,-135.64860842128311,36.43518572285005,39.969837160705794,165.60216046998582,170.87753146941094,36.93,28.73326316113281,,13.992365,66.3858558,20190521,153406,2019-05-21T15:34:06Z,94.329,0.6,1.25,9.18,9,9,18,-0.27,0.19,-0.88,0,0,0,0,5,5,13.993096683579926,66.38570845882772,50,1922380,114,83,156,2937,3573,4190,4194,-16,16750,31,3568,4,0,false,false,false,false,false,false,false,false,false,false,5699,5884,4242,3841,50,64,64,50,1549,1565,1399,1376,1536,1551,1402,1363,0.0,0.0,0.0,0.0,1663.7,1658.2,1658.8,1663.7,4.69,4.24,2.93,2.08,0,0,0,0,170.49520895549136,13.992365749470316,66.38585514624637,0,56.193165,46.47419,0.04657935,-0.043032076,-0.9346972,0.93684596,2.4843507,-3.2482247,6.077777,7.325458,-257,272,1523,1568.0,-0.13814613,0.114737436,-0.06873589,0.19228534,0.1795801588457932,0.1250743898259737,4.4389013072366765,3.822610168510182,-123.20985150597954,236.79014849402046,30.97838989136303,34.11070705973366,-55.89820055239094,-135.09037999001364,36.41461405387094,39.30566461641528,143.99468549345266,149.27005649287779,36.96,NONE,0.0,0.0,0.0,NONE,1.4029605142736404E-8,-7.795915203201657E-9,-5.950928E-4,2,51.69,53.63,34.72,30.31,16.747,16.747,5.984,7.4702735,0,3540,4.178,12.0,7.512,99,23.7,OK,36,0,0,0,0,0,65,100,0.0,0,0.0,1.6623373E-37,9.0E-44,0.0,3.041665E-35,64,22.149414,-0.0013107437,1.4795039E-19,False,False,0,None,-4.175705E-30,6.689291E-16,
158183935,21.276,13.992368446218368,66.38585458885251,18,56.825836,54.72243,0.036938082,-0.039376874,-0.9135334,0.9151274,-12.740029,-17.671131,-6.6147666,22.766914,-234,241,1517,1553.0,0.02001912,0.027194206,-0.07563424,0.082830116,0.03376817939925065,0.13759965983576614,3.0641068091519394,2.3474187650898775,-124.18947744712491,235.81052255287509,24.23223441830682,12.413270075828775,-4.246474692756307,-137.01935639402785,36.279457621023184,40.15900159189629,-172.13407866930552,-166.8587076698804,37.26,29.114809181640624,,13.9923669,66.3858545,20190521,153407,2019-05-21T15:34:07Z,94.989,0.6,1.25,9.09,9,9,18,0.04,0.01,-0.57,0,0,0,0,5,5,13.993096683579926,66.38570845882772,50,1939780,114,80,157,2852,3570,4166,4170,-14,16655,29,3573,3,0,false,false,false,false,false,false,false,false,false,false,5755,5905,3913,3178,52,65,64,52,1558,1559,1377,1291,1555,1571,1339,1271,0.0,0.0,0.0,0.0,1666.2,1661.3,1660.7,1666.8,4.89,4.22,2.61,1.14,0,0,0,0,169.03774940458032,13.992367171323579,66.38585420601918,0,56.661793,47.200302,0.036999572,-0.03132494,-0.90844345,0.9097361,-5.4075503,-14.745101,-7.9633656,17.60894,-231,241,1517,1553.0,0.022598928,-0.0038254932,0.29231805,0.29321525,0.022920425593981126,0.09776257481996928,3.1293882265689588,2.4112471119872736,-123.20422352243214,236.79577647756787,31.347388681239977,33.910089412644986,-57.09967665891449,-136.53441941753866,36.311219757102194,39.470034237668685,-137.24272678189072,-131.9673557824656,37.27,NONE,0.0,0.0,0.0,NONE,3.6784935168406566E-9,-1.7305216696760433E-9,7.7056885E-4,2,53.59,55.98,29.09,15.81,16.783,16.783,5.994,7.3303266,0,3538,4.177,12.0,6.832,99,23.7,OK,37,0,0,0,0,0,65,100,0.0,0,0.0,1.3836165E-37,9.0E-44,0.0,-3.3654391E38,63,48.29004,-0.0018599111,1.143437E-19,False,False,0,None,-3.304607E-30,8.945008E-16,
162033514,22.276,13.992366801604087,66.38585541231105,18,55.963562,54.28041,0.058576874,-0.019723568,-0.8812853,0.8834501,-2.0039365,7.978724,-6.5400352,10.509418,-168,180,1535,1554.0,0.09996474,-0.015823252,1.1782278,1.1825666,0.10120930605228279,0.015994851134618973,0.6062365659720141,0.580173521942925,-123.7968572971859,236.2031427028141,28.157606426141893,13.059495845130144,-3.954075267999169,-132.94976890657776,36.38599659643783,40.292985427491814,-53.226248610257244,-47.95087761083212,37.55,28.25253501171875,,13.9923658,66.3858552,20190521,153408,2019-05-21T15:34:08Z,94.607,0.65,1.4,8.96,9,8,17,0.19,0.0,0.27,0,0,0,0,5,5,13.993096683579926,66.38570845882772,50,1949987,114,79,158,2802,3565,4152,4156,-16,16600,24,3570,4,0,false,false,false,false,false,false,false,false,false,false,5634,5962,3227,2918,52,68,68,52,1535,1562,1315,1292,1504,1539,1334,1299,0.0,0.0,0.0,0.0,1671.1,1666.8,1666.2,1671.1,4.68,3.63,1.75,1.52,0,0,0,0,173.33468678750558,13.992366462064961,66.38585489744614,0,55.665314,48.296177,0.054828733,-0.029226232,-0.89286196,0.89502114,-0.88095313,8.936604,-4.8432913,10.202766,-168,176,1538,1557.0,0.089423224,-0.07161529,0.9067114,0.9139206,0.11456554086856433,-0.031485353906117314,0.7967980426108237,1.01211843305139,-122.78288203848697,237.21711796151303,34.892907314977506,34.74998363222909,-56.20057539911147,-132.31934165758733,36.3738455581059,39.60710030775813,-68.16104705504802,-62.88567605562289,37.56,NONE,0.0,0.0,0.0,NONE,-2.4808440665449845E-9,6.082525542476364E-9,0.00440979,2,51.06,55.8,24.86,18.56,16.833,16.833,6.024,7.1978273,0,3537,4.194,12.0,6.017,99,23.8,OK,38,0,0,0,0,0,65,100,0.0,0,0.0,1.492499E-37,9.0E-44,0.0,-3.3654391E38,63,137.63281,-0.0032961525,9.055355E-20,False,False,0,None,-2.690139E-30,1.5139326E-15,
165946280,23.293,13.992363827867724,66.38585508074682,18,54.651543,52.954754,0.06341061,-0.016859502,-0.9421658,0.9444477,4.8258524,-4.445788,2.8703353,7.1618924,-251,164,1535,1564.0,-0.04999166,-0.018156787,1.5555595,1.5564685,0.05318679169893154,0.08201812768306874,0.6861650446467518,3.666208043732106,-123.85206903030706,236.14793096969294,29.1956968110241,15.73279596931392,1.2240404960776945,-136.27113561507792,36.48790495499435,40.45179594099568,-162.0877409386218,-156.81236993919669,37.83,26.940515663574217,,13.9923628,66.3858544,20190521,153409,2019-05-21T15:34:09Z,93.197,0.6,1.25,8.83,9,9,18,-0.07,-0.12,1.07,0,0,0,0,5,5,13.993096683579926,66.38570845882772,50,1957680,114,78,159,2752,3562,4142,4146,-15,16558,23,3565,5,0,false,false,false,false,false,false,false,false,false,false,5885,6289,3346,2975,51,67,66,51,1559,1578,1314,1298,1544,1563,1311,1281,0.0,0.0,0.0,0.0,1669.9,1663.7,1664.4,1670.5,4.54,4.31,2.02,1.38,0,0,0,0,172.457300857376,13.992363638375885,66.38585421115933,0,54.543205,48.165195,0.05984105,-0.010728297,-0.94192505,0.94388497,1.3233457,2.9593246,-0.021463683,3.241806,-251,167,1532,1561.0,-0.02906914,-0.052083146,0.92187935,0.9238069,0.059646198527965474,0.085020332051347,0.9938853668783016,4.0076789821480485,-122.85315525725153,237.14684474274847,36.363932515435835,36.65203469474593,-52.841047216943245,-135.55103307527276,36.45236326461434,39.80661632727209,-149.86304527311674,-144.58767427369162,37.86,NONE,0.0,0.0,0.0,NONE,-9.752283576244655E-9,8.823945573377807E-10,0.0048103333,2,51.71,54.15,23.81,26.16,16.811,16.811,5.998,7.028391,1810,3535,4.201,12.0,5.72,99,23.8,OK,39,0,0,0,0,0,65,100,0.0,0,2.2530612E-14,1.1185634E-37,3.3887803E-18,3.9323502E-16,-3.365452E38,63,125.7832,-0.003188864,9.283326E-20,False,False,0,None,-2.7492168E-30,1.4704832E-15,
169859789,24.310,13.992361394095225,66.38585277802278,18,53.080048,51.299786,0.08631272,-0.026998907,-1.4619164,1.4647111,10.856681,8.65659,1.5421025,13.970761,-262,186,1526,1559.0,-0.03464519,-0.015414851,0.7323614,0.7333424,0.03791974100555581,0.23545825480189245,1.650254442188408,4.17707448017495,-124.0899383971399,235.91006160286008,28.82362831096873,12.900845071770275,-1.525532958189653,-136.53734554767303,36.471534451948585,40.741000956090346,-164.97462349497738,-159.69925249555226,38.24,25.369020607421874,,13.9923604,66.3858529,20190521,153410,2019-05-21T15:34:10Z,91.572,0.6,1.25,8.7,9,9,18,-0.12,-0.05,1.39,0,0,0,9998,5,5,13.993096683579926,66.38570845882772,50,1975580,114,75,160,2663,3565,4118,4122,-16,16464,22,3562,1,0,false,false,false,false,false,false,false,false,false,false,7109,7275,4562,4262,51,67,67,51,1710,1714,1463,1431,1695,1709,1475,1414,0.0,0.0,0.0,0.0,1628.8,1621.4,1620.8,1627.6,7.85,6.34,4.48,3.93,0,0,0,0,175.20906892151777,13.992361203063835,66.38585259595365,0,52.77238,47.27393,0.08894678,-0.021981128,-1.4195393,1.4224931,-1.5619221,0.05508302,0.08097528,1.5649893,-271,176,1529,1562.0,-0.015682643,-0.021480232,0.4397563,0.4405598,0.02659597084959511,0.17969383661737612,1.4677934615001365,4.28894832099908,-123.04953923008085,236.95046076991915,34.233462813853386,35.61834969159261,-52.53830277059452,-138.68233485704624,36.470274221164544,40.03236296849634,-170.67321146986333,-165.3978404704382,38.14,NONE,0.0,0.0,0.0,NONE,-3.764039455521426E-9,-1.3107415933630345E-9,0.0041923523,2,72.99,72.89,42.73,40.52,16.771,16.771,5.89,6.834438,1860,3533,4.194,12.0,6.41,99,23.8,OK,40,0,0,0,0,0,65,100,0.0,0,7.717616E-12,6.882245E-38,3.3887803E-18,1.3469866E-13,-3.365452E38,63,50.38379,-0.0018918592,1.1538264E-19,False,False,0,None,-3.33157E-30,9.20359E-16,
173719003,25.313,13.992361044641424,66.3858524522949,18,52.31703,50.767857,0.07457006,-0.019851226,-0.99607104,0.9990557,15.226117,3.9383664,6.6804204,17.087229,-311,207,1511,1556.0,-0.062242076,-0.01798762,0.61374384,0.61715406,0.06478912382193101,-0.025484450649892305,2.084084591410174,5.3866599386928975,-123.95845187414082,236.04154812585918,26.436950154052344,11.810824028574949,-0.2674102154072802,-137.7367270257865,36.4695969962368,40.81885014893528,130.69781747987815,135.97318847930327,38.48,24.60600486035156,,13.9923605,66.3858523,20190521,153411,2019-05-21T15:34:11Z,91.035,0.6,1.25,8.59,9,9,18,-0.02,0.01,0.74,0,0,0,0,5,5,13.993096683579926,66.38570845882772,50,1993580,114,73,161,2572,3566,4094,4097,-16,16370,25,3565,2,0,false,false,false,false,false,false,false,false,false,false,5921,6258,3617,3239,52,66,66,52,1573,1587,1355,1346,1566,1573,1350,1319,0.0,0.0,0.0,0.0,1662.5,1657.6,1658.2,1661.9,4.97,4.25,2.64,2.18,0,0,0,0,172.34966465778777,13.992360775678037,66.38585193800621,0,52.144962,47.06466,0.071610905,-0.020612149,-1.015672,1.018402,1.8843442,-6.618682,-2.6089084,7.359627,-305,201,1511,1554.0,-0.022510465,-0.009828032,0.09769345,0.10073391,0.024562394620581973,0.05080861354725072,2.2665597418042305,5.871993175789841,-122.97889659235368,237.0211034076463,32.93419118897543,33.47134370867375,-51.04399669144233,-136.39398838716116,36.455298500865766,40.132417165409144,147.57607290857274,152.85144390799786,38.44,NONE,0.0,0.0,0.0,NONE,1.0265562325284014E-9,-1.2850408424907657E-10,3.8909912E-4,2,53.04,58.8,29.3,21.84,16.572,16.572,5.975,6.694505,1898,3531,4.193,12.0,8.024,99,23.9,OK,41,0,0,0,0,0,65,100,0.0,0,7.283852E-10,5.764865E-38,3.3887803E-18,1.2712774E-11,-3.365452E38,63,42.42285,-0.001770385,1.2296623E-19,False,False,0,None,-3.5280148E-30,8.550866E-16,
177616670,26.326,13.99236334898342,66.3858532808863,18,51.522633,50.379818,0.086813524,-0.015358535,-0.99592716,0.99982166,4.5837607,-1.0966128,0.73814493,4.770564,-282,189,1514,1551.0,0.12966335,0.04310212,0.23938888,0.27564,0.13663958573641363,-4.808742932090604E-4,1.089835905794553,4.477851744793506,-123.90745245548892,236.0925475445111,30.37004472205869,15.62811245578955,-0.27093576971924127,-135.4448962972843,36.418052028264626,40.97067576333926,-10.297239690240563,-5.021868690815438,38.74,23.81160559887695,,13.9923623,66.3858531,20190521,153412,2019-05-21T15:34:12Z,90.621,0.6,1.25,8.51,9,9,18,0.09,0.05,0.44,0,0,0,0,5,5,13.993096683579926,66.38570845882772,50,2011680,114,70,162,2481,3571,4072,4075,-14,16281,29,3566,4,0,false,false,false,false,false,false,false,false,false,false,5791,5897,3799,3694,51,66,66,51,1563,1570,1375,1358,1562,1557,1353,1349,0.0,0.0,0.0,0.0,1661.9,1658.2,1659.4,1662.5,4.66,4.08,2.82,2.22,0,0,0,0,177.12056496273814,13.992363057692458,66.3858528522757,0,51.29777,46.708626,0.08640221,-0.016129648,-0.99919266,1.003051,-3.672618,-0.55952555,4.0464926,5.493204,-282,186,1514,1551.0,0.14086059,0.04193356,-0.10266593,0.1792775,0.14696981737810594,-0.0050526845426786815,1.2742118430307547,4.87290556173162,-122.9339401837311,237.0660598162689,36.888020879558496,35.95701022201054,-50.94185477499406,-134.95607268024892,36.408647699484554,40.29579636852727,33.67901886824649,38.95438986767161,38.78,NONE,0.0,0.0,0.0,NONE,5.132781528956872E-9,5.191565231355313E-9,-3.3950806E-4,2,52.55,53.79,29.74,29.47,16.726,16.726,5.98,6.647917,1911,3529,4.115,12.0,6.469,99,23.9,OK,42,0,0,0,0,0,65,100,0.0,0,2.2197646E-7,7.7475074E-38,3.3887803E-18,3.874248E-9,-3.365452E38,63,29.729004,-0.0015420396,1.3420596E-19,False,False,0,None,-3.819408E-30,7.625906E-16,
181541792,27.346,13.992364698123176,66.38585460689566,18,52.242897,50.321465,0.07904434,-0.023797829,-0.9884302,0.9918713,-7.5098987,-0.12751366,-6.8819294,10.18704,-288,167,1523,1558.0,0.04309848,0.032129124,-0.14958517,0.1589512,0.05375648431352669,0.10232410098100342,0.5180065648096237,4.758237855014676,-123.8681209800071,236.13187901999288,29.684546748761935,13.86539156337265,0.5341893643095348,-136.33789032435322,36.42969619388015,41.13090340339722,25.330294551100636,30.60566555052576,39.09,24.531870033691405,,13.9923637,66.3858545,20190521,153413,2019-05-21T15:34:13Z,90.732,0.6,1.25,8.42,9,9,18,0.05,0.0,0.08,0,0,0,0,5,5,13.993096683579926,66.38570845882772,50,2029378,114,68,163,2393,3565,4055,4058,-15,16219,30,3571,5,0,false,false,false,false,false,false,false,false,false,false,5945,6037,4264,4137,52,67,67,51,1575,1591,1409,1398,1571,1569,1398,1402,0.0,0.0,0.0,0.0,1655.8,1652.7,1652.7,1657.0,5.11,4.51,3.0,2.3,0,0,0,0,176.500372090911,13.99236450016229,66.38585436735984,0,52.652428,46.48555,0.07747355,-0.022130273,-0.99580604,0.99906033,-1.0879966,-2.2625084,-4.3836074,5.0516033,-288,170,1526,1562.0,0.053451996,0.0021597997,-0.24092269,0.24679044,0.053495612718551036,0.12325360041887291,0.8309247907817586,5.105259789684613,-122.90936212971168,237.09063787028833,36.20456718056929,36.95922997843404,-51.461615106884885,-135.57691756104006,36.425716872608476,40.476966761585054,18.216315073250676,23.4916860726758,39.09,NONE,0.0,0.0,0.0,NONE,1.710927370901425E-10,2.347341476017164E-9,-0.0012283325,2,55.98,56.31,34.27,34.06,16.75,16.75,5.967,6.644031,1909,3525,4.184,12.0,6.924,99,23.9,OK,43,0,0,0,0,0,65,100,0.0,0,0.001335142,1.1806385E-37,3.3887803E-18,2.3302737E-5,-3.365452E38,63,24.13086,-0.0013711829,1.437053E-19,False,False,0,None,-4.065638E-30,6.9340494E-16,
185390723,28.347,13.992366625465683,66.38585552537717,18,52.874893,50.685802,0.085706644,-0.019523738,-1.0045979,1.0084362,2.1941593,0.5404757,4.65144,5.1713,-282,183,1505,1542.0,-0.007188134,0.021560421,-0.3580855,0.358806,0.022727099373614182,0.11064851906594982,1.1368121248305414,4.5501281111308876,-123.87441695683945,236.12558304316053,26.25644823513102,12.20025175167609,-0.6271791959739345,-136.52021836948526,36.39865336176665,41.26715832642796,62.933521803835205,68.20889280326033,39.34,25.16386618847656,,13.9923654,66.3858551,20190521,153414,2019-05-21T15:34:14Z,91.154,0.6,1.25,8.37,9,9,18,-0.01,0.02,-0.25,0,0,0,0,5,5,13.993096683579926,66.38570845882772,50,2052404,114,65,164,2292,3561,4019,4023,-14,16073,25,3565,1,0,false,false,false,false,false,false,false,false,false,false,5970,6049,4207,4073,53,67,68,53,1574,1593,1402,1388,1564,1574,1398,1384,0.0,0.0,0.0,0.0,1657.0,1652.7,1650.8,1657.6,5.14,4.62,2.68,2.15,0,0,0,0,176.7395493445295,13.992366143065485,66.3858548997763,0,52.63447,46.495937,0.08358308,-0.021392161,-1.0202457,1.0238872,2.4958553,1.8933338,4.3911433,5.3940845,-285,183,1505,1542.0,0.010746954,-0.011348626,-0.27574062,0.27618325,0.015629725747420137,0.07846726856111537,1.2788282324957303,4.855280433779869,-122.96423182795195,237.03576817204805,33.76197393050456,36.57542917660368,-51.83725868623172,-136.29610904030025,36.38666769072723,40.613002565145074,-155.54651369360363,-150.2711426941785,39.34,NONE,0.0,0.0,0.0,NONE,1.7109274057147745E-9,9.423633629769782E-11,-0.0016174316,2,55.52,56.28,34.27,32.54,16.723,16.723,5.959,6.6631656,1903,3523,4.178,12.0,7.336,99,24.0,OK,44,0,0,0,0,0,65,100,0.0,0,0.0512452,1.6048324E-37,3.3887803E-18,8.9440116E-4,-3.365452E38,63,24.416016,-0.0013799149,1.4276562E-19,False,False,0,None,-4.041275E-30,6.9694215E-16,
189369192,29.381,13.992367446532413,66.38585593087275,18,53.737972,50.795647,0.086982995,-0.01981238,-0.99445933,0.9984528,10.267782,-1.7083623,5.8347197,11.93272,-297,161,1523,1560.0,-0.022436434,0.058068607,-0.3503278,0.35581586,0.06225236247096284,-0.0061043878511053765,0.3687253025418987,5.0497389914157536,-123.73003708661838,236.26996291338162,25.986485500407486,11.50706170034509,0.4650261026449167,-136.92343633081558,36.386281599644036,41.34563436635741,45.28401835604446,50.559389355469584,39.7,26.026945259521483,,13.9923663,66.3858555,20190521,153415,2019-05-21T15:34:15Z,91.796,0.6,1.25,8.32,9,9,18,0.01,0.01,-0.54,0,0,0,0,5,5,13.993096683579926,66.38570845882772,50,2053978,114,64,165,2280,3565,4016,4020,-14,16061,24,3561,5,0,false,false,false,false,false,false,false,false,false,false,6028,6184,4458,4368,52,66,67,52,1590,1600,1421,1419,1581,1584,1406,1413,0.0,0.0,0.0,0.0,1653.9,1648.4,1647.2,1653.3,5.22,4.75,3.01,2.5,0,0,0,0,175.84464232662393,13.992367161400301,66.3858553446218,0,53.91479,46.664814,0.08516774,-0.020911861,-0.9947254,0.99858373,5.764303,1.1766615,1.3707626,6.0407543,-294,161,1520,1556.0,0.007252263,0.008678941,-0.21065544,0.21095884,0.011310143164908224,0.05359684320848278,0.7651877367561738,5.116596111259481,-122.85069635576289,237.1493036442371,33.48663856788807,36.76353587879092,-51.687302486220766,-138.15320358673844,36.368297397056566,40.7108064492648,139.73005264503539,145.0054236444605,39.69,NONE,0.0,0.0,0.0,NONE,8.554636972583592E-10,2.570081842005287E-10,-0.0010681152,2,57.12,57.94,36.2,36.58,16.717,16.717,5.953,6.7185426,1886,3521,4.171,12.0,7.203,98,24.0,OK,45,0,0,0,0,0,65,100,0.0,0,10.687443,1.7916889E-37,3.3887803E-18,0.186532,-3.365452E38,63,28.111328,-0.0014926869,1.364989E-19,False,False,0,None,-3.878823E-30,7.426006E-16,
193226072,30.383,13.992369329647843,66.38585572666587,18,54.582146,51.15645,0.07772372,-0.0066449796,-0.9928885,0.99594814,3.3713527,5.0227494,1.8972874,6.339853,-274,164,1517,1550.0,0.0027603768,0.044238906,-0.31939423,0.32245523,0.04432494115371047,0.042365006256033635,0.2882390057188232,4.32904101684017,-123.71093350573177,236.28906649426824,25.555751337611415,10.874207529417632,-0.4361239259241426,-135.4149839040829,36.30117568751858,41.45345202959614,91.7261685791504,97.00153957857552,40.01,26.871118690917967,,13.9923683,66.3858555,20190521,153416,2019-05-21T15:34:16Z,92.547,0.6,1.25,8.27,9,9,18,0.0,0.11,-0.72,0,0,0,0,5,5,13.993096683579926,66.38570845882772,50,2065878,114,63,166,2223,3563,3997,4001,-15,15985,24,3565,2,0,false,false,false,false,false,false,false,false,false,false,5963,6100,4265,4344,54,68,69,54,1567,1581,1405,1413,1563,1570,1396,1402,0.0,0.0,0.0,0.0,1657.6,1653.3,1652.7,1657.6,4.9,4.44,2.54,2.28,0,0,0,0,179.03797252021377,13.992368662725523,66.38585534153772,0,54.79106,46.9481,0.07892165,-0.006781378,-0.9812805,0.98447245,0.44738954,1.0411365,0.99095845,1.5053642,-274,164,1517,1550.0,0.036470335,-0.013061537,-0.16224432,0.166805,0.03873872836488582,0.027974913018229235,0.48063544554502596,4.442910130633091,-122.79964405154043,237.20035594845956,33.22309636138876,36.099780753234256,-52.4811585275872,-135.8010331468007,36.30840650445159,40.81834035032086,4.141935363196526,9.41730636262165,40.01,NONE,0.0,0.0,0.0,NONE,2.2242055150196593E-9,2.4672784783654667E-9,-0.0016326904,2,55.83,57.45,33.86,34.21,16.704,16.704,5.947,6.8047056,1861,3519,4.173,12.0,7.654,98,24.0,OK,46,0,0,0,0,0,65,100,0.0,0,150.11116,1.7996384E-37,3.3887803E-18,2.619949,3.0416832E-35,64,37.86328,-0.0017008263,1.2374047E-19,False,False,0,None,-3.5481407E-30,8.269109E-16,
