Tick#,offsetTime,IMU_ATTI(0):Longitude,IMU_ATTI(0):Latitude,IMU_ATTI(0):numSats,IMU_ATTI(0):barometer:Raw,IMU_ATTI(0):barometer:Smooth,IMU_ATTI(0):accel:X,IMU_ATTI(0):accel:Y,IMU_ATTI(0):accel:Z,IMU_ATTI(0):accel:Composite,IMU_ATTI(0):gyro:X,IMU_ATTI(0):gyro:Y,IMU_ATTI(0):gyro:Z,IMU_ATTI(0):gyro:Composite,IMU_ATTI(0):mag:X,IMU_ATTI(0):mag:Y,IMU_ATTI(0):mag:Z,IMU_ATTI(0):mag:Mod,IMU_ATTI(0):velN,IMU_ATTI(0):velE,IMU_ATTI(0):velD,IMU_ATTI(0):velComposite,IMU_ATTI(0):velH,IMU_ATTI(0):GPS-H,IMU_ATTI(0):roll,IMU_ATTI(0):pitch,IMU_ATTI(0):yaw,IMU_ATTI(0):yaw360,IMU_ATTI(0):totalGyro:Z,IMU_ATTI(0):totalGyro:X,IMU_ATTI(0):totalGyro:Y,IMU_ATTI(0):magYaw,IMU_ATTI(0):distanceHP,IMU_ATTI(0):distanceTravelled,IMU_ATTI(0):directionOfTravel[mag],IMU_ATTI(0):directionOfTravel[true],IMU_ATTI(0):temperature,General:relativeHeight,General:absoluteHeight,GPS(0):Long,GPS(0):Lat,GPS(0):Date,GPS(0):Time,GPS:dateTimeStamp,GPS(0):heightMSL,GPS(0):hDOP,GPS(0):pDOP,GPS(0):sAcc,GPS(0):numGPS,GPS(0):numGLNAS,GPS(0):numSV,GPS(0):velN,GPS(0):velE,GPS(0):velD,RC:Aileron,RC:Elevator,RC:Rudder,RC:Throttle,Controller:navHealth,Controller:ctrl_level,HP:Longitude,HP:Latitude,HP:rthHeight,BatBlackBox:tick,BatBlackBox:id,BatBlackBox:rsoc,BatBlackBox:index,BatBlackBox:rm,BatBlackBox:fcc,BatBlackBox:cell_min,BatBlackBox:cell_max,BatBlackBox:current,BatBlackBox:voltage,BatBlackBox:temp,BatBlackBox:flag,BatBlackBox:reserve,BatBlackBox:user_data,OA:avoidObst,OA:emergBrake,OA:radiusLimit,OA:airportLimit,OA:groundForceLanding,OA:horizNearBoundary,OA:vertLowLimit,OA:vertAirportLimit,OA:roofLimit,OA:hitGroundLimit,Motor:Speed:RFront,Motor:Speed:LFront,Motor:Speed:LBack,Motor:Speed:RBack,Motor:EscTemp:RFront,Motor:EscTemp:LFront,Motor:EscTemp:LBack,Motor:EscTemp:RBack,Motor:PPMrecv:RFront,Motor:PPMrecv:LFront,Motor:PPMrecv:LBack,Motor:PPMrecv:RBack,Motor:PPMsend:RFront,Motor:PPMsend:LFront,Motor:PPMsend:LBack,Motor:PPMsend:RBack,Motor:V_out:RFront,Motor:V_out:LFront,Motor:V_out:LBack,Motor:V_out:RBack,Motor:Volts:RFront,Motor:Volts:LFront,Motor:Volts:LBack,Motor:Volts:RBack,Motor:Current:RFront,Motor:Current:LFront,Motor:Current:LBack,Motor:Current:RBack,Motor:Status:RFront,Motor:Status:LFront,Motor:Status:LBack,Motor:Status:RBack,Motor:thrustAngle,IMU_ATTI(1):Longitude,IMU_ATTI(1):Latitude,IMU_ATTI(1):numSats,IMU_ATTI(1):barometer:Raw,IMU_ATTI(1):barometer:Smooth,IMU_ATTI(1):accel:X,IMU_ATTI(1):accel:Y,IMU_ATTI(1):accel:Z,IMU_ATTI(1):accel:Composite,IMU_ATTI(1):gyro:X,IMU_ATTI(1):gyro:Y,IMU_ATTI(1):gyro:Z,IMU_ATTI(1):gyro:Composite,IMU_ATTI(1):mag:X,IMU_ATTI(1):mag:Y,IMU_ATTI(1):mag:Z,IMU_ATTI(1):mag:Mod,IMU_ATTI(1):velN,IMU_ATTI(1):velE,IMU_ATTI(1):velD,IMU_ATTI(1):velComposite,IMU_ATTI(1):velH,IMU_ATTI(1):GPS-H,IMU_ATTI(1):roll,IMU_ATTI(1):pitch,IMU_ATTI(1):yaw,IMU_ATTI(1):yaw360,IMU_ATTI(1):totalGyro:Z,IMU_ATTI(1):totalGyro:X,IMU_ATTI(1):totalGyro:Y,IMU_ATTI(1):magYaw,IMU_ATTI(1):distanceHP,IMU_ATTI(1):distanceTravelled,IMU_ATTI(1):directionOfTravel[mag],IMU_ATTI(1):directionOfTravel[true],IMU_ATTI(1):temperature,IMUEX(0):err,IMUEX(0):rtk_Longitude,IMUEX(0):rtk_Latitude,IMUEX(0):rtk_Alti,IMUEX(1):err,IMUEX(1):rtk_Longitude,IMUEX(1):rtk_Latitude,IMUEX(1):rtk_Alti,MotorCtrl:Status,MotorCtrl:PWM:RFront,MotorCtrl:PWM:LFront,MotorCtrl:PWM:LBack,MotorCtrl:PWM:RBack,BattInfo:Voltage,BattInfo:BatVoltage,BattInfo:AdVoltage,BattInfo:AvgCurrent,BattInfo:R_time,BattInfo:R_CAP_MAH,BattInfo:LowCellVoltage,BattInfo:LowCellVolThreshold,BattInfo:BatCurrent,BattInfo:Remaining%,BattInfo:Temp,BattInfo:status,battery_info:BatDynCnt,battery_info:Vol1Protect,battery_info:Vol2Protect,battery_info:Cap1Protect,battery_info:Cap2Protect,battery_info:Batpresent,battery_info:sopPercentage,battery_info:sopValue,battery_info:sopScale,battery_info:sopFlg,BattInfo:WindHeading:WindDir,battery_info:home_dir,BattInfo:Wind:rangeMin,BattInfo:Wind:rangeMax,battery_info:cap_speed,battery_info:against_wind,battery_info:emergency_land_cap,battery_info:intel_bat_land_cap,battery_info:intel_bat_gh_cap,BattInfo:Smart:SmartGh,BattInfo:Smart:SmartLand,BattInfo:GoHome:CntDown,BattInfo:GoHome:GhCmd,BattInfo:GoHome:CapLevel,BattInfo:GoHome:LandCapLv,Attribute|Value,ConvertDatV3,3.6.6-Tablet
57874593,.000,9.094209820625116,62.692842908423366,13,564.8672,564.4114,0.11498461,0.07274295,-0.9773609,0.98678637,0.17808498,0.15526354,-0.032664146,0.238512,328,-34,1469,1505.0,-0.049761795,-0.024336195,0.07339189,0.09195029,0.05539392079836818,-0.05539392079836818,-4.22191601041176,6.792954297651171,-2.5258562301663257,357.4741437698337,0.0645025778395751,1.076463417059509,0.08714021520604266,-8.457559288671414,0.22337252153420684,0.5686814886865952,24.77260084528104,27.27291757935716,38.67,,,9.0942099,62.6928432,20190920,181758,2019-09-20T18:17:58Z,628.049,0.83,1.54,11.66,6,7,13,-0.01,-0.01,0.01,0,0,0,0,4,4,9.094212811569303,62.69284437562973,60,,,,,,,,,,,,,,,false,false,false,false,false,false,false,false,false,false,0,0,0,0,45,59,59,45,944,945,944,945,940,940,940,940,0.0,0.0,0.0,0.0,1650.2,1644.7,1644.7,1649.6,0.0,0.0,0.0,0.0,0,0,0,0,-45.0,9.094209903311022,62.692842484282565,0,564.8725,564.87823,0.115420446,0.07259435,-0.976873,0.986343,0.24751149,-0.027620235,0.05222544,0.25446475,328,-34,1469,1505.0,0.0014371168,0.0016261091,0.0032994403,0.003949157,0.0021701464144796446,-0.0021701464144796446,-4.205436868803489,6.806205764089459,-8.02710285173999,351.97289714826,0.054145884580408594,0.3911419175710549,-0.001500554241866062,-8.40467907467701,0.2573692549899674,7012404.887948845,-79.52906416469366,-77.02874743061754,38.68,NONE,0.0,0.0,0.0,NONE,-6.017701741321842E-11,-8.019141595809816E-11,0.0,,,,,,16.601,16.601,5.932,1.5273299,0,2738,4.149,12.0,1.326,81,24.8,OK,13,0,0,0,0,0,65,100,0.0,0,0.0,1.0029297,8.8E-44,0.0,-1.3088189E-33,67,7.3897485E-14,-7.389794E-14,-2.1787014E38,False,False,0,None,3.976689E29,1.0842437E-19,Firmware Date| Oct 17 2018
58101875,.059,9.094209820625116,62.692842908423366,13,564.8672,564.4114,0.11498461,0.07274295,-0.9773609,0.98678637,0.17808498,0.15526354,-0.032664146,0.238512,328,-34,1469,1505.0,-0.049761795,-0.024336195,0.07339189,0.09195029,0.05539392079836818,-0.05539392079836818,-4.22191601041176,6.792954297651171,-2.5258562301663257,357.4741437698337,0.0645025778395751,1.076463417059509,0.08714021520604266,-8.457559288671414,0.22337252153420684,0.5686814886865952,24.77260084528104,27.27291757935716,38.67,0.4524535000000469,,9.0942099,62.6928432,20190920,181758,2019-09-20T18:17:58Z,628.049,0.83,1.54,11.66,6,7,13,-0.01,-0.01,0.01,0,0,0,0,4,4,9.094212811569303,62.69284437562973,60,,,,,,,,,,,,,,,false,false,false,false,false,false,false,false,false,false,0,0,0,0,45,59,59,45,944,945,944,945,940,940,940,940,0.0,0.0,0.0,0.0,1650.2,1644.7,1644.7,1649.6,0.0,0.0,0.0,0.0,0,0,0,0,-45.0,9.094209857768949,62.69284249475024,0,564.8349,564.87744,0.114567965,0.06876436,-0.9789639,0.9880408,-0.9515694,0.48286277,4.6946573,4.8144,328,-34,1463,1499.0,3.3927237E-4,0.0012906917,0.002709187,0.0030200472,0.001334537640872592,0.042655220735290524,-4.217685738805491,6.820532026933067,-8.004947508415997,351.995052491584,0.2909404198505708,0.35602054220929613,0.02120886342408625,-8.396293087880116,0.25777009720219446,7012404.890547301,-65.88873121504223,-63.38841448096611,38.68,NONE,0.0,0.0,0.0,NONE,-6.017701741321842E-11,-8.019141595809816E-11,0.0,,,,,,16.601,16.601,5.932,1.5273299,0,2738,4.149,12.0,1.326,81,24.8,OK,13,0,0,0,0,0,65,100,0.0,0,0.0,1.0029297,8.8E-44,0.0,-1.3088189E-33,67,7.3897485E-14,-7.389794E-14,-2.1787014E38,False,False,0,None,3.976689E29,1.0842437E-19,ACType|MavicEnterprise
58263339,.101,9.094209818534098,62.692842952076234,13,564.8349,564.41345,0.115613714,0.075471744,-0.97501254,0.98473954,0.29462373,-0.40008715,1.2733856,1.3668884,328,-37,1463,1499.0,-0.053222053,-0.025175022,0.0686727,0.09045611,0.05887587496488007,0.056822695595433625,-4.219499453739774,6.795562418716479,-2.5219379753236817,357.4780620246763,0.12642530707709707,1.1000556686753578,0.0749214004032732,-8.074585758228864,0.21992633334727055,0.5735366369561979,-3.7591951478537418,-1.2588784137776217,38.71,0.4201659023437969,,9.0942099,62.6928432,20190920,181758,2019-09-20T18:17:58Z,628.049,0.83,1.54,11.66,6,7,13,-0.01,-0.01,0.01,0,0,0,0,4,4,9.094212811569303,62.69284437562973,60,,,,,,,,,,,,,,,false,false,false,false,false,false,false,false,false,false,0,0,0,0,45,59,59,45,944,945,944,945,940,940,940,940,0.0,0.0,0.0,0.0,1650.2,1644.7,1644.7,1649.6,0.0,0.0,0.0,0.0,0,0,0,0,-45.0,9.094209857768949,62.69284249475024,0,564.8349,564.87744,0.114567965,0.06876436,-0.9789639,0.9880408,-0.9515694,0.48286277,4.6946573,4.8144,328,-34,1463,1499.0,3.3927237E-4,0.0012906917,0.002709187,0.0030200472,0.001334537640872592,-0.001334537640872592,-4.217685738805491,6.820532026933067,-8.004947508415997,351.995052491584,0.2909404198505708,0.35602054220929613,0.02120886342408625,-8.396293087880116,0.25777009720219446,7012404.890547301,-65.88873121504223,-63.38841448096611,38.68,NONE,0.0,0.0,0.0,NONE,-6.017701741321842E-11,-8.019141595809816E-11,0.0,1,0.83,0.83,0.83,0.83,16.601,16.601,5.932,1.5273299,0,2738,4.149,12.0,1.326,81,24.8,OK,13,0,0,0,0,0,65,100,0.0,0,0.0,1.0029297,8.8E-44,0.0,-1.3088189E-33,67,7.3897485E-14,-7.389794E-14,-2.1787014E38,False,False,0,None,3.976689E29,1.0842437E-19,dateTime|2019-9-20 18:17:53 GMT
58406585,.138,9.094209818534098,62.692842952076234,13,564.8349,564.41345,0.115613714,0.075471744,-0.97501254,0.98473954,0.29462373,-0.40008715,1.2733856,1.3668884,328,-37,1463,1499.0,-0.053222053,-0.025175022,0.0686727,0.09045611,0.05887587496488007,-0.05887587496488007,-4.219499453739774,6.795562418716479,-2.5219379753236817,357.4780620246763,0.12642530707709707,1.1000556686753578,0.0749214004032732,-8.074585758228864,0.21992633334727055,0.5735366369561979,-3.7591951478537418,-1.2588784137776217,38.71,0.4201659023437969,,9.0942099,62.6928432,20190920,181758,2019-09-20T18:17:58Z,628.049,0.83,1.54,11.66,6,7,13,-0.01,-0.01,0.01,0,0,0,0,4,4,9.094212811569303,62.69284437562973,60,,,,,,,,,,,,,,,false,false,false,false,false,false,false,false,false,false,0,0,0,0,45,59,59,45,944,945,944,945,940,940,940,940,0.0,0.0,0.0,0.0,1650.2,1644.7,1644.7,1649.6,0.0,0.0,0.0,0.0,0,0,0,0,-45.0,9.094209857768949,62.69284249475024,0,564.8349,564.87744,0.114567965,0.06876436,-0.9789639,0.9880408,-0.9515694,0.48286277,4.6946573,4.8144,328,-34,1463,1499.0,3.3927237E-4,0.0012906917,0.002709187,0.0030200472,0.001334537640872592,-0.001334537640872592,-4.217685738805491,6.820532026933067,-8.004947508415997,351.995052491584,0.2909404198505708,0.35602054220929613,0.02120886342408625,-8.396293087880116,0.25777009720219446,7012404.890547301,-65.88873121504223,-63.38841448096611,38.68,NONE,0.0,0.0,0.0,NONE,-6.017701741321842E-11,-8.019141595809816E-11,0.0,1,0.83,0.83,0.83,0.83,16.601,16.601,5.932,1.5273299,0,2738,4.149,12.0,1.326,81,24.8,OK,13,0,0,0,0,0,65,100,0.0,0,0.0,1.0029297,8.8E-44,0.0,-1.3088189E-33,67,7.3897485E-14,-7.389794E-14,-2.1787014E38,False,False,0,None,3.976689E29,1.0842437E-19,geoDeclination|2.50 degrees
58562343,.179,9.094209794649768,62.692842970035855,13,564.8349,564.4223,0.11643031,0.07218209,-0.976819,0.986378,0.17118406,0.105791256,-0.45233092,0.49507478,328,-43,1453,1490.0,-0.05613851,-0.025254233,0.059749916,0.08578672,0.06155736116622488,-0.003768317460465846,-4.220646355433055,6.7964026999679055,-2.529531722019974,357.47046827798005,0.16739418027237696,1.123298481337041,0.06023666412427717,-7.335774591244641,0.21934649952908317,0.575875984064736,-33.88773298330693,-31.38741624923081,38.74,0.4201659023437969,,9.0942099,62.6928432,20190920,181758,2019-09-20T18:17:58Z,628.074,0.83,1.54,11.57,6,7,13,0.02,0.01,0.01,-10000,-10000,9998,-10000,4,4,9.094212811569303,62.69284437562973,60,,,,,,,,,,,,,,,false,false,false,false,false,false,false,false,false,false,0,0,0,0,45,59,59,45,944,945,944,945,940,940,940,940,0.0,0.0,0.0,0.0,1650.2,1644.7,1644.7,1649.6,0.0,0.0,0.0,0.0,0,0,0,0,-45.0,9.094209805572971,62.69284250261496,0,564.8349,564.87683,0.11616698,0.072841555,-0.97764593,0.9872144,0.017822951,0.09871016,0.69185,0.69908357,326,-46,1456,1492.0,-6.888556E-4,0.001601591,0.005672332,0.00593422,0.001743449418919973,0.06748813746749352,-4.214709361318915,6.825734105485942,-7.954701214247026,352.04529878575295,0.559740121999914,0.30942434438864325,0.0502307547672777,-7.016904473437038,0.2586307705353037,7012404.8933498515,-74.3178933314911,-71.81757659741498,38.74,NONE,0.0,0.0,0.0,NONE,2.9413987048866746E-10,-6.578607296709468E-11,0.0,1,0.83,0.83,0.83,0.83,16.594,16.594,5.898,1.5273299,0,2738,4.149,12.0,1.326,81,24.8,OK,13,0,0,0,0,0,65,100,0.0,0,0.0,16274.0,8.8E-44,0.0,-1.3088189E-33,67,7.3897485E-14,-7.389794E-14,-2.5610102E38,False,False,0,None,4.648368E29,1.0842437E-19,geoInclination|74.35 degrees
58869849,.259,9.094209794649768,62.692842970035855,13,564.8349,564.4223,0.11643031,0.07218209,-0.976819,0.986378,0.17118406,0.105791256,-0.45233092,0.49507478,328,-43,1453,1490.0,-0.05613851,-0.025254233,0.059749916,0.08578672,0.06155736116622488,-0.06155736116622488,-4.220646355433055,6.7964026999679055,-2.529531722019974,357.47046827798005,0.16739418027237696,1.123298481337041,0.06023666412427717,-7.335774591244641,0.21934649952908317,0.575875984064736,-33.88773298330693,-31.38741624923081,38.74,0.4201659023437969,,9.0942099,62.6928432,20190920,181758,2019-09-20T18:17:58Z,628.074,0.83,1.54,11.57,6,7,13,0.02,0.01,0.01,-10000,-10000,9998,-10000,4,4,9.094212811569303,62.69284437562973,60,,,,,,,,,,,,,,,false,false,false,false,false,false,false,false,false,false,0,0,0,0,45,59,59,45,944,945,944,945,940,940,940,940,0.0,0.0,0.0,0.0,1650.2,1644.7,1644.7,1649.6,0.0,0.0,0.0,0.0,0,0,0,0,-45.0,9.09420976488614,62.69284234958953,0,564.8349,564.8757,0.115685746,0.07173845,-0.9768153,0.9862544,0.2456835,0.06164163,0.10028604,0.27242863,331,-40,1459,1496.0,4.575685E-4,0.0022744678,0.0046394407,0.005187194,0.0023200372644150776,0.21216804570450568,-4.21485532531503,6.819689322437267,-8.009674086910147,351.99032591308986,0.599263032563615,0.3225717607021919,0.05823136147466687,-7.64343156222459,0.27369313059801464,7012404.910491617,-175.5459291853384,-173.0456124512623,38.77,NONE,0.0,0.0,0.0,NONE,2.9413987048866746E-10,-6.578607296709468E-11,0.0,1,1.66,1.66,1.66,1.66,16.594,16.594,5.898,1.5273299,0,2738,4.149,12.0,1.326,81,24.8,OK,13,0,0,0,0,0,65,100,0.0,0,0.0,16274.0,8.8E-44,0.0,-1.3088189E-33,67,7.3897485E-14,-7.389794E-14,-2.5610102E38,False,False,0,None,4.648368E29,1.0842437E-19,geoIntensity|51658.86 nanoTesla
59031365,.301,9.094209759314294,62.69284297901789,13,564.8349,564.41254,0.1151629,0.073196046,-0.97719985,0.98668116,0.16873886,0.02640236,-0.24889572,0.30185917,331,-37,1466,1503.0,-0.058891818,-0.02561392,0.06685378,0.09270246,0.06422086250468935,-0.015129232383128681,-4.218851477471838,6.796325800997691,-2.531248748868086,357.4687512511319,0.13240018746278626,1.1402619833145686,0.06683364989104854,-8.044223537895542,0.21990849283215444,0.5779367174199128,-63.51004086743427,-61.00972413335815,38.79,0.4201659023437969,,9.0942099,62.6928432,20190920,181758,2019-09-20T18:17:58Z,628.074,0.83,1.54,11.57,6,7,13,0.02,0.01,0.01,-10000,-10000,9998,-10000,4,4,9.094212811569303,62.69284437562973,60,,,,,,,,,,,,,,,false,false,false,false,false,false,false,false,false,false,209,209,209,209,48,62,63,49,1143,1144,1143,1144,1138,1138,1138,1138,0.1,0.1,0.1,0.1,1624.5,1619.0,1617.7,1624.5,7.65,7.06,7.92,7.34,0,0,0,0,-45.0,9.09420976488614,62.69284234958953,0,564.8349,564.8757,0.115685746,0.07173845,-0.9768153,0.9862544,0.2456835,0.06164163,0.10028604,0.27242863,331,-40,1459,1496.0,4.575685E-4,0.0022744678,0.0046394407,0.005187194,0.0023200372644150776,-0.0023200372644150776,-4.21485532531503,6.819689322437267,-8.009674086910147,351.99032591308986,0.599263032563615,0.3225717607021919,0.05823136147466687,-7.64343156222459,0.27369313059801464,7012404.910491617,-175.5459291853384,-173.0456124512623,38.77,NONE,0.0,0.0,0.0,NONE,2.9413987048866746E-10,-6.578607296709468E-11,0.0,1,2.49,2.49,2.49,2.49,16.594,16.594,5.898,1.5273299,0,2738,4.149,12.0,1.326,81,24.8,OK,13,0,0,0,0,0,65,100,0.0,0,0.0,16274.0,8.8E-44,0.0,-1.3088189E-33,67,7.3897485E-14,-7.389794E-14,-2.5610102E38,False,False,0,None,4.648368E29,1.0842437E-19,
59174589,.338,9.094209759314294,62.69284297901789,13,564.8349,564.41254,0.1151629,0.073196046,-0.97719985,0.98668116,0.16873886,0.02640236,-0.24889572,0.30185917,331,-37,1466,1503.0,-0.058891818,-0.02561392,0.06685378,0.09270246,0.06422086250468935,-0.06422086250468935,-4.218851477471838,6.796325800997691,-2.531248748868086,357.4687512511319,0.13240018746278626,1.1402619833145686,0.06683364989104854,-8.044223537895542,0.21990849283215444,0.5779367174199128,-63.51004086743427,-61.00972413335815,38.79,0.4201659023437969,,9.0942099,62.6928432,20190920,181758,2019-09-20T18:17:58Z,628.074,0.83,1.54,11.57,6,7,13,0.02,0.01,0.01,-10000,-10000,9998,-10000,4,4,9.094212811569303,62.69284437562973,60,,,,,,,,,,,,,,,false,false,false,false,false,false,false,false,false,false,209,209,209,209,48,62,63,49,1143,1144,1143,1144,1138,1138,1138,1138,0.1,0.1,0.1,0.1,1624.5,1619.0,1617.7,1624.5,7.65,7.06,7.92,7.34,0,0,0,0,-45.0,9.09420976488614,62.69284234958953,0,564.8349,564.8757,0.115685746,0.07173845,-0.9768153,0.9862544,0.2456835,0.06164163,0.10028604,0.27242863,331,-40,1459,1496.0,4.575685E-4,0.0022744678,0.0046394407,0.005187194,0.0023200372644150776,-0.0023200372644150776,-4.21485532531503,6.819689322437267,-8.009674086910147,351.99032591308986,0.599263032563615,0.3225717607021919,0.05823136147466687,-7.64343156222459,0.27369313059801464,7012404.910491617,-175.5459291853384,-173.0456124512623,38.77,NONE,0.0,0.0,0.0,NONE,2.9413987048866746E-10,-6.578607296709468E-11,0.0,1,2.49,2.49,2.49,2.49,16.594,16.594,5.898,1.5273299,0,2738,4.149,12.0,1.326,81,24.8,OK,13,0,0,0,0,0,65,100,0.0,0,0.0,16274.0,8.8E-44,0.0,-1.3088189E-33,67,7.3897485E-14,-7.389794E-14,-2.5610102E38,False,False,0,None,4.648368E29,1.0842437E-19,
59330340,.378,9.094209735945205,62.69284285345222,13,564.8349,564.42694,0.115947135,0.072482675,-0.9764405,0.9859683,0.039460756,0.14708717,-0.1103107,0.18804319,328,-37,1475,1511.0,-0.062052898,-0.026198091,0.065130815,0.093695916,0.06735652950026583,0.27882467941254463,-4.218954010759179,6.794449427948618,-2.5306919011663984,357.4693080988336,0.11447739472973759,1.1506502120470212,0.07549000034809673,-8.150041333543214,0.23078974542116143,0.5919497822298978,-177.62022954247644,-175.11991280840033,38.84,0.4201659023437969,,9.0942099,62.6928432,20190920,181758,2019-09-20T18:17:58Z,628.108,0.83,1.54,11.47,6,7,13,-0.01,0.01,0.01,-10000,-10000,9998,-10000,4,4,9.094212811569303,62.69284437562973,60,,,,,,,,,,,,,,,false,false,false,false,false,false,false,false,false,false,209,209,209,209,48,62,63,49,1143,1144,1143,1144,1138,1138,1138,1138,0.1,0.1,0.1,0.1,1624.5,1619.0,1617.7,1624.5,7.65,7.06,7.92,7.34,0,0,0,0,-45.0,9.094209707942296,62.69284234607217,0,564.8349,564.87463,0.11601244,0.07225121,-0.9779368,0.9874409,0.38241422,-0.31772828,0.1485487,0.51890135,326,-37,1472,1508.0,-9.511654E-5,4.336292E-4,0.003180612,0.0032114442,4.439385633734525E-4,0.0719645595034597,-4.222067733532649,6.821021538896183,-7.981825543885701,352.0181744561143,0.6116793863868896,0.3539125747370512,0.04545315224001626,-8.16130273113,0.2756731001307905,7012404.91342264,-100.16869107479769,-97.66837434072157,38.82,NONE,0.0,0.0,0.0,NONE,2.9413987048866746E-10,-6.578607296709468E-11,0.0,1,2.49,2.49,2.49,2.49,16.573,16.573,5.842,1.4781727,0,2737,4.149,12.0,1.478,81,24.8,OK,14,0,0,0,0,0,65,100,0.0,0,0.0,2.223755,8.8E-44,0.0,-1.3088189E-33,67,7.3897485E-14,-7.389794E-14,-2.6805368E38,False,False,0,None,4.8582377E29,1.0842437E-19,
59489354,.420,9.094209735945205,62.69284285345222,13,564.8349,564.42694,0.115947135,0.072482675,-0.9764405,0.9859683,0.039460756,0.14708717,-0.1103107,0.18804319,328,-37,1475,1511.0,-0.062052898,-0.026198091,0.065130815,0.093695916,0.06735652950026583,-0.06735652950026583,-4.218954010759179,6.794449427948618,-2.5306919011663984,357.4693080988336,0.11447739472973759,1.1506502120470212,0.07549000034809673,-8.150041333543214,0.23078974542116143,0.5919497822298978,-177.62022954247644,-175.11991280840033,38.84,0.4201659023437969,,9.0942099,62.6928432,20190920,181758,2019-09-20T18:17:58Z,628.108,0.83,1.54,11.47,6,7,13,-0.01,0.01,0.01,-10000,-10000,9998,-10000,4,4,9.094212811569303,62.69284437562973,60,,,,,,,,,,,,,,,false,false,false,false,false,false,false,false,false,false,209,235,226,209,51,64,62,51,1149,1150,1150,1150,1145,1145,1145,1145,0.1,0.1,0.1,0.1,1623.9,1619.0,1618.4,1625.1,7.65,7.05,7.78,7.38,0,0,0,0,101.82148834060729,9.094209707942296,62.69284234607217,0,564.8349,564.87463,0.11601244,0.07225121,-0.9779368,0.9874409,0.38241422,-0.31772828,0.1485487,0.51890135,326,-37,1472,1508.0,-9.511654E-5,4.336292E-4,0.003180612,0.0032114442,4.439385633734525E-4,-4.439385633734525E-4,-4.222067733532649,6.821021538896183,-7.981825543885701,352.0181744561143,0.6116793863868896,0.3539125747370512,0.04545315224001626,-8.16130273113,0.2756731001307905,7012404.91342264,-100.16869107479769,-97.66837434072157,38.82,NONE,0.0,0.0,0.0,NONE,2.9413987048866746E-10,-6.578607296709468E-11,0.0,1,3.33,3.33,3.33,3.33,16.573,16.573,5.842,1.4781727,0,2737,4.149,12.0,1.478,81,24.8,OK,14,0,0,0,0,0,65,100,0.0,0,0.0,2.223755,8.8E-44,0.0,-1.3088189E-33,67,7.3897485E-14,-7.389794E-14,-2.6805368E38,False,False,0,None,4.8582377E29,1.0842437E-19,
59637733,.458,9.094209735945205,62.69284285345222,13,564.8349,564.42694,0.115947135,0.072482675,-0.9764405,0.9859683,0.039460756,0.14708717,-0.1103107,0.18804319,328,-37,1475,1511.0,-0.062052898,-0.026198091,0.065130815,0.093695916,0.06735652950026583,-0.06735652950026583,-4.218954010759179,6.794449427948618,-2.5306919011663984,357.4693080988336,0.11447739472973759,1.1506502120470212,0.07549000034809673,-8.150041333543214,0.23078974542116143,0.5919497822298978,-177.62022954247644,-175.11991280840033,38.84,0.4201659023437969,,9.0942099,62.6928432,20190920,181758,2019-09-20T18:17:58Z,628.108,0.83,1.54,11.47,6,7,13,-0.01,0.01,0.01,-10000,-10000,9998,-10000,4,4,9.094212811569303,62.69284437562973,60,,,,,,,,,,,,,,,false,false,false,false,false,false,false,false,false,false,209,235,226,209,51,64,62,51,1149,1150,1150,1150,1145,1145,1145,1145,0.1,0.1,0.1,0.1,1623.9,1619.0,1618.4,1625.1,7.65,7.05,7.78,7.38,0,0,0,0,101.82148834060729,9.094209814630325,62.692842364606406,0,564.8349,564.8735,0.11627263,0.072056465,-0.9755613,0.98510474,0.23412362,0.23649314,0.4351739,0.54783136,331,-40,1481,1518.0,0.0010347078,4.8496947E-4,0.0041390453,0.0042938925,0.0011427228145514873,0.1497660165180053,-4.2260783908612645,6.820861768650787,-8.008576317211666,351.9914236827883,0.6407994476073492,0.38466968268206786,0.04140058977066661,-7.816693354827823,0.2708801205116155,7012404.91924214,66.75898318189769,69.25929991597381,38.85,NONE,0.0,0.0,0.0,NONE,2.9413987048866746E-10,-6.578607296709468E-11,0.0,1,3.33,3.33,3.33,3.33,16.573,16.573,5.842,1.4781727,0,2737,4.149,12.0,1.478,81,24.8,OK,14,0,0,0,0,0,65,100,0.0,0,0.0,2.223755,8.8E-44,0.0,-1.3088189E-33,67,7.3897485E-14,-7.389794E-14,-2.6805368E38,False,False,0,None,4.8582377E29,1.0842437E-19,
59799328,.500,9.094209681979347,62.69284279342644,13,564.8349,564.4205,0.11606764,0.0719042,-0.97534835,0.9848585,0.10753649,-0.16504084,0.38624826,0.43357846,331,-40,1469,1506.0,-0.06458469,-0.026291752,0.0692393,0.098267585,0.06973118352670588,0.1021822037734671,-4.220530598467132,6.795236310695943,-2.5298505219657037,357.4701494780343,0.12824286144902325,1.1579833408860623,0.07459436088655587,-7.733352709192476,0.2375695863826053,0.599169769188541,-160.08679921396657,-157.58648247989046,38.85,0.4201659023437969,,9.0942099,62.6928432,20190920,181758,2019-09-20T18:17:58Z,628.108,0.83,1.54,11.47,6,7,13,-0.01,0.01,0.01,-10000,-10000,9998,-10000,4,4,9.094212811569303,62.69284437562973,60,,,,,,,,,,,,,,,false,false,false,false,false,false,false,false,false,false,302,312,309,314,49,63,65,50,1370,1380,1377,1374,1362,1362,1362,1362,0.1,0.1,0.1,0.1,1623.9,1619.0,1617.7,1624.5,7.55,7.07,7.82,7.3,0,0,0,0,29.054604099077153,9.094209814630325,62.692842364606406,0,564.8349,564.8735,0.11627263,0.072056465,-0.9755613,0.98510474,0.23412362,0.23649314,0.4351739,0.54783136,331,-40,1481,1518.0,0.0010347078,4.8496947E-4,0.0041390453,0.0042938925,0.0011427228145514873,-0.0011427228145514873,-4.2260783908612645,6.820861768650787,-8.008576317211666,351.9914236827883,0.6407994476073492,0.38466968268206786,0.04140058977066661,-7.816693354827823,0.2708801205116155,7012404.91924214,66.75898318189769,69.25929991597381,38.85,NONE,0.0,0.0,0.0,NONE,2.9413987048866746E-10,-6.578607296709468E-11,0.0,1,28.75,28.75,28.75,28.75,16.573,16.573,5.842,1.4781727,0,2737,4.149,12.0,1.478,81,24.8,OK,14,0,0,0,0,0,65,100,0.0,0,0.0,2.223755,8.8E-44,0.0,-1.3088189E-33,67,7.3897485E-14,-7.389794E-14,-2.6805368E38,False,False,0,None,4.8582377E29,1.0842437E-19,
59942653,.537,9.094209681979347,62.69284279342644,13,564.8349,564.4205,0.11606764,0.0719042,-0.97534835,0.9848585,0.10753649,-0.16504084,0.38624826,0.43357846,331,-40,1469,1506.0,-0.06458469,-0.026291752,0.0692393,0.098267585,0.06973118352670588,-0.06973118352670588,-4.220530598467132,6.795236310695943,-2.5298505219657037,357.4701494780343,0.12824286144902325,1.1579833408860623,0.07459436088655587,-7.733352709192476,0.2375695863826053,0.599169769188541,-160.08679921396657,-157.58648247989046,38.85,0.4201659023437969,,9.0942099,62.6928432,20190920,181758,2019-09-20T18:17:58Z,628.108,0.83,1.54,11.47,6,7,13,-0.01,0.01,0.01,-10000,-10000,9998,-10000,4,4,9.094212811569303,62.69284437562973,60,,,,,,,,,,,,,,,false,false,false,false,false,false,false,false,false,false,302,312,309,314,49,63,65,50,1370,1380,1377,1374,1362,1362,1362,1362,0.1,0.1,0.1,0.1,1623.9,1619.0,1617.7,1624.5,7.55,7.07,7.82,7.3,0,0,0,0,29.054604099077153,9.094209814630325,62.692842364606406,0,564.8349,564.8735,0.11627263,0.072056465,-0.9755613,0.98510474,0.23412362,0.23649314,0.4351739,0.54783136,331,-40,1481,1518.0,0.0010347078,4.8496947E-4,0.0041390453,0.0042938925,0.0011427228145514873,-0.0011427228145514873,-4.2260783908612645,6.820861768650787,-8.008576317211666,351.9914236827883,0.6407994476073492,0.38466968268206786,0.04140058977066661,-7.816693354827823,0.2708801205116155,7012404.91924214,66.75898318189769,69.25929991597381,38.85,NONE,0.0,0.0,0.0,NONE,2.9413987048866746E-10,-6.578607296709468E-11,0.0,1,28.75,28.75,28.75,28.75,16.573,16.573,5.842,1.4781727,0,2737,4.149,12.0,1.478,81,24.8,OK,14,0,0,0,0,0,65,100,0.0,0,0.0,2.223755,8.8E-44,0.0,-1.3088189E-33,67,7.3897485E-14,-7.389794E-14,-2.6805368E38,False,False,0,None,4.8582377E29,1.0842437E-19,
60098255,.578,9.094209665064195,62.69284275816972,13,564.8574,564.4164,0.11432977,0.07298715,-0.97733146,0.9866991,-0.0439107,0.010256897,-0.19046123,0.19572642,328,-37,1463,1499.0,-0.06761955,-0.02642887,0.070482254,0.10118615,0.07260088541640201,0.026661710478984302,-4.222798250352027,6.800215332131976,-2.529087115106406,357.4709128848936,0.13801315670062977,1.1611584372694945,0.06687022942427219,-8.08223763755549,0.24106093728446748,0.6031839746740295,-170.0874355853957,-167.5871188513196,38.87,0.4426878750000469,,9.0942098,62.6928433,20190920,181758,2019-09-20T18:17:58Z,628.142,0.83,1.54,11.38,6,7,13,0.03,0.01,0.02,0,0,0,0,4,4,9.094212811569303,62.69284437562973,60,,,,,,,,,,,,,,,false,false,false,false,false,false,false,false,false,false,302,312,309,314,49,63,65,50,1370,1380,1377,1374,1362,1362,1362,1362,0.1,0.1,0.1,0.1,1623.9,1619.0,1617.7,1624.5,7.55,7.07,7.82,7.3,0,0,0,0,29.054604099077153,9.09420977383649,62.69284236673763,0,564.9869,564.871,0.11442464,0.0721189,-0.9767454,0.9860658,0.25677678,0.048145067,0.16202614,0.30741623,328,-37,1463,1499.0,6.0844584E-4,4.3793814E-4,0.0065870816,0.006629603,7.496640313042396E-4,0.05104078068921929,-4.227329302776728,6.824408502987814,-7.979989694010858,352.02001030598916,0.6706008577800906,0.4091665400344389,0.05560457356946048,-8.08572355654531,0.2718652519686978,7012404.921336559,-86.00343097792266,-83.50311424384654,38.89,NONE,0.0,0.0,0.0,NONE,7.663918126933896E-11,1.074628552804677E-10,0.0,1,28.75,28.75,28.75,28.75,16.573,16.573,5.842,1.4781727,0,2737,4.149,12.0,1.478,81,24.8,OK,14,0,0,0,0,0,65,100,0.0,0,0.0,2.223755,8.8E-44,0.0,-1.3088189E-33,67,7.3897485E-14,-7.389794E-14,-2.6805368E38,False,False,0,None,4.8582377E29,1.0842437E-19,
60394146,.655,9.094209665064195,62.69284275816972,13,564.8574,564.4164,0.11432977,0.07298715,-0.97733146,0.9866991,-0.0439107,0.010256897,-0.19046123,0.19572642,328,-37,1463,1499.0,-0.06761955,-0.02642887,0.070482254,0.10118615,0.07260088541640201,-0.07260088541640201,-4.222798250352027,6.800215332131976,-2.529087115106406,357.4709128848936,0.13801315670062977,1.1611584372694945,0.06687022942427219,-8.08223763755549,0.24106093728446748,0.6031839746740295,-170.0874355853957,-167.5871188513196,38.87,0.4426878750000469,,9.0942098,62.6928433,20190920,181758,2019-09-20T18:17:58Z,628.142,0.83,1.54,11.38,6,7,13,0.03,0.01,0.02,0,0,0,0,4,4,9.094212811569303,62.69284437562973,60,,,,,,,,,,,,,,,false,false,false,false,false,false,false,false,false,false,332,335,348,338,50,63,63,50,1320,1331,1327,1324,1312,1312,1312,1312,0.1,0.1,0.1,0.1,1623.2,1618.4,1617.1,1623.9,7.54,7.0,7.79,7.29,0,0,0,0,34.38034472384487,9.09420977383649,62.69284236673763,0,564.9869,564.871,0.11442464,0.0721189,-0.9767454,0.9860658,0.25677678,0.048145067,0.16202614,0.30741623,328,-37,1463,1499.0,6.0844584E-4,4.3793814E-4,0.0065870816,0.006629603,7.496640313042396E-4,-7.496640313042396E-4,-4.227329302776728,6.824408502987814,-7.979989694010858,352.02001030598916,0.6706008577800906,0.4091665400344389,0.05560457356946048,-8.08572355654531,0.2718652519686978,7012404.921336559,-86.00343097792266,-83.50311424384654,38.89,NONE,0.0,0.0,0.0,NONE,7.663918126933896E-11,1.074628552804677E-10,0.0,1,22.5,22.5,22.5,22.5,16.573,16.573,5.842,1.4781727,0,2737,4.149,12.0,1.478,81,24.8,OK,14,0,0,0,0,0,65,100,0.0,0,0.0,2.223755,8.8E-44,0.0,-1.3088189E-33,67,7.3897485E-14,-7.389794E-14,-2.6805368E38,False,False,0,None,4.8582377E29,1.0842437E-19,
60567289,.700,9.094209655813772,62.69284272797212,13,564.8349,564.4126,0.11573274,0.071772255,-0.97604537,0.9854998,0.27817956,-0.069863044,0.029900273,0.28837258,328,-37,1463,1499.0,-0.07142182,-0.027377851,0.07008524,0.10374277,0.07648936155076576,-0.0011363977330407504,-4.225525457977027,6.803202214773921,-2.529275638825107,357.4707243611749,0.13000094460805206,1.1728487742012348,0.06389580109598762,-8.088899998887895,0.24388764986686792,0.6065747895021846,-174.50081267477165,-172.00049594069554,38.93,0.4201659023437969,,9.0942098,62.6928433,20190920,181758,2019-09-20T18:17:58Z,628.142,0.83,1.54,11.38,6,7,13,0.03,0.01,0.02,0,0,0,0,4,4,9.094212811569303,62.69284437562973,60,,,,,,,,,,,,,,,false,false,false,false,false,false,false,false,false,false,332,335,348,338,50,63,63,50,1320,1331,1327,1324,1312,1312,1312,1312,0.1,0.1,0.1,0.1,1623.2,1618.4,1617.1,1623.9,7.54,7.0,7.79,7.29,0,0,0,0,34.38034472384487,9.094209859472945,62.69284237739991,0,564.8349,564.86523,0.11571441,0.07263613,-0.9766888,0.9861982,0.24090189,0.10068425,0.0014957981,0.2611001,328,-37,1466,1502.0,-0.0014431847,-1.5841724E-6,0.008905993,0.009022167,0.0014431855308457786,0.09914770359806316,-4.23200760154502,6.830952456255204,-7.981297305314574,352.01870269468543,0.6787602736014883,0.4339997057004004,0.06303085719801606,-8.115759859921598,0.2684169380968818,7012404.925863057,72.31553217505328,74.8158489091294,38.9,NONE,0.0,0.0,0.0,NONE,7.663918126933896E-11,1.074628552804677E-10,0.0,1,22.5,22.5,22.5,22.5,16.573,16.573,5.842,1.4781727,0,2737,4.149,12.0,1.478,81,24.8,OK,14,0,0,0,0,0,65,100,0.0,0,0.0,2.223755,8.8E-44,0.0,-1.3088189E-33,67,7.3897485E-14,-7.389794E-14,-2.6805368E38,False,False,0,None,4.8582377E29,1.0842437E-19,
60710592,.737,9.094209655813772,62.69284272797212,13,564.8349,564.4126,0.11573274,0.071772255,-0.97604537,0.9854998,0.27817956,-0.069863044,0.029900273,0.28837258,328,-37,1463,1499.0,-0.07142182,-0.027377851,0.07008524,0.10374277,0.07648936155076576,-0.07648936155076576,-4.225525457977027,6.803202214773921,-2.529275638825107,357.4707243611749,0.13000094460805206,1.1728487742012348,0.06389580109598762,-8.088899998887895,0.24388764986686792,0.6065747895021846,-174.50081267477165,-172.00049594069554,38.93,0.4201659023437969,,9.0942098,62.6928433,20190920,181758,2019-09-20T18:17:58Z,628.142,0.83,1.54,11.38,6,7,13,0.03,0.01,0.02,0,0,0,0,4,4,9.094212811569303,62.69284437562973,60,,,,,,,,,,,,,,,false,false,false,false,false,false,false,false,false,false,332,335,348,338,50,63,63,50,1320,1331,1327,1324,1312,1312,1312,1312,0.1,0.1,0.1,0.1,1623.2,1618.4,1617.1,1623.9,7.54,7.0,7.79,7.29,0,0,0,0,34.38034472384487,9.094209859472945,62.69284237739991,0,564.8349,564.86523,0.11571441,0.07263613,-0.9766888,0.9861982,0.24090189,0.10068425,0.0014957981,0.2611001,328,-37,1466,1502.0,-0.0014431847,-1.5841724E-6,0.008905993,0.009022167,0.0014431855308457786,-0.0014431855308457786,-4.23200760154502,6.830952456255204,-7.981297305314574,352.01870269468543,0.6787602736014883,0.4339997057004004,0.06303085719801606,-8.115759859921598,0.2684169380968818,7012404.925863057,72.31553217505328,74.8158489091294,38.9,NONE,0.0,0.0,0.0,NONE,7.663918126933896E-11,1.074628552804677E-10,0.0,1,22.5,22.5,22.5,22.5,16.573,16.573,5.842,1.4781727,0,2737,4.149,12.0,1.478,81,24.8,OK,14,0,0,0,0,0,65,100,0.0,0,0.0,2.223755,8.8E-44,0.0,-1.3088189E-33,67,7.3897485E-14,-7.389794E-14,-2.6805368E38,False,False,0,None,4.8582377E29,1.0842437E-19,
60866219,.778,9.094209795898482,62.6928427284655,13,564.8349,564.4169,0.114584826,0.07287625,-0.97720236,0.98659265,0.19825134,-0.02186471,-0.02027571,0.20048133,331,-37,1469,1506.0,-0.07502515,-0.027998962,0.06998747,0.106353,0.08007942756896018,0.09660197486732543,-4.229421970623555,6.803504297693799,-2.5301629606200313,357.46983703937997,0.1304811509518463,1.1966197374570313,0.0593191517878854,-8.090779832759942,0.23918908575176953,0.6137209798540706,87.05981852347759,89.56013525755371,38.92,0.4201659023437969,,9.0942098,62.6928433,20190920,181759,2019-09-20T18:17:59Z,628.167,0.83,1.54,11.29,6,7,13,0.0,0.0,0.01,0,0,0,0,4,4,9.094212811569303,62.69284437562973,60,,,,,,,,,,,,,,,false,false,false,false,false,false,false,false,false,false,332,335,348,338,50,63,63,50,1320,1331,1327,1324,1312,1312,1312,1312,0.1,0.1,0.1,0.1,1623.2,1618.4,1617.1,1623.9,7.54,7.0,7.79,7.29,0,0,0,0,34.38034472384487,9.094209830209666,62.692842381870065,0,564.8349,564.86163,0.11473861,0.07183843,-0.97609955,0.98544204,0.31448016,0.16081655,0.28203458,0.45199916,331,-37,1469,1506.0,-0.0031883768,1.0117473E-4,0.01385303,0.01421557,0.0031899815712160945,0.03570938926358056,-4.238192270357192,6.831565313452631,-7.983541218071556,352.01645878192846,0.6929089386478019,0.4617142453557037,0.07608020750702768,-8.104854461139691,0.26884724561511036,7012404.92743641,-74.08377324293944,-71.58345650886332,38.93,NONE,0.0,0.0,0.0,NONE,7.663918126933896E-11,1.074628552804677E-10,0.0,1,22.5,22.5,22.5,22.5,16.587,16.587,5.835,1.4781727,0,2737,4.149,12.0,1.478,81,24.8,OK,14,0,0,0,0,0,65,100,0.0,0,0.0,1.6443431E-5,8.8E-44,0.0,-1.3088189E-33,67,7.3897485E-14,-7.389794E-14,-2.8700038E38,False,False,0,None,5.191224E29,1.0842437E-19,
61098606,.838,9.094209795898482,62.6928427284655,13,564.8349,564.4169,0.114584826,0.07287625,-0.97720236,0.98659265,0.19825134,-0.02186471,-0.02027571,0.20048133,331,-37,1469,1506.0,-0.07502515,-0.027998962,0.06998747,0.106353,0.08007942756896018,-0.08007942756896018,-4.229421970623555,6.803504297693799,-2.5301629606200313,357.46983703937997,0.1304811509518463,1.1966197374570313,0.0593191517878854,-8.090779832759942,0.23918908575176953,0.6137209798540706,87.05981852347759,89.56013525755371,38.92,0.4201659023437969,,9.0942098,62.6928433,20190920,181759,2019-09-20T18:17:59Z,628.167,0.83,1.54,11.29,6,7,13,0.0,0.0,0.01,0,0,0,0,4,4,9.094212811569303,62.69284437562973,60,,,,,,,,,,,,,,,false,false,false,false,false,false,false,false,false,false,332,335,348,338,50,63,63,50,1320,1331,1327,1324,1312,1312,1312,1312,0.1,0.1,0.1,0.1,1623.2,1618.4,1617.1,1623.9,7.54,7.0,7.79,7.29,0,0,0,0,34.38034472384487,9.094209830209666,62.692842381870065,0,564.8349,564.86163,0.11473861,0.07183843,-0.97609955,0.98544204,0.31448016,0.16081655,0.28203458,0.45199916,331,-37,1469,1506.0,-0.0031883768,1.0117473E-4,0.01385303,0.01421557,0.0031899815712160945,-0.0031899815712160945,-4.238192270357192,6.831565313452631,-7.983541218071556,352.01645878192846,0.6929089386478019,0.4617142453557037,0.07608020750702768,-8.104854461139691,0.26884724561511036,7012404.92743641,-74.08377324293944,-71.58345650886332,38.93,NONE,0.0,0.0,0.0,NONE,7.663918126933896E-11,1.074628552804677E-10,0.0,1,10.0,10.0,10.0,10.0,16.587,16.587,5.835,1.4781727,0,2737,4.149,12.0,1.478,81,24.8,OK,14,0,0,0,0,0,65,100,0.0,0,0.0,1.6443431E-5,8.8E-44,0.0,-1.3088189E-33,67,7.3897485E-14,-7.389794E-14,-2.8700038E38,False,False,0,None,5.191224E29,1.0842437E-19,
61250226,.877,9.094209801045356,62.69284271550898,13,564.8349,564.4133,0.11564694,0.07247609,-0.97538126,0.98488355,0.13161302,0.15436779,-0.27607247,0.34258926,331,-40,1466,1503.0,-0.07899414,-0.027896423,0.07056199,0.10953209,0.08377520162024664,-0.046612036781606705,-4.231089874351631,6.807108592270115,-2.5318122735065764,357.4681877264934,0.11569312469894233,1.2130802490067898,0.06593116795838475,-7.7398086313651095,0.24012607232663985,0.6151854077078104,167.17150507733814,169.67182181141425,38.97,0.4201659023437969,,9.0942098,62.6928433,20190920,181759,2019-09-20T18:17:59Z,628.167,0.83,1.54,11.29,6,7,13,0.0,0.0,0.01,0,0,0,0,4,4,9.094212811569303,62.69284437562973,60,,,,,,,,,,,,,,,false,false,false,false,false,false,false,false,false,false,332,335,348,338,50,63,63,50,1320,1331,1327,1324,1312,1312,1312,1312,0.1,0.1,0.1,0.1,1623.2,1618.4,1617.1,1623.9,7.54,7.0,7.79,7.29,0,0,0,0,34.38034472384487,9.0942097418411,62.692842538631695,0,565.0001,564.8555,0.113992296,0.073478065,-0.9774371,0.98680115,0.17030457,0.1552605,-0.27513415,0.3588987,331,-37,1469,1506.0,-0.006291272,7.302414E-5,0.01980806,0.020783277,0.0062916958566456216,0.45061443018979663,-4.240646815456962,6.8343114603925885,-7.980219844091908,352.0197801559081,0.6932532499513332,0.48590358809424,0.09185152996808671,-8.110795924180216,0.2573817106556731,7012404.94544096,-16.999870944097186,-14.499554210021067,38.97,NONE,0.0,0.0,0.0,NONE,7.663918126933896E-11,1.074628552804677E-10,0.0,1,10.0,10.0,10.0,10.0,16.587,16.587,5.835,1.4781727,0,2737,4.149,12.0,1.478,81,24.8,OK,14,0,0,0,0,0,65,100,0.0,0,0.0,1.6443431E-5,8.8E-44,0.0,-1.3088189E-33,67,7.3897485E-14,-7.389794E-14,-2.8700038E38,False,False,0,None,5.191224E29,1.0842437E-19,
61500220,.942,9.094209801045356,62.69284271550898,13,564.8349,564.4133,0.11564694,0.07247609,-0.97538126,0.98488355,0.13161302,0.15436779,-0.27607247,0.34258926,331,-40,1466,1503.0,-0.07899414,-0.027896423,0.07056199,0.10953209,0.08377520162024664,-0.08377520162024664,-4.231089874351631,6.807108592270115,-2.5318122735065764,357.4681877264934,0.11569312469894233,1.2130802490067898,0.06593116795838475,-7.7398086313651095,0.24012607232663985,0.6151854077078104,167.17150507733814,169.67182181141425,38.97,0.4201659023437969,,9.0942098,62.6928433,20190920,181759,2019-09-20T18:17:59Z,628.167,0.83,1.54,11.29,6,7,13,0.0,0.0,0.01,0,0,0,0,4,4,9.094212811569303,62.69284437562973,60,,,,,,,,,,,,,,,false,false,false,false,false,false,false,false,false,false,332,335,348,338,50,63,63,50,1320,1331,1327,1324,1312,1312,1312,1312,0.1,0.1,0.1,0.1,1623.2,1618.4,1617.1,1623.9,7.54,7.0,7.79,7.29,0,0,0,0,34.38034472384487,9.0942097418411,62.692842538631695,0,565.0001,564.8555,0.113992296,0.073478065,-0.9774371,0.98680115,0.17030457,0.1552605,-0.27513415,0.3588987,331,-37,1469,1506.0,-0.006291272,7.302414E-5,0.01980806,0.020783277,0.0062916958566456216,-0.0062916958566456216,-4.240646815456962,6.8343114603925885,-7.980219844091908,352.0197801559081,0.6932532499513332,0.48590358809424,0.09185152996808671,-8.110795924180216,0.2573817106556731,7012404.94544096,-16.999870944097186,-14.499554210021067,38.97,NONE,0.0,0.0,0.0,NONE,-1.7605266699624566E-11,-6.946353482218893E-10,2.4414062E-4,1,28.75,28.75,28.75,28.75,16.587,16.587,5.835,1.4781727,0,2737,4.149,12.0,1.478,81,24.8,OK,14,0,0,0,0,0,65,100,0.0,0,0.0,1.6443431E-5,8.8E-44,0.0,-1.3088189E-33,67,7.3897485E-14,-7.389794E-14,-2.8700038E38,False,False,0,None,5.191224E29,1.0842437E-19,
61634221,.977,9.094209769628462,62.69284274836031,13,564.8349,564.4099,0.115156315,0.072698526,-0.97718734,0.9866312,-0.0070892093,0.08279444,0.21996666,0.23513934,331,-37,1463,1500.0,-0.08269195,-0.028443353,0.06999461,0.11200996,0.08744703247906237,0.027093003527536658,-4.232868738452197,6.8091530568562,-2.528652727551907,357.4713472724481,0.11289348471640444,1.2192938984545385,0.07776539508498621,-8.060176111851268,0.23836957367693873,0.619174408764265,-26.18876891038391,-23.68845217630779,39.02,0.4201659023437969,,9.0942098,62.6928433,20190920,181759,2019-09-20T18:17:59Z,628.194,0.83,1.54,11.21,6,7,13,0.0,0.0,0.0,0,0,0,0,4,4,9.094212811569303,62.69284437562973,60,,,,,,,,,,,,,,,false,false,false,false,false,false,false,false,false,false,332,335,348,338,50,63,63,50,1320,1331,1327,1324,1312,1312,1312,1312,0.1,0.1,0.1,0.1,1623.2,1618.4,1617.1,1623.9,7.54,7.0,7.79,7.29,0,0,0,0,34.38034472384487,9.094209708463511,62.692842558593185,0,564.8349,564.8476,0.11443305,0.07269814,-0.97778493,0.9871389,0.17851248,0.10637226,-0.53520125,0.5741273,331,-37,1463,1500.0,-0.009353422,-1.1478282E-4,0.02625383,0.027870474,0.009354125798917649,0.07097173991626869,-4.244771956689384,6.8372500909644,-7.98261897504531,352.0173810249547,0.6528185097551082,0.5033091301092144,0.1049066835793653,-8.083178863585992,0.25667028756326654,7012404.948238409,-39.9918795225283,-37.49156278845218,39.02,NONE,0.0,0.0,0.0,NONE,-1.7605266699624566E-11,-6.946353482218893E-10,2.4414062E-4,1,28.75,28.75,28.75,28.75,16.595,16.595,5.831,1.4781727,0,2737,4.149,12.0,1.478,81,24.8,OK,14,0,0,0,0,0,65,100,0.0,0,0.0,1.4345278E-7,8.8E-44,0.0,-1.3088189E-33,67,7.3897485E-14,-7.389794E-14,-2.7996481E38,False,False,0,None,5.0676236E29,1.0842437E-19,
61793856,1.019,9.094209769628462,62.69284274836031,13,564.8349,564.4099,0.115156315,0.072698526,-0.97718734,0.9866312,-0.0070892093,0.08279444,0.21996666,0.23513934,331,-37,1463,1500.0,-0.08269195,-0.028443353,0.06999461,0.11200996,0.08744703247906237,-0.08744703247906237,-4.232868738452197,6.8091530568562,-2.528652727551907,357.4713472724481,0.11289348471640444,1.2192938984545385,0.07776539508498621,-8.060176111851268,0.23836957367693873,0.619174408764265,-26.18876891038391,-23.68845217630779,39.02,0.4201659023437969,,9.0942098,62.6928433,20190920,181759,2019-09-20T18:17:59Z,628.194,0.83,1.54,11.21,6,7,13,0.0,0.0,0.0,0,0,0,0,4,4,9.094212811569303,62.69284437562973,60,,,,,,,,,,,,,,,false,false,false,false,false,false,false,false,false,false,332,335,348,338,50,63,63,50,1320,1331,1327,1324,1312,1312,1312,1312,0.1,0.1,0.1,0.1,1623.2,1618.4,1617.1,1623.9,7.54,7.0,7.79,7.29,0,0,0,0,34.38034472384487,9.094209708463511,62.692842558593185,0,564.8349,564.8476,0.11443305,0.07269814,-0.97778493,0.9871389,0.17851248,0.10637226,-0.53520125,0.5741273,331,-37,1463,1500.0,-0.009353422,-1.1478282E-4,0.02625383,0.027870474,0.009354125798917649,-0.009354125798917649,-4.244771956689384,6.8372500909644,-7.98261897504531,352.0173810249547,0.6528185097551082,0.5033091301092144,0.1049066835793653,-8.083178863585992,0.25667028756326654,7012404.948238409,-39.9918795225283,-37.49156278845218,39.02,NONE,0.0,0.0,0.0,NONE,-1.7605266699624566E-11,-6.946353482218893E-10,2.4414062E-4,1,22.5,22.5,22.5,22.5,16.595,16.595,5.831,1.4781727,0,2737,4.149,12.0,1.478,81,24.8,OK,14,0,0,0,0,0,65,100,0.0,0,0.0,1.4345278E-7,8.8E-44,0.0,-1.3088189E-33,67,7.3897485E-14,-7.389794E-14,-2.7996481E38,False,False,0,None,5.0676236E29,1.0842437E-19,
61941716,1.057,9.094209769628462,62.69284274836031,13,564.8349,564.4099,0.115156315,0.072698526,-0.97718734,0.9866312,-0.0070892093,0.08279444,0.21996666,0.23513934,331,-37,1463,1500.0,-0.08269195,-0.028443353,0.06999461,0.11200996,0.08744703247906237,-0.08744703247906237,-4.232868738452197,6.8091530568562,-2.528652727551907,357.4713472724481,0.11289348471640444,1.2192938984545385,0.07776539508498621,-8.060176111851268,0.23836957367693873,0.619174408764265,-26.18876891038391,-23.68845217630779,39.02,0.4201659023437969,,9.0942098,62.6928433,20190920,181759,2019-09-20T18:17:59Z,628.194,0.83,1.54,11.21,6,7,13,0.0,0.0,0.0,0,0,0,0,4,4,9.094212811569303,62.69284437562973,60,,,,,,,,,,,,,,,false,false,false,false,false,false,false,false,false,false,332,335,348,338,50,63,63,50,1320,1331,1327,1324,1312,1312,1312,1312,0.1,0.1,0.1,0.1,1623.2,1618.4,1617.1,1623.9,7.54,7.0,7.79,7.29,0,0,0,0,34.38034472384487,9.094209781022006,62.692842531584105,0,564.8349,564.84515,0.10596172,0.046021793,-0.98794955,0.99468094,-2.790334,0.25599426,-3.0258517,4.1239877,328,-34,1472,1508.0,-0.009685226,0.0015549718,0.026904667,0.028637085,0.009809257590515255,0.11422758387607475,-4.2782261047939185,6.859753549009588,-8.028755241266955,351.97124475873306,0.4751221760421007,0.37297939772266897,0.12298875163177045,-8.610518012360881,0.2567959127912278,7012404.953004915,126.5555867494332,129.05590348350933,39.04,NONE,0.0,0.0,0.0,NONE,-1.7605266699624566E-11,-6.946353482218893E-10,2.4414062E-4,1,22.5,22.5,22.5,22.5,16.595,16.595,5.831,1.4781727,0,2737,4.149,12.0,1.478,81,24.8,OK,14,0,0,0,0,0,65,100,0.0,0,0.0,1.4345278E-7,8.8E-44,0.0,-1.3088189E-33,67,7.3897485E-14,-7.389794E-14,-2.7996481E38,False,False,0,None,5.0676236E29,1.0842437E-19,
62103302,1.099,9.094209723139441,62.69284279331159,13,564.8349,564.4072,0.12491352,0.10291938,-0.96547496,0.9789472,3.0626612,-0.07976052,3.1317444,4.3811045,328,-34,1478,1514.0,-0.08650752,-0.0303871,0.06859417,0.11450802,0.09168929532828055,0.04004882629394055,-4.203199265625994,6.808859695562298,-2.481413410259735,357.51858658974027,0.2801693622932123,1.3717901870677975,0.07791681082847009,-8.453422186526193,0.2361732585525091,0.624706814128625,-27.88252225720698,-25.38220552313086,39.02,0.4201659023437969,,9.0942098,62.6928433,20190920,181759,2019-09-20T18:17:59Z,628.194,0.83,1.54,11.21,6,7,13,0.0,0.0,0.0,0,0,0,0,4,4,9.094212811569303,62.69284437562973,60,,,,,,,,,,,,,,,false,false,false,false,false,false,false,false,false,false,1742,1522,1580,1679,50,65,65,50,1270,1280,1277,1274,1262,1262,1262,1262,0.0,0.0,0.0,0.0,1627.0,1620.2,1620.8,1625.7,4.95,4.42,5.2,4.51,0,0,0,0,-90.8979794386018,9.094209781022006,62.692842531584105,0,564.8349,564.84515,0.10596172,0.046021793,-0.98794955,0.99468094,-2.790334,0.25599426,-3.0258517,4.1239877,328,-34,1472,1508.0,-0.009685226,0.0015549718,0.026904667,0.028637085,0.009809257590515255,-0.009809257590515255,-4.2782261047939185,6.859753549009588,-8.028755241266955,351.97124475873306,0.4751221760421007,0.37297939772266897,0.12298875163177045,-8.610518012360881,0.2567959127912278,7012404.953004915,126.5555867494332,129.05590348350933,39.04,NONE,0.0,0.0,0.0,NONE,-1.7605266699624566E-11,-6.946353482218893E-10,2.4414062E-4,1,16.25,16.25,16.25,16.25,16.595,16.595,5.831,1.4781727,0,2737,4.149,12.0,1.478,81,24.8,OK,14,0,0,0,0,0,65,100,0.0,0,0.0,1.4345278E-7,8.8E-44,0.0,-1.3088189E-33,67,7.3897485E-14,-7.389794E-14,-2.7996481E38,False,False,0,None,5.0676236E29,1.0842437E-19,
62246540,1.136,9.094209723139441,62.69284279331159,13,564.8349,564.4072,0.12491352,0.10291938,-0.96547496,0.9789472,3.0626612,-0.07976052,3.1317444,4.3811045,328,-34,1478,1514.0,-0.08650752,-0.0303871,0.06859417,0.11450802,0.09168929532828055,-0.09168929532828055,-4.203199265625994,6.808859695562298,-2.481413410259735,357.51858658974027,0.2801693622932123,1.3717901870677975,0.07791681082847009,-8.453422186526193,0.2361732585525091,0.624706814128625,-27.88252225720698,-25.38220552313086,39.02,0.4201659023437969,,9.0942098,62.6928433,20190920,181759,2019-09-20T18:17:59Z,628.194,0.83,1.54,11.21,6,7,13,0.0,0.0,0.0,0,0,0,0,4,4,9.094212811569303,62.69284437562973,60,,,,,,,,,,,,,,,false,false,false,false,false,false,false,false,false,false,1742,1522,1580,1679,50,65,65,50,1270,1280,1277,1274,1262,1262,1262,1262,0.0,0.0,0.0,0.0,1627.0,1620.2,1620.8,1625.7,4.95,4.42,5.2,4.51,0,0,0,0,-90.8979794386018,9.094209781022006,62.692842531584105,0,564.8349,564.84515,0.10596172,0.046021793,-0.98794955,0.99468094,-2.790334,0.25599426,-3.0258517,4.1239877,328,-34,1472,1508.0,-0.009685226,0.0015549718,0.026904667,0.028637085,0.009809257590515255,-0.009809257590515255,-4.2782261047939185,6.859753549009588,-8.028755241266955,351.97124475873306,0.4751221760421007,0.37297939772266897,0.12298875163177045,-8.610518012360881,0.2567959127912278,7012404.953004915,126.5555867494332,129.05590348350933,39.04,NONE,0.0,0.0,0.0,NONE,-1.7605266699624566E-11,-6.946353482218893E-10,2.4414062E-4,1,16.25,16.25,16.25,16.25,16.595,16.595,5.831,1.4781727,0,2737,4.149,12.0,1.478,81,24.8,OK,14,0,0,0,0,0,65,100,0.0,0,0.0,1.4345278E-7,8.8E-44,0.0,-1.3088189E-33,67,7.3897485E-14,-7.389794E-14,-2.7996481E38,False,False,0,None,5.0676236E29,1.0842437E-19,
62402217,1.177,9.094209699205509,62.69284281289141,13,564.8349,564.4045,0.103934996,0.09602275,-0.97389066,0.9841168,1.3819772,4.4183154,-7.4734855,8.791152,331,-37,1472,1509.0,-0.08739176,-0.03227706,0.06936516,0.11614927,0.0931618340343686,-0.03146735798629142,-4.245269692970118,6.856203197462487,-2.5484721456012207,357.45152785439876,0.06355228625144738,1.5935409832131955,0.2943749204734322,-8.134461358529714,0.23537759041949122,0.627202957525391,-31.783084811605907,-29.282768077529788,39.05,0.4201659023437969,,9.0942098,62.6928433,20190920,181759,2019-09-20T18:17:59Z,628.219,0.83,1.54,11.13,6,7,13,0.0,0.0,0.01,0,0,0,0,4,4,9.094212811569303,62.69284437562973,60,,,,,,,,,,,,,,,false,false,false,false,false,false,false,false,false,false,1742,1522,1580,1679,50,65,65,50,1270,1280,1277,1274,1262,1262,1262,1262,0.0,0.0,0.0,0.0,1627.0,1620.2,1620.8,1625.7,4.95,4.42,5.2,4.51,0,0,0,0,-90.8979794386018,9.094209755964764,62.69284254949441,0,564.8349,564.84515,0.13057278,0.048285376,-0.96725416,0.97722125,-1.6528453,-0.92828417,-2.5364428,3.1665678,331,-37,1475,1512.0,-0.00853624,-0.0015288837,0.02170423,0.023372602,0.008672074721588199,0.049816707275482375,-4.26234464745693,6.879206918673954,-8.013170288713553,351.9868297112864,0.1975661822458693,0.1512667568468963,0.08944178750043585,-8.193242031743667,0.2559848179054251,7012404.9553713575,-35.193662691186624,-32.6933459571105,39.06,NONE,0.0,0.0,0.0,NONE,-1.7605266699624566E-11,-6.946353482218893E-10,2.4414062E-4,1,16.25,16.25,16.25,16.25,16.599,16.599,5.833,1.4781727,0,2737,4.149,12.0,1.478,81,24.8,OK,14,0,0,0,0,0,65,100,0.0,0,0.0,0.039465904,8.8E-44,0.0,-1.3088189E-33,67,7.3897485E-14,-7.389794E-14,-2.757227E38,False,False,0,None,4.993057E29,1.0842437E-19,
62534847,1.211,9.094209699205509,62.69284281289141,13,564.8349,564.4045,0.103934996,0.09602275,-0.97389066,0.9841168,1.3819772,4.4183154,-7.4734855,8.791152,331,-37,1472,1509.0,-0.08739176,-0.03227706,0.06936516,0.11614927,0.0931618340343686,-0.0931618340343686,-4.245269692970118,6.856203197462487,-2.5484721456012207,357.45152785439876,0.06355228625144738,1.5935409832131955,0.2943749204734322,-8.134461358529714,0.23537759041949122,0.627202957525391,-31.783084811605907,-29.282768077529788,39.05,0.4201659023437969,,9.0942098,62.6928433,20190920,181759,2019-09-20T18:17:59Z,628.219,0.83,1.54,11.13,6,7,13,0.0,0.0,0.01,0,0,0,0,4,4,9.094212811569303,62.69284437562973,60,,,,,,,,,,,,,,,false,false,false,false,false,false,false,false,false,false,1742,1522,1580,1679,50,65,65,50,1270,1280,1277,1274,1262,1262,1262,1262,0.0,0.0,0.0,0.0,1627.0,1620.2,1620.8,1625.7,4.95,4.42,5.2,4.51,0,0,0,0,-90.8979794386018,9.094209755964764,62.69284254949441,0,564.8349,564.84515,0.13057278,0.048285376,-0.96725416,0.97722125,-1.6528453,-0.92828417,-2.5364428,3.1665678,331,-37,1475,1512.0,-0.00853624,-0.0015288837,0.02170423,0.023372602,0.008672074721588199,-0.008672074721588199,-4.26234464745693,6.879206918673954,-8.013170288713553,351.9868297112864,0.1975661822458693,0.1512667568468963,0.08944178750043585,-8.193242031743667,0.2559848179054251,7012404.9553713575,-35.193662691186624,-32.6933459571105,39.06,NONE,0.0,0.0,0.0,NONE,-1.7605266699624566E-11,-6.946353482218893E-10,2.4414062E-4,1,10.0,10.0,10.0,10.0,16.599,16.599,5.833,1.4781727,0,2737,4.149,12.0,1.478,81,24.8,OK,14,0,0,0,0,0,65,100,0.0,0,0.0,0.039465904,8.8E-44,0.0,-1.3088189E-33,67,7.3897485E-14,-7.389794E-14,-2.757227E38,False,False,0,None,4.993057E29,1.0842437E-19,
62709944,1.257,9.094209699205509,62.69284281289141,13,564.8349,564.4045,0.103934996,0.09602275,-0.97389066,0.9841168,1.3819772,4.4183154,-7.4734855,8.791152,331,-37,1472,1509.0,-0.08739176,-0.03227706,0.06936516,0.11614927,0.0931618340343686,-0.0931618340343686,-4.245269692970118,6.856203197462487,-2.5484721456012207,357.45152785439876,0.06355228625144738,1.5935409832131955,0.2943749204734322,-8.134461358529714,0.23537759041949122,0.627202957525391,-31.783084811605907,-29.282768077529788,39.05,0.4201659023437969,,9.0942098,62.6928433,20190920,181759,2019-09-20T18:17:59Z,628.219,0.83,1.54,11.13,6,7,13,0.0,0.0,0.01,0,0,0,0,4,4,9.094212811569303,62.69284437562973,60,,,,,,,,,,,,,,,false,false,false,false,false,false,false,false,false,false,1742,1522,1580,1679,50,65,65,50,1270,1280,1277,1274,1262,1262,1262,1262,0.0,0.0,0.0,0.0,1627.0,1620.2,1620.8,1625.7,4.95,4.42,5.2,4.51,0,0,0,0,-90.8979794386018,9.094209810535443,62.69284252190122,0,564.8349,564.85095,0.108871736,0.07790397,-0.9812216,0.99031204,5.110332,-1.315047,-1.0458184,5.379459,328,-37,1472,1508.0,-0.008380933,-0.0017373281,0.01588017,0.018039903,0.008559108775818107,0.0824788122177369,-4.256613120821235,6.867069169131186,-8.009403862753036,351.99059613724694,0.018704036139534308,0.3238989195849044,-0.022567645144078177,-8.21042876490905,0.2567559545826931,7012404.959514214,135.282705890575,137.7830226246511,39.08,NONE,0.0,0.0,0.0,NONE,-1.7605266699624566E-11,-6.946353482218893E-10,2.4414062E-4,1,10.0,10.0,10.0,10.0,16.599,16.599,5.833,1.4781727,0,2737,4.149,12.0,1.478,81,24.8,OK,14,0,0,0,0,0,65,100,0.0,0,0.0,0.039465904,8.8E-44,0.0,-1.3088189E-33,67,7.3897485E-14,-7.389794E-14,-2.757227E38,False,False,0,None,4.993057E29,1.0842437E-19,
62871391,1.299,9.094209685909304,62.69284295421188,13,564.8349,564.41547,0.11784917,0.069904596,-0.97195315,0.98156404,2.8718345,-1.2000241,1.6933241,3.5432806,328,-37,1469,1505.0,-0.020982048,-0.00822613,0.064617015,0.06843445,0.022536980918778038,0.35231985279132566,-4.241492248662543,6.825256912029523,-2.5589767900948197,357.44102320990515,-0.22493675953745568,1.805849608658559,0.45500050167134165,-8.164475714696732,0.224508654485603,0.6429317074882247,-4.97182383186763,-2.4715070977915103,39.11,0.4201659023437969,,9.0942098,62.6928433,20190920,181759,2019-09-20T18:17:59Z,628.219,0.83,1.54,11.13,6,7,13,0.0,0.0,0.01,0,0,0,0,4,4,9.094212811569303,62.69284437562973,60,,,,,,,,,,,,,,,false,false,false,false,false,false,false,false,false,false,1742,1522,1580,1679,50,65,65,50,1270,1280,1277,1274,1262,1262,1262,1262,0.0,0.0,0.0,0.0,1627.0,1620.2,1620.8,1625.7,4.95,4.42,5.2,4.51,0,0,0,0,-90.8979794386018,9.094209810535443,62.69284252190122,0,564.8349,564.85095,0.108871736,0.07790397,-0.9812216,0.99031204,5.110332,-1.315047,-1.0458184,5.379459,328,-37,1472,1508.0,-0.008380933,-0.0017373281,0.01588017,0.018039903,0.008559108775818107,-0.008559108775818107,-4.256613120821235,6.867069169131186,-8.009403862753036,351.99059613724694,0.018704036139534308,0.3238989195849044,-0.022567645144078177,-8.21042876490905,0.2567559545826931,7012404.959514214,135.282705890575,137.7830226246511,39.08,NONE,0.0,0.0,0.0,NONE,-1.7605266699624566E-11,-6.946353482218893E-10,2.4414062E-4,1,10.0,10.0,10.0,10.0,16.599,16.599,5.833,1.4781727,0,2737,4.149,12.0,1.478,81,24.8,OK,14,0,0,0,0,0,65,100,0.0,0,0.0,0.039465904,8.8E-44,0.0,-1.3088189E-33,67,7.3897485E-14,-7.389794E-14,-2.757227E38,False,False,0,None,4.993057E29,1.0842437E-19,
63036261,1.341,9.094209685909304,62.69284295421188,13,564.8349,564.41547,0.11784917,0.069904596,-0.97195315,0.98156404,2.8718345,-1.2000241,1.6933241,3.5432806,328,-37,1469,1505.0,-0.020982048,-0.00822613,0.064617015,0.06843445,0.022536980918778038,-0.022536980918778038,-4.241492248662543,6.825256912029523,-2.5589767900948197,357.44102320990515,-0.22493675953745568,1.805849608658559,0.45500050167134165,-8.164475714696732,0.224508654485603,0.6429317074882247,-4.97182383186763,-2.4715070977915103,39.11,0.4201659023437969,,9.0942098,62.6928433,20190920,181759,2019-09-20T18:17:59Z,628.219,0.83,1.54,11.13,6,7,13,0.0,0.0,0.01,0,0,0,0,4,4,9.094212811569303,62.69284437562973,60,,,,,,,,,,,,,,,false,false,false,false,false,false,false,false,false,false,1742,1522,1580,1679,50,65,65,50,1270,1280,1277,1274,1262,1262,1262,1262,0.0,0.0,0.0,0.0,1627.0,1620.2,1620.8,1625.7,4.95,4.42,5.2,4.51,0,0,0,0,-90.8979794386018,9.094209810535443,62.69284252190122,0,564.8349,564.85095,0.108871736,0.07790397,-0.9812216,0.99031204,5.110332,-1.315047,-1.0458184,5.379459,328,-37,1472,1508.0,-0.008380933,-0.0017373281,0.01588017,0.018039903,0.008559108775818107,-0.008559108775818107,-4.256613120821235,6.867069169131186,-8.009403862753036,351.99059613724694,0.018704036139534308,0.3238989195849044,-0.022567645144078177,-8.21042876490905,0.2567559545826931,7012404.959514214,135.282705890575,137.7830226246511,39.08,NONE,0.0,0.0,0.0,NONE,-1.8071308349592765E-10,-3.213345174016485E-10,0.0,2,10.0,10.47,11.5,10.96,16.599,16.599,5.833,1.4781727,0,2737,4.149,12.0,1.478,81,24.8,OK,14,0,0,0,0,0,65,100,0.0,0,0.0,0.039465904,8.8E-44,0.0,-1.3088189E-33,67,7.3897485E-14,-7.389794E-14,-2.757227E38,False,False,0,None,4.993057E29,1.0842437E-19,
63170284,1.376,9.094209680082638,62.6928429501338,13,564.8349,564.4134,0.11642461,0.0726388,-0.9768532,0.9864448,1.7686601,1.1285949,-4.516886,4.9803762,331,-34,1472,1509.0,-0.02305262,-0.0093698725,0.06335666,0.06806823,0.024884086348715705,-0.009318142440697084,-4.2456178392449,6.840695790875599,-2.5760445603897213,357.42395543961027,-0.365827938816478,2.037402762902575,0.45143629761998877,-8.475150650935822,0.22503901224078632,0.643473900096896,,,39.1,0.4201659023437969,,9.0942099,62.6928433,20190920,181759,2019-09-20T18:17:59Z,628.237,0.83,1.54,11.06,6,7,13,0.01,0.02,0.01,0,0,0,0,4,4,9.094212811569303,62.69284437562973,60,,,,,,,,,,,,,,,false,false,false,false,false,false,false,false,false,false,1742,1522,1580,1679,50,65,65,50,1270,1280,1277,1274,1262,1262,1262,1262,0.0,0.0,0.0,0.0,1627.0,1620.2,1620.8,1625.7,4.95,4.42,5.2,4.51,0,0,0,0,-90.8979794386018,9.094209794267,62.69284253707068,0,564.8349,564.85175,0.115068585,0.071969315,-0.97909814,0.9884602,2.2865093,-0.12579958,-1.2233169,2.5962386,331,-34,1472,1509.0,-0.006816637,-7.8141014E-4,0.011211895,0.013144723,0.006861278118828303,0.047108226978954365,-4.26086469293199,6.873226054516819,-8.032136463834279,351.96786353616574,-0.09456077785096409,0.6931152289353578,-0.09448808341849907,-8.505305821327815,0.25590207946072824,7012404.961394078,-28.69732881404535,-26.19701207996923,39.1,NONE,0.0,0.0,0.0,NONE,-1.8071308349592765E-10,-3.213345174016485E-10,0.0,2,10.0,10.47,11.5,10.96,16.587,16.587,5.86,1.5143325,0,2736,4.149,12.0,5.001,81,24.8,OK,15,0,0,0,0,0,65,100,0.0,0,0.0,2949120.0,8.8E-44,0.0,-1.3088189E-33,67,7.3897485E-14,-7.389794E-14,-2.6288216E38,False,False,0,None,4.767423E29,1.0842437E-19,
