Tick#,offsetTime,IMU_ATTI(0):Longitude,IMU_ATTI(0):Latitude,IMU_ATTI(0):numSats,IMU_ATTI(0):barometer:Raw,IMU_ATTI(0):barometer:Smooth,IMU_ATTI(0):accel:X,IMU_ATTI(0):accel:Y,IMU_ATTI(0):accel:Z,IMU_ATTI(0):accel:Composite,IMU_ATTI(0):gyro:X,IMU_ATTI(0):gyro:Y,IMU_ATTI(0):gyro:Z,IMU_ATTI(0):gyro:Composite,IMU_ATTI(0):mag:X,IMU_ATTI(0):mag:Y,IMU_ATTI(0):mag:Z,IMU_ATTI(0):mag:Mod,IMU_ATTI(0):velN,IMU_ATTI(0):velE,IMU_ATTI(0):velD,IMU_ATTI(0):velComposite,IMU_ATTI(0):velH,IMU_ATTI(0):GPS-H,IMU_ATTI(0):roll,IMU_ATTI(0):pitch,IMU_ATTI(0):yaw,IMU_ATTI(0):yaw360,IMU_ATTI(0):totalGyro:Z,IMU_ATTI(0):totalGyro:X,IMU_ATTI(0):totalGyro:Y,IMU_ATTI(0):magYaw,IMU_ATTI(0):distanceHP,IMU_ATTI(0):distanceTravelled,IMU_ATTI(0):directionOfTravel[mag],IMU_ATTI(0):directionOfTravel[true],IMU_ATTI(0):temperature,General:relativeHeight,General:absoluteHeight,GPS(0):Long,GPS(0):Lat,GPS(0):Date,GPS(0):Time,GPS:dateTimeStamp,GPS(0):heightMSL,GPS(0):hDOP,GPS(0):pDOP,GPS(0):sAcc,GPS(0):numGPS,GPS(0):numGLNAS,GPS(0):numSV,GPS(0):velN,GPS(0):velE,GPS(0):velD,RC:Aileron,RC:Elevator,RC:Rudder,RC:Throttle,Controller:navHealth,Controller:ctrl_level,HP:Longitude,HP:Latitude,HP:rthHeight,BatBlackBox:tick,BatBlackBox:id,BatBlackBox:rsoc,BatBlackBox:index,BatBlackBox:rm,BatBlackBox:fcc,BatBlackBox:cell_min,BatBlackBox:cell_max,BatBlackBox:current,BatBlackBox:voltage,BatBlackBox:temp,BatBlackBox:flag,BatBlackBox:reserve,BatBlackBox:user_data,OA:avoidObst,OA:emergBrake,OA:radiusLimit,OA:airportLimit,OA:groundForceLanding,OA:horizNearBoundary,OA:vertLowLimit,OA:vertAirportLimit,OA:roofLimit,OA:hitGroundLimit,Motor:Speed:RFront,Motor:Speed:LFront,Motor:Speed:LBack,Motor:Speed:RBack,Motor:EscTemp:RFront,Motor:EscTemp:LFront,Motor:EscTemp:LBack,Motor:EscTemp:RBack,Motor:PPMrecv:RFront,Motor:PPMrecv:LFront,Motor:PPMrecv:LBack,Motor:PPMrecv:RBack,Motor:PPMsend:RFront,Motor:PPMsend:LFront,Motor:PPMsend:LBack,Motor:PPMsend:RBack,Motor:V_out:RFront,Motor:V_out:LFront,Motor:V_out:LBack,Motor:V_out:RBack,Motor:Volts:RFront,Motor:Volts:LFront,Motor:Volts:LBack,Motor:Volts:RBack,Motor:Current:RFront,Motor:Current:LFront,Motor:Current:LBack,Motor:Current:RBack,Motor:Status:RFront,Motor:Status:LFront,Motor:Status:LBack,Motor:Status:RBack,Motor:thrustAngle,IMU_ATTI(1):Longitude,IMU_ATTI(1):Latitude,IMU_ATTI(1):numSats,IMU_ATTI(1):barometer:Raw,IMU_ATTI(1):barometer:Smooth,IMU_ATTI(1):accel:X,IMU_ATTI(1):accel:Y,IMU_ATTI(1):accel:Z,IMU_ATTI(1):accel:Composite,IMU_ATTI(1):gyro:X,IMU_ATTI(1):gyro:Y,IMU_ATTI(1):gyro:Z,IMU_ATTI(1):gyro:Composite,IMU_ATTI(1):mag:X,IMU_ATTI(1):mag:Y,IMU_ATTI(1):mag:Z,IMU_ATTI(1):mag:Mod,IMU_ATTI(1):velN,IMU_ATTI(1):velE,IMU_ATTI(1):velD,IMU_ATTI(1):velComposite,IMU_ATTI(1):velH,IMU_ATTI(1):GPS-H,IMU_ATTI(1):roll,IMU_ATTI(1):pitch,IMU_ATTI(1):yaw,IMU_ATTI(1):yaw360,IMU_ATTI(1):totalGyro:Z,IMU_ATTI(1):totalGyro:X,IMU_ATTI(1):totalGyro:Y,IMU_ATTI(1):magYaw,IMU_ATTI(1):distanceHP,IMU_ATTI(1):distanceTravelled,IMU_ATTI(1):directionOfTravel[mag],IMU_ATTI(1):directionOfTravel[true],IMU_ATTI(1):temperature,IMUEX(0):err,IMUEX(0):rtk_Longitude,IMUEX(0):rtk_Latitude,IMUEX(0):rtk_Alti,IMUEX(1):err,IMUEX(1):rtk_Longitude,IMUEX(1):rtk_Latitude,IMUEX(1):rtk_Alti,MotorCtrl:Status,MotorCtrl:PWM:RFront,MotorCtrl:PWM:LFront,MotorCtrl:PWM:LBack,MotorCtrl:PWM:RBack,BattInfo:Voltage,BattInfo:BatVoltage,BattInfo:AdVoltage,BattInfo:AvgCurrent,BattInfo:R_time,BattInfo:R_CAP_MAH,BattInfo:LowCellVoltage,BattInfo:LowCellVolThreshold,BattInfo:BatCurrent,BattInfo:Remaining%,BattInfo:Temp,BattInfo:status,battery_info:BatDynCnt,battery_info:Vol1Protect,battery_info:Vol2Protect,battery_info:Cap1Protect,battery_info:Cap2Protect,battery_info:Batpresent,battery_info:sopPercentage,battery_info:sopValue,battery_info:sopScale,battery_info:sopFlg,BattInfo:WindHeading:WindDir,battery_info:home_dir,BattInfo:Wind:rangeMin,BattInfo:Wind:rangeMax,battery_info:cap_speed,battery_info:against_wind,battery_info:emergency_land_cap,battery_info:intel_bat_land_cap,battery_info:intel_bat_gh_cap,BattInfo:Smart:SmartGh,BattInfo:Smart:SmartLand,BattInfo:GoHome:CntDown,BattInfo:GoHome:GhCmd,BattInfo:GoHome:CapLevel,BattInfo:GoHome:LandCapLv,Attribute|Value,ConvertDatV3,3.6.6-Tablet
250767230,.000,10.465214995178743,63.40477102786123,19,23.289406,23.179901,0.047615938,-0.042649083,-0.97939605,0.9814799,0.3395572,0.037479162,0.07223629,0.3491731,19,-311,1453,1486.0,-0.0075352294,-0.04019252,-0.024715483,0.047781516,0.04089276469592071,-0.04089276469592071,2.4609441456422747,2.892992751575827,92.30906195290626,92.30906195290629,2.6303306670499675,4.539930966673172,-0.11848740782342804,76.21079817609683,2.490084204596446,1.694950500423821,-100.17977919734358,-96.99367993139613,45.98,,,10.4652161,63.4047709,20190429,112944,2019-04-29T11:29:44Z,161.539,0.59,1.12,6.55,12,7,19,0.0,0.01,0.01,-9993,-9989,9985,-9997,5,5,10.465166663583517,63.40476525622172,50,304536,114,0,92,-85,3534,3565,3597,-1622,14349,42,3546,14343,0,false,false,false,false,false,false,false,false,false,false,0,0,0,0,49,63,62,48,945,946,945,946,940,940,940,940,0.0,0.0,0.0,0.0,1635.5,1631.2,1630.0,1635.5,0.0,0.0,0.0,0.0,0,0,0,0,-45.0,10.46521501454236,63.40477031621091,0,22.996109,22.925348,0.048536487,-0.042805437,-0.9799904,0.9821249,0.21583152,0.018299384,0.113280356,0.24443926,19,-311,1453,1486.0,-0.0022906524,-0.0027747764,0.0013833399,0.00385488,0.0035981205570156305,-0.0035981205570156305,2.3898666246351503,3.3940563206405048,73.27423762254601,73.27423762254602,2.413926119334908,4.347776508783987,-0.30736393970326065,74.33246966121779,2.471811184899162,2.087925801469804,-102.10446711325318,-98.91836784730573,45.94,NONE,0.0,0.0,0.0,NONE,-2.12217183939546E-10,-8.489165849944207E-11,-3.8146973E-6,,,,,,16.457,16.457,5.877,1.2969116,0,2874,4.112,12.0,1.317,78,28.7,OK,61,0,0,0,0,0,65,100,0.0,0,0.0,-2.7571426E23,2.68E-43,0.0,-5.9807744E7,62,5.49322E-5,-5.4932443E-5,8.254599E-31,False,False,0,None,3.85138E32,1.0842106E-19,Firmware Date| Oct 17 2018
254621158,1.002,10.465214839600227,63.404770910095415,19,23.218065,23.18582,0.040495146,-0.058491796,-0.9910658,0.9936159,-0.01387597,1.2349174,-0.6919844,1.4156468,28,-317,1459,1493.0,-0.008082985,-0.004939335,-0.0059264097,0.011173809,0.00947268026080972,0.005716510169832241,2.4511142129348795,2.859396454361108,92.33297912365418,92.33297912365418,2.088137773802387,4.823871950054469,0.1443644984919255,75.22255942340284,2.479249014648145,1.7228583054806104,-95.46562061911564,-92.27952135316819,46.26,0.2683792618408205,,10.4652158,63.404771,20190429,112945,2019-04-29T11:29:45Z,161.537,0.59,1.12,6.51,12,7,19,0.02,0.0,0.0,0,0,0,0,5,5,10.465166663583517,63.40476525622172,50,304536,114,0,92,-85,3534,3565,3597,-1622,14349,42,3546,14343,0,false,false,false,false,false,false,false,false,false,false,301,291,295,323,53,67,66,52,1372,1381,1377,1375,1362,1362,1362,1362,0.1,0.1,0.1,0.1,1619.0,1614.1,1614.1,1618.4,7.57,7.02,7.74,7.18,0,0,0,0,-55.61965527615513,10.465214935155943,63.40477029316919,0,23.218065,22.926079,0.049181342,-0.018576771,-0.97904354,0.9804541,0.3566773,-0.048293926,1.8345666,1.8695415,28,-317,1453,1487.0,-0.0032858856,0.0025044957,0.0013133388,0.0043352507,0.004131530234916187,5.706137573232833E-4,2.3998117697427936,3.367415601443597,73.26777520325821,73.26777520325822,2.126863086721703,4.463690217258186,-0.22421719618447863,73.41559284330926,2.4673803636565976,2.1202436927268073,82.301712561763,85.48781182771044,46.25,NONE,0.0,0.0,0.0,NONE,1.8852121760243462E-10,-1.265887143729179E-10,7.6293945E-6,1,22.5,22.5,22.5,22.5,16.446,16.446,5.806,1.2994756,0,2874,4.112,12.0,1.323,78,28.7,OK,62,0,0,0,0,0,65,100,0.0,0,0.0,-2.728458E23,2.68E-43,0.0,-5.9807744E7,62,5.49322E-5,-5.4932443E-5,8.605359E-31,False,False,0,None,4.10184E32,1.0842106E-19,ACType|MavicEnterprise
258578459,2.030,10.46521437511313,63.40477107150801,19,23.218065,23.182632,0.046829853,-0.038725488,-0.98192066,0.9837992,-0.9439233,1.1081736,-1.5671011,2.138889,36,-311,1456,1489.0,-0.01227269,-0.012833715,-0.001411452,0.017813347,0.01775734160804217,0.01070278666647188,2.492466536925958,2.8366746208209177,92.04755455350528,92.04755455350528,0.5644653370128019,5.431331363995206,0.16367085725262204,73.99649711611879,2.461543313239746,1.767677274052182,-115.23573703161631,-112.04963776566886,46.61,0.2683792618408205,,10.4652156,63.404771,20190429,112946,2019-04-29T11:29:46Z,161.531,0.59,1.12,6.47,12,7,19,0.0,0.02,0.01,0,0,0,0,5,5,10.465166663583517,63.40476525622172,50,304566,114,0,94,-80,3552,3546,3581,-1627,14276,42,3543,14270,0,false,false,false,false,false,false,false,false,false,false,2040,1973,2050,2081,52,65,66,52,1207,1207,1215,1215,1204,1200,1202,1204,0.0,0.0,0.0,0.0,1632.5,1625.1,1626.4,1631.8,0.61,0.18,0.77,0.36,0,0,0,0,-39.70991879462872,10.465214639129398,63.4047704121644,0,23.218065,22.919079,0.045463685,-0.03890863,-0.98368293,0.98550135,-2.313339,1.264851,0.1164519,2.6391187,36,-311,1456,1489.0,-0.011802434,-0.012995724,0.006605998,0.018757012,0.017555235158562943,0.0017011684143047427,2.447278719253435,3.38027288316991,73.02106653942246,73.02106653942246,2.549355695076834,5.565987091844281,1.845928870216795,72.03236626154654,2.4560859109280244,2.164216865780458,102.58453480931576,105.7706340752632,46.61,NONE,0.0,0.0,0.0,NONE,-1.3990337543781775E-9,-6.826136010844546E-10,4.196167E-5,2,10.48,10.0,10.85,11.16,16.324,16.324,5.855,1.3677784,0,2873,4.112,12.0,4.554,78,28.8,OK,63,0,0,0,0,0,65,100,0.0,0,0.0,-9.79559E23,2.68E-43,0.0,-5.9807744E7,62,5.49322E-5,-5.4932443E-5,8.396395E-31,False,False,0,None,3.952594E32,1.0842106E-19,dateTime|2019-4-29 11:29:19 GMT
262475933,3.043,10.465214501523961,63.404771165007155,19,23.218065,23.177948,0.04437271,-0.042579267,-0.9836131,0.98553365,1.9556528,-3.4874344,-5.543735,6.8351865,39,-311,1456,1489.0,-0.020743458,-0.035292245,0.00267273,0.041024104,0.04093694662173275,-0.02893941847671195,2.4640482681098517,2.8628904388919136,91.99312280922048,91.9931228092205,0.4130553719090157,4.919155520787501,0.3044259833842975,73.44943745011267,2.4703603997434223,1.8040656098642078,7.819484863308537,11.005584129255988,46.92,0.2683792618408205,,10.4652154,63.4047712,20190429,112947,2019-04-29T11:29:47Z,161.546,0.59,1.12,6.44,12,7,19,0.0,0.0,0.0,0,0,0,0,5,5,10.465166663583517,63.40476525622172,50,304566,114,0,94,-80,3552,3546,3581,-1627,14276,42,3543,14270,0,false,false,false,false,false,false,false,false,false,false,2035,1973,2067,2088,51,67,66,52,1209,1207,1212,1216,1203,1200,1204,1206,0.0,0.0,0.0,0.0,1628.8,1626.4,1623.9,1628.8,0.6,0.22,0.71,0.3,0,0,0,0,-29.450195830298412,10.46521438136677,63.404770527976595,0,23.218065,22.788607,0.05180891,-0.04419391,-0.97240126,0.97478276,0.12178953,2.3368828,5.128987,5.6375847,39,-311,1456,1489.0,-0.02644527,-0.05335893,0.09427798,0.11151172,0.059552731421052295,-0.041605701712844625,2.4899313012247295,3.468781532030474,73.02044790467146,73.02044790467147,3.1264100716163616,4.900413882925715,3.3180020431561372,71.36270154599107,2.4466640958967583,2.203408563229999,-103.44569007019768,-100.25959080425024,46.95,NONE,0.0,0.0,0.0,NONE,-7.689154250776814E-9,-1.6226044798490853E-9,4.043579E-4,2,10.09,10.0,11.22,11.54,16.403,16.403,5.856,1.5549573,0,2872,4.068,12.0,2.179,78,28.8,OK,64,0,0,0,0,0,65,100,0.0,0,0.0,-2.4427179E24,2.68E-43,0.0,-5.9807744E7,62,5.49322E-5,-5.4932443E-5,8.5162845E-31,False,False,0,None,4.0381604E32,1.0842106E-19,geoDeclination|319 degrees
266332742,4.045,10.46521458261653,63.40477099909354,19,23.218065,23.201866,-0.015075125,0.015327263,-0.7714347,0.77173424,-0.8284283,4.633408,-6.247256,7.8219543,258,-360,1417,1484.0,-0.1491803,0.1381778,0.01765887,0.20410708,0.20334173523892735,-0.18450109900223524,-0.29857694158067577,-5.398896843987443,91.10522205644241,91.10522205644241,-2.9840434348270835,2.946879121832499,-7.145597028134895,70.71826275159734,2.469417124194735,1.8798751209789217,139.41508178607256,142.60118105202002,47.2,0.2683792618408205,,10.4652156,63.4047711,20190429,112948,2019-04-29T11:29:48Z,161.579,0.59,1.12,6.42,12,7,19,-0.08,0.06,-0.03,0,0,0,0,5,5,10.465166663583517,63.40476525622172,50,304626,114,0,96,-87,3573,3502,3543,-1649,14100,42,3556,14101,0,false,false,false,false,false,false,false,false,false,false,4614,4631,3570,3464,51,66,67,51,1443,1525,1297,1295,1415,1445,1366,1364,0.0,0.0,0.0,0.0,1620.2,1610.4,1615.9,1622.0,2.54,2.42,0.93,0.96,0,0,0,0,176.81586419294817,10.465215101926715,63.404770391466144,0,23.218065,22.88067,-0.10537818,-0.06553494,-0.9597174,0.96770704,37.310955,40.510036,-30.370552,62.89309,258,-363,1417,1485.0,-0.093659066,0.16749355,0.15318964,0.2455467,0.19190130634335337,-0.15304406214437954,1.5687418847649826,-2.220605617674203,71.01716912632196,71.01716912632196,3.0057987599152844,4.259942475235205,-2.031397558506936,63.15273980125098,2.4779621079117966,2.2861815144339235,110.0010021546298,113.18710142057725,47.24,NONE,0.0,0.0,0.0,NONE,-3.831720007044572E-9,-9.410617350480363E-10,1.449585E-4,2,54.44,10.0,31.11,46.99,16.395,16.395,5.782,1.7672107,0,2871,4.101,12.0,1.899,78,28.8,OK,65,0,0,0,0,0,65,100,0.0,0,0.0,-2.4751103E24,2.68E-43,0.0,-5.9807744E7,62,5.49322E-5,-5.4932443E-5,8.360766E-31,False,False,0,None,3.927043E32,1.0842106E-19,geoInclination|7478 degrees
270182649,5.046,10.465217073642851,63.40477052891169,19,23.218065,23.359983,0.015833516,0.0289644,-0.93674254,0.937324,-2.4250152,-1.791591,-2.2781386,3.7789433,108,-395,1432,1489.0,-0.03542128,0.11627634,-0.36955172,0.3890287,0.12155185462852122,0.012945763006735778,-1.153398468423859,1.0171657300031502,90.60711645862858,90.60711645862858,0.8962776384839352,6.355543000147198,1.4523044748892497,69.9596375954161,2.5770065688917905,2.024078525563879,75.97546953910663,79.16156880505407,47.51,0.2683792618408205,,10.465218,63.4047702,20190429,112949,2019-04-29T11:29:49Z,161.811,0.59,1.12,6.39,12,7,19,-0.07,0.16,-0.3,0,0,0,0,5,5,10.465166663583517,63.40476525622172,50,304626,114,0,96,-87,3573,3502,3543,-1649,14100,42,3556,14101,0,false,false,false,false,false,false,true,false,false,false,5773,5491,4423,4603,50,65,64,50,1582,1551,1422,1455,1572,1531,1407,1449,0.0,0.0,0.0,0.0,1604.9,1598.7,1598.7,1604.3,4.95,4.19,3.08,2.71,0,0,0,0,-168.33603013999652,10.465216931468538,63.40476968906272,0,23.268736,23.013885,0.0148005085,0.03344647,-0.95073515,0.9514384,-4.0582066,2.0197992,1.821381,4.88529,108,-401,1423,1482.0,-0.072821796,0.106502146,-0.26955602,0.2988414,0.12901830138084275,-0.009108515796128938,-1.514082200450265,1.596450661871071,71.61375808823479,71.61375808823482,1.8709480045579614,2.57627419568274,0.4589131865428518,67.84870480669701,2.5504330214942925,2.4535990807352173,111.36695778968793,114.55305705563538,47.51,NONE,0.0,0.0,0.0,NONE,8.782368596944002E-9,-8.345434760072702E-10,-0.002193451,2,54.9,52.45,38.52,39.86,16.336,16.336,5.756,1.983094,0,2870,4.101,12.0,5.063,78,28.8,OK,66,0,0,0,0,0,65,100,0.0,0,0.0,7.537801E21,2.68E-43,0.0,-5.9807744E7,62,5.49322E-5,-5.4932443E-5,1.1421152E-32,False,False,0,None,2.2808078E29,1.0842106E-19,geoIntensity|5185039 nanoTesla
274037561,6.048,10.465219977111786,63.4047700329597,19,23.902847,23.792614,0.027617237,0.024456307,-0.7526366,0.7535401,-1.8307092,1.6921064,-1.1330177,2.7383296,82,-453,1408,1481.0,0.04321401,0.10237463,-0.5354012,0.5468112,0.11112162193446103,0.04328777302708996,-3.473130771086365,2.066507018340176,90.75611154566357,90.75611154566354,-0.17481292363882295,3.403301683686286,1.759494635172858,69.98830611439118,0.2636232256888175,2.1964142422264334,77.05034739023104,80.23644665617849,47.8,0.9531612900390627,,10.4652211,63.4047702,20190429,112950,2019-04-29T11:29:50Z,162.34,0.59,1.12,6.37,12,7,19,0.06,0.14,-0.58,0,0,0,0,5,5,10.46521476608481,63.40477045531407,50,304686,114,0,98,-72,3615,3448,3497,-1666,13915,42,3588,13907,0,false,false,false,false,false,false,true,false,false,false,5168,5084,3820,4191,50,66,66,51,1498,1491,1361,1387,1487,1479,1354,1378,0.0,0.0,0.0,0.0,1612.2,1609.1,1608.5,1613.5,3.3,2.6,1.34,1.28,0,0,0,0,-168.5229962582116,10.465219816267533,63.40476913122786,0,24.04237,23.602457,0.031276915,0.026864406,-0.7699254,0.7710286,2.4264534,6.4717064,1.4221436,7.056426,85,-453,1411,1484.0,0.036207303,0.07554404,-0.46658802,0.4740488,0.08377273084738589,0.0723642157955298,-3.225290842587569,2.8461329929337134,71.78020701661455,71.78020701661455,1.3261688619747236,2.605947569210039,2.4619675423201097,67.28359467050558,0.2913397186824043,2.6161859542147767,101.39165621155537,104.57775547750282,47.83,NONE,0.0,0.0,0.0,NONE,7.64549854382924E-9,1.5503539336160904E-9,-0.0025348663,2,48.49,46.24,30.13,34.63,16.206,16.206,5.794,2.3557355,0,2868,4.066,12.0,7.568,78,28.8,OK,67,0,0,0,0,0,65,100,0.0,0,0.0,-9.5275654E-36,2.68E-43,0.0,1.05007105E-23,63,1.1118129E-4,-8.000482E-5,1.9924446E-32,False,False,0,None,5.5901697E29,1.5647363E-19,mcID(SN)|298DG13001W644
277893473,7.050,10.465222163793403,63.404771100589166,19,24.256695,23.84648,0.048468914,0.03675297,-0.9953905,0.9972473,1.5168976,-3.9672139,2.704908,5.035503,28,-412,1420,1478.0,0.086708665,0.025019275,0.0748587,0.11725264,0.09024608750725753,0.07047717249958031,-1.869868056157714,3.728104194128628,90.73147866614079,90.73147866614079,2.2244500705791124,7.77434604848432,1.9732769369440761,71.66655260584066,0.3751847198678604,2.3631633985826923,39.76389476987724,42.94999403582469,48.1,1.307008793701172,,10.465223,63.4047711,20190429,112951,2019-04-29T11:29:51Z,162.418,0.59,1.12,6.31,12,7,19,0.09,0.02,-0.1,0,0,0,0,5,5,10.46521476608481,63.40477045531407,50,304716,114,0,99,-40,3661,3416,3471,-1677,13779,42,3615,13772,0,false,false,false,false,false,false,true,false,false,false,6000,5856,4215,4485,51,65,66,51,1603,1582,1405,1460,1586,1565,1402,1443,0.0,0.0,0.0,0.0,1600.0,1594.4,1593.8,1600.0,5.16,4.4,2.88,2.83,0,0,0,0,-172.52668533043945,10.465222530212792,63.404770279019104,0,23.975842,23.63672,0.049745366,0.03433077,-0.99787885,0.99970764,-4.178758,0.44847006,-3.6805775,5.586573,22,-418,1414,1474.0,0.02037119,0.0030808002,0.02684938,0.033843253,0.020602832078601696,0.16485426584254972,-1.9972748123924742,4.135217870138929,71.60874775361059,71.6087477536106,4.873387963428792,7.462065794806958,4.6826774785003025,71.27531968518338,0.3869971259835937,2.80701122165039,72.58625575655924,75.77235502250669,48.14,NONE,0.0,0.0,0.0,NONE,5.616167407081179E-9,3.560914760358446E-9,-1.7547607E-4,2,58.37,57.45,34.64,38.03,16.204,16.204,5.737,2.961875,0,2866,4.038,12.0,7.505,78,28.8,OK,68,0,0,0,0,0,65,100,0.0,0,0.0,-76.7168,2.68E-43,0.0,1.05007105E-23,63,1.1413172E-4,-8.14819E-5,2.3145488E-32,False,False,0,None,7.716235E29,1.5875003E-19,mcVer|v3.4.1.6
281790817,8.063,10.465221199317588,63.40477181570162,19,24.007315,23.888113,0.04351526,0.03839531,-1.0049167,1.006591,2.3426995,-1.4886738,3.1689827,4.2127004,59,-418,1417,1478.0,0.06831147,-0.08240064,-0.10673525,0.15115799,0.10703420913392526,-0.015329984563555138,-2.0832572192882024,2.8267369657556034,90.35811002640226,90.35811002640224,1.8361147457464029,7.1487693208132725,-0.372263163966079,70.52377837624111,0.35417629184746,2.469483190515412,-19.20650216256895,-16.020402896621498,48.43,1.0576286820068361,,10.4652222,63.4047717,20190429,112952,2019-04-29T11:29:52Z,162.442,0.59,1.12,6.26,12,7,19,0.05,-0.06,-0.05,0,0,0,0,5,5,10.46521476608481,63.40477045531407,50,304746,114,0,100,-29,3686,3376,3440,-1690,13650,42,3661,13643,0,false,false,false,false,false,false,true,false,false,false,5966,5803,4204,4422,51,66,65,51,1598,1574,1411,1446,1586,1557,1399,1436,0.0,0.0,0.0,0.0,1599.3,1594.4,1595.0,1599.3,5.01,4.04,2.96,2.74,0,0,0,0,-173.08822846681466,10.46522181735376,63.40477107809754,0,24.20567,23.569092,0.042717878,0.033616826,-1.0126878,1.0141457,1.4975933,-1.9496294,4.622148,5.235274,48,-418,1417,1478.0,-0.027314387,-0.06079539,-0.050240666,0.08346424,0.06664949633099666,0.027809442162901266,-1.8408828418563026,3.091202319632297,71.22863793866159,71.22863793866156,4.237022060224373,6.646927276791683,3.1359606442507206,71.43507584793231,0.35777987967696434,2.9143839219204737,-26.98421175630774,-23.79811249036029,48.39,NONE,0.0,0.0,0.0,NONE,-5.92832657611937E-9,-1.222433066046852E-9,-2.3460388E-4,2,58.99,54.88,36.94,35.7,16.144,16.144,5.738,3.7200868,0,2864,4.038,12.0,7.666,78,28.8,OK,69,0,0,0,0,0,65,100,0.0,0,0.0,-6.5464324E20,2.68E-43,0.0,1.05007105E-23,63,1.07960775E-4,-7.83955E-5,2.189589E-32,False,False,0,None,6.6009284E29,1.5399209E-19,
285715063,9.083,10.465219326668151,63.40477297874568,19,24.123789,23.921705,0.048825912,-0.014285111,-0.9807808,0.98209924,7.993835,-0.70703995,-0.49951285,8.040573,53,-340,1447,1487.0,0.19449326,-0.07772289,-0.035004817,0.21235305,0.20944803266584822,-0.05313685023162262,1.785759040600446,3.10831502576062,90.40356424849797,90.40356424849796,4.836476103616006,13.146098812685366,0.5095953437135597,71.23583877116553,0.3609343183406977,2.6337626404785204,-35.442819425388194,-32.25672015944074,48.71,1.1741028336181643,,10.4652203,63.4047727,20190429,112953,2019-04-29T11:29:53Z,162.557,0.59,1.12,6.2,12,7,19,0.19,-0.06,-0.09,0,0,0,0,5,5,10.46521476608481,63.40477045531407,50,304776,114,0,101,-38,3692,3329,3405,-1712,13496,42,3686,13487,0,false,false,false,false,false,false,true,false,false,false,5884,5828,4329,4044,53,66,66,54,1587,1585,1432,1404,1579,1565,1409,1397,0.0,0.0,0.0,0.0,1598.1,1593.2,1593.2,1599.3,4.78,4.46,3.4,1.91,0,0,0,0,176.07660393983844,10.465219078365092,63.404772273685744,0,23.87013,23.623014,0.051900797,-0.016714204,-0.9858206,0.98732734,8.134154,-1.3535146,1.639516,8.407406,48,-346,1444,1485.0,0.12903143,-0.09745953,-0.016814945,0.16257371,0.16170179305807564,0.025016284689716367,1.680670550147535,3.3262244615720467,71.1992183485274,71.19921834852738,8.53921590308283,13.764294581069459,3.8855344114367374,71.34273490828822,0.2948965413447253,3.116168238408155,-29.96941178679716,-26.78331252084971,48.7,NONE,0.0,0.0,0.0,NONE,-9.120479659199022E-9,5.026567412887561E-9,-1.335144E-4,2,56.31,55.92,38.47,34.86,16.134,16.134,5.74,4.518315,0,2862,4.023,12.0,7.576,78,28.9,OK,70,0,0,0,0,0,65,100,0.0,0,0.0,3.188497E-26,2.69E-43,0.0,1.05007105E-23,63,1.1289865E-4,-8.08635E-5,2.0125314E-32,False,False,0,None,5.679727E29,1.5779712E-19,
289565327,10.083,10.465217648414121,63.40477386221523,19,24.171158,23.969517,0.044888876,-0.036029972,-0.9957753,0.9974375,-1.7563635,0.26052317,-1.8743238,2.5818162,68,-308,1453,1486.0,0.048890475,-0.07730402,-0.07472995,0.11811332,0.09146687868873844,0.037405217728359794,2.347157603501792,2.294339579285344,90.61712402153361,90.61712402153364,5.390040995549171,12.75402245810756,-0.22066704916773158,71.12476527761078,0.40509216466403986,2.763599674742764,-38.05945539899187,-34.87335613304442,49.03,1.2214718369140627,,10.4652186,63.4047739,20190429,112954,2019-04-29T11:29:54Z,162.601,0.59,1.12,6.14,12,7,19,0.07,-0.08,-0.06,0,0,0,0,5,5,10.46521476608481,63.40477045531407,50,304806,114,0,102,-50,3694,3272,3364,-1732,13282,42,3692,13271,0,false,false,false,false,false,false,true,false,false,false,5766,5999,4356,4106,52,66,67,52,1565,1599,1433,1410,1553,1576,1430,1399,0.0,0.0,0.0,0.0,1597.5,1592.0,1592.6,1598.1,4.57,4.54,3.08,1.99,0,0,0,0,171.68056301887896,10.46521801531609,63.40477350047075,0,24.073357,23.634905,0.04818795,-0.02812196,-0.9970096,0.9985695,0.71817344,-3.747011,1.2765388,4.02311,65,-305,1456,1489.0,0.022933207,-0.05318464,-0.033666562,0.06699236,0.057918373589539315,0.08830135277360744,2.2910056987090766,2.461424080792771,71.4457501198546,71.44575011985461,9.155509157858242,13.712910923758981,2.762596827152799,70.72950660731148,0.37525495705554546,3.263228009410001,-24.696682516844394,-21.510583250896943,49.04,NONE,0.0,0.0,0.0,NONE,-5.529859165628176E-9,1.0590917156736904E-9,-1.5640259E-4,2,53.86,58.0,39.47,33.45,16.12,16.12,5.735,5.2717566,0,2860,4.024,12.0,7.28,78,28.9,OK,71,0,0,0,0,0,65,100,0.0,0,0.0,4.4730886E-12,2.69E-43,0.0,1.05007105E-23,63,1.1399202E-4,-8.141112E-5,2.2776101E-32,False,False,0,None,7.38644E29,1.5864085E-19,
293579754,11.127,10.465216730428635,63.40477371431262,19,25.048527,24.94967,0.047809623,-0.033727884,-0.6644568,0.66702783,-0.10995601,-0.5594866,-6.811086,6.8349113,30,-314,1444,1478.0,-0.007303361,-0.011352823,-1.2426908,1.2427641,0.01349909902575754,0.033050663457304924,2.3204314315727763,3.927500105690601,90.68480908635702,90.684809086357,3.338482529080699,11.224588618893495,2.51242387196487,71.03827616674687,0.3753455091933426,2.851157613789519,-118.3834391784985,-115.19733991255106,49.35,2.098840763916016,,10.4652178,63.4047737,20190429,112955,2019-04-29T11:29:55Z,163.473,0.59,1.12,6.12,12,7,19,-0.12,0.05,-1.05,0,0,0,3673,5,5,10.46521476608481,63.40477045531407,50,304836,114,0,103,-66,3692,3194,3313,-1767,13028,43,3694,13025,0,false,false,false,false,false,false,true,false,false,false,4909,5173,3848,3719,52,66,66,52,1495,1517,1369,1385,1492,1501,1363,1379,0.0,0.0,0.0,0.0,1603.0,1597.5,1596.9,1601.8,3.78,3.64,2.46,2.19,0,0,0,0,171.11864589187758,10.465216819921418,63.40477347098248,0,25.275267,24.730278,0.048802655,-0.03340288,-0.7268929,0.72929466,-2.6647708,-2.0202143,-3.0856593,4.550117,19,-311,1447,1480.0,-0.020413969,0.015352971,-1.027535,1.0278524,0.025542980452816482,0.03157914791737172,2.5857370537019477,3.877212655562403,71.43446197446946,71.43446197446946,10.750491736219166,14.291574208513365,3.3136606781506157,72.88739121329931,0.3505671663865398,3.398513383858674,-9.429957374948414,-6.243858109000962,49.41,NONE,0.0,0.0,0.0,NONE,8.920745357217753E-10,-2.6036894541722713E-9,-0.008319855,2,46.95,49.23,31.8,31.98,16.083,16.083,5.75,5.9468136,0,2858,4.019,12.0,8.503,78,28.9,OK,72,0,0,0,0,0,65,100,0.0,0,0.0,2.2535096E-7,2.69E-43,0.0,1.05007105E-23,63,3.2743812E-4,-1.3068788E-4,2.6752568E-32,False,False,0,None,9.99772E29,2.3905688E-19,
297460245,12.135,10.465216895039232,63.404773341162816,19,26.373463,26.216705,0.042268086,-0.038995914,-0.7795433,0.7816617,77.09933,-6.522307,6.2800584,77.62916,7,-14,1499,1499.0,-0.18876262,-0.045031935,-0.2797271,0.34045035,0.19405978916566125,-0.1521234010296144,19.73491776546134,3.617396502513321,90.01081980853296,90.01081980853297,4.342771921651452,26.85438142715498,4.323243555501174,79.55809921506244,0.3379397104879787,2.9427917459668502,-144.11011078421527,-140.9240115182678,49.62,3.4237766770019533,,10.4652177,63.4047734,20190429,112956,2019-04-29T11:29:56Z,164.905,0.59,1.12,6.09,12,7,19,-0.12,-0.06,-1.34,9948,0,0,0,5,5,10.46521476608481,63.40477045531407,50,304836,144,0,104,-67,3692,3193,3312,-1763,13027,43,774,13010,0,false,false,false,false,false,false,true,false,false,false,5546,5431,4233,4415,52,68,68,53,1583,1517,1401,1473,1565,1579,1433,1430,0.0,0.0,0.0,0.0,1588.9,1585.2,1584.0,1590.2,6.27,3.06,2.08,5.12,0,0,0,0,-172.73272066292506,10.465216871640687,63.404772618007385,0,26.686914,25.92184,0.044052128,-0.027619217,-0.89126796,0.8927833,36.734047,-13.945178,7.8042836,40.05952,28,136,1511,1517.0,-0.39537853,0.13196726,-0.12513252,0.43519843,0.4168207499593831,-0.32274107971675947,22.923662933685794,2.518975285566343,70.84153360338954,70.84153360338951,10.9711879816278,36.5477752716915,0.03344664267017783,78.83177691105982,0.2623301192922485,3.5523690867481488,159.47129475109546,162.65739401704292,49.63,NONE,0.0,0.0,0.0,NONE,3.723554294944551E-9,-4.960274107961371E-9,-0.0019226074,2,54.71,61.08,41.37,38.11,16.039,16.039,5.757,6.5753083,0,2855,3.975,12.0,9.238,78,28.9,OK,73,0,0,0,0,0,65,100,0.0,0,0.0,2.2900713E-7,2.69E-43,0.0,1.05007105E-23,63,0.0012430251,-2.5303857E-4,3.5951892E-32,False,False,0,None,1.552841E30,4.2078515E-19,
301374802,13.153,10.465211424508032,63.404752070740805,19,26.623129,26.280546,0.03773459,-0.110310346,-1.0580713,1.064475,10.029436,-1.4671253,-3.2871804,10.655872,28,277,1478,1503.0,-4.050007,-0.51820457,-0.10567799,4.084392,4.083024746399649,-1.7428973129547387,24.36745656791665,3.2190098845009674,98.2858426632898,98.28584266328983,4.8345013614763594,33.183585867177676,4.55100361327361,72.90016715596411,2.0510279324568432,5.344336181805468,177.6760904534001,-179.13781028065245,49.93,3.673442890991211,,10.465215,63.4047588,20190429,112957,2019-04-29T11:29:57Z,165.078,0.59,1.12,6.07,12,7,19,-3.0,-0.28,-0.33,8177,0,0,0,5,5,10.46521476608481,63.40477045531407,50,306839,16,0,105,-60,3699,3293,3385,0,13362,34,1,17547,0,false,false,false,false,false,false,true,false,false,false,6086,6667,5043,4751,54,68,67,53,1592,1664,1494,1517,1578,1630,1506,1510,0.0,0.0,0.0,0.0,1585.2,1579.1,1579.7,1583.4,4.91,5.78,3.44,3.48,0,0,0,0,163.56224855095138,10.465216858310969,63.40475259502591,0,26.7859,25.896067,0.047278717,-0.114995755,-1.047542,1.054895,-7.865591,-1.4138321,4.648573,9.245306,30,277,1478,1504.0,-3.9442475,0.5266557,-0.00855396,3.9792624,3.979253012367772,-1.7908247263946868,23.85450280266014,3.144398304575712,83.49380077811584,83.49380077811583,12.025807934642982,40.16812442563893,0.8353707377183069,72.24902970871905,1.9887025978717172,5.842708482540196,-166.660678186147,-163.47457892019955,49.94,NONE,0.0,0.0,0.0,NONE,6.085896986547784E-8,-1.2632957160592272E-7,4.272461E-4,2,57.34,67.52,49.21,42.57,16.03,16.03,5.684,7.1402,0,2853,3.961,12.0,7.379,78,29.0,OK,74,0,0,0,0,0,65,100,0.0,0,0.0,1.07609455E-32,2.66E-43,0.0,1.05007105E-23,63,0.0012345612,-2.519806E-4,3.634366E-31,False,False,0,None,8.909702E31,4.1996459E-19,
305299959,14.173,10.465201949321433,63.40470838201149,19,27.022432,26.373907,0.01822676,-0.08642269,-1.0521597,1.0558603,-3.1880941,12.161914,44.97976,46.703907,-112,-955,1143,1493.0,-3.7584636,-0.25304154,-0.042580485,3.7672126,3.7669720911298987,1.0175223746372741,-24.021189868340098,8.345058357904813,117.42358984801666,117.42358984801666,19.275491768788584,-13.155044685051735,3.1230878049005257,76.57776047296811,6.931662068706551,10.227550787212575,-178.95143008559248,-175.76533081964502,50.27,4.072746327270508,,10.4652043,63.4047155,20190429,112958,2019-04-29T11:29:58Z,165.241,0.59,1.12,6.06,12,7,19,-5.39,-0.66,-0.21,0,0,9998,0,5,5,10.46521476608481,63.40477045531407,50,306839,18,0,106,-64,3718,3328,3416,2687,13497,34,1,13663,0,false,false,false,false,false,false,true,false,false,false,5827,6121,4777,3619,53,69,68,53,1575,1612,1474,1394,1581,1611,1476,1397,0.0,0.0,0.0,0.0,1585.2,1581.6,1580.9,1585.8,5.22,5.06,4.06,2.27,0,0,0,0,157.7660521954888,10.465201810434628,63.404708533631755,0,27.212236,26.020594,0.0125474855,-0.09628052,-1.0312376,1.0357984,-1.9909173,15.220052,49.124283,51.46658,-72,-958,1146,1495.0,-4.0768785,-0.2821628,-0.035749216,4.0867877,4.086631351295539,0.7719010004982882,-23.98921020057933,7.433942991004397,110.96405882509501,110.96405882509498,26.23271381103833,-4.962801710787169,-2.220588138753687,74.37691588411835,6.915515761824359,10.84351578554242,-168.34593543481873,-165.15983616887127,50.24,NONE,0.0,0.0,0.0,NONE,7.558770173402474E-9,-2.129962222160633E-7,-5.340576E-4,2,56.6,60.33,43.69,30.48,15.994,15.994,5.701,7.603196,0,2851,3.995,12.0,9.579,78,29.0,OK,75,0,0,0,0,0,65,100,0.0,0,0.0,-7.852876E-15,8.5E-44,0.0,1.05007105E-23,63,0.0014152229,-2.745633E-4,3.4920172E-27,False,False,0,None,-4.15412E-40,4.4105606E-19,
309149350,15.173,10.465198961566651,63.40469345884649,19,27.17491,26.498423,-0.0051760795,-0.06646862,-0.99137515,0.9936144,11.603447,-15.517917,59.80041,62.861237,-417,-97,1420,1483.0,-0.12753683,-0.107550725,-0.1096048,0.19961466,0.16683165882137532,1.498468838824167,1.7630840696438812,3.8353227420684997,172.70500662693738,172.70500662693735,76.71837817888965,-2.10072047396262,-10.226263844741926,156.36137774282716,8.597689236261344,11.90078089591433,-144.85965635210715,-141.6735570861597,50.65,4.225223591674805,,10.4651985,63.4046938,20190429,112959,2019-04-29T11:29:59Z,165.362,0.59,1.12,6.06,12,7,19,-0.46,-0.19,-0.13,0,0,9998,0,5,5,10.46521476608481,63.40477045531407,50,306841,114,0,107,-63,3718,3336,3423,3593,13535,34,3692,13541,0,false,false,false,false,false,false,true,false,false,false,5545,5905,4798,4469,53,70,70,52,1550,1574,1483,1437,1537,1562,1477,1434,0.0,0.0,0.0,0.0,1590.8,1587.7,1587.0,1592.6,4.06,3.96,3.78,2.04,0,0,0,0,162.48322490977108,10.465195836370137,63.4046927908774,0,27.180855,25.970854,-0.0015397515,-0.063257396,-0.99864286,1.0006455,13.800192,-20.554976,59.613216,64.54989,-434,-129,1411,1481.0,-0.11879905,-0.038414273,-0.0068485113,0.1250431,0.12485540117817467,1.6499609057344795,0.844403884933003,3.7411517400293666,171.62885151212663,171.62885151212663,81.84752266548512,3.600124780999198,-19.594778960897912,156.2959438193793,8.687151440897352,12.637234571225124,-132.48444244034323,-129.29834317439577,50.63,NONE,0.0,0.0,0.0,NONE,-1.1273563266533494E-8,-3.154357358665385E-8,-3.2424927E-5,2,52.28,57.13,43.27,39.08,15.976,15.976,5.702,8.001203,0,2846,3.995,12.0,8.908,78,29.1,OK,76,0,0,0,0,0,65,100,0.0,0,0.0,-2.39319701E16,8.5E-44,0.0,1.05007105E-23,64,0.0013245046,-2.632235E-4,1.92546E-25,False,False,0,None,-1.978194E-37,4.2863344E-19,
313094539,16.199,10.46519602371793,63.404696407235534,19,27.177238,26.426065,2.268299E-4,-0.09738504,-0.98696786,0.9917608,9.826881,6.618082,-23.76517,26.554659,-236,69,1472,1492.0,0.11684354,-0.06480351,0.048014943,0.14197655,0.13361103158012388,0.21650445590034278,3.462923741561695,-1.8574375480579275,-179.54978664925315,180.45021335074685,86.01533901655377,0.5402616870406194,-16.443251721756642,175.958805803761,8.28646307978643,12.299125161651682,-4.754253453556933,-1.568154187609481,50.83,4.227552464355469,,10.4651962,63.4046959,20190429,113000,2019-04-29T11:30:00Z,165.34,0.59,1.12,6.09,12,7,19,0.27,-0.1,-0.04,0,0,-2406,0,5,5,10.46521476608481,63.40477045531407,50,311807,114,99,108,3706,3706,4389,4391,202,17605,27,3718,17590,0,false,false,false,false,false,false,true,false,false,false,5231,6197,4494,4990,53,68,68,53,1495,1635,1406,1512,1482,1632,1431,1486,0.0,0.0,0.0,0.0,1588.9,1582.8,1584.0,1589.5,3.04,5.44,1.77,4.08,0,0,0,0,166.4084395616061,10.46519435346461,63.40469579445347,0,27.298689,26.045353,0.004351831,-0.09143858,-0.9850995,0.9893437,5.4213033,1.3511715,-14.405185,15.450747,-233,66,1475,1494.0,0.10668479,0.0061231176,0.052644376,0.11912416,0.10686035783753302,0.22673072340852912,2.7264238671032848,-2.259830730510935,-178.1598226386382,181.8401773613618,92.54962993135644,4.457226897397203,-26.196471554718656,179.1660891067964,8.363865502826307,13.09276198886867,17.594243871316444,20.780343137263895,50.84,NONE,0.0,0.0,0.0,NONE,8.706932362405822E-10,6.142515462402164E-9,2.6130676E-4,2,47.43,61.6,40.15,45.56,16.005,16.005,5.705,8.321779,0,2844,3.976,12.0,7.862,78,29.1,OK,77,0,0,0,0,0,65,100,0.0,0,0.0,-2.5957833E36,8.5E-44,0.0,1.05007105E-23,64,0.0014533997,-2.7933167E-4,1.1890425E-25,False,False,0,None,-1.348346E-37,4.4841466E-19,
316946457,17.200,10.465196620483363,63.40469663497017,19,26.935463,26.463387,0.024654664,-0.05902969,-1.0032703,1.0053077,0.51351047,0.3265573,-12.821119,12.835553,-204,-106,1475,1492.0,-0.08841726,0.06817523,0.03475964,0.11693462,0.11164888384778325,-0.07265613592331016,4.289238214257493,0.38808541528305024,150.33419909733217,150.3341990973322,55.45105760992563,-0.8675058880573623,-17.572257956917007,131.93851562132673,8.257999393173652,12.416570564268959,110.92174370992068,114.10784297586812,51.15,3.9857769516601564,,10.4651968,63.4046965,20190429,113001,2019-04-29T11:30:01Z,165.301,0.59,1.12,6.11,12,7,19,-0.04,0.09,-0.01,0,0,-6153,0,5,5,10.46521476608481,63.40477045531407,50,311929,19,100,109,3690,3690,4389,4392,132,17592,27,1,17605,0,false,false,false,false,false,false,true,false,false,false,5862,5812,4876,4112,54,69,69,54,1566,1579,1479,1431,1556,1564,1470,1422,0.0,0.0,0.0,0.0,1588.9,1585.2,1585.2,1590.2,4.46,4.08,3.57,2.11,0,0,0,0,165.11373315098243,10.465195424553167,63.404696367909814,0,27.059826,26.051699,0.026950914,-0.051746104,-0.98860115,0.9903213,-4.794907,-5.6978455,-17.562603,19.076206,-210,-103,1472,1490.0,-0.0684195,0.06509789,0.06498034,0.11463598,0.09444026351460148,-0.011411077527612695,4.094643274395434,0.029688134817877833,151.40210343490483,151.4021034349048,65.86906690506767,7.968791215059195,-26.71172488457707,135.19217438435228,8.294217578972109,13.309427877628286,97.24846967637207,100.43456894231952,51.14,NONE,0.0,0.0,0.0,NONE,6.24614774651491E-9,-3.803733416903335E-9,3.2234192E-4,2,54.57,56.2,44.38,36.15,16.018,16.018,5.707,8.511654,0,2841,3.981,12.0,7.872,78,29.1,OK,78,0,0,0,0,0,65,100,0.0,0,0.0,-1.8867197E32,8.5E-44,0.0,1.05007105E-23,64,0.0014677048,-2.811198E-4,9.6164135E-26,False,False,0,None,-1.1118122E-37,4.511675E-19,
320843849,18.213,10.465199056910574,63.40469516256368,19,27.33298,26.645304,0.04460377,-0.05404861,-1.302557,1.3044406,13.5232525,-6.6564207,-5.372818,16.00167,-236,-184,1444,1474.0,-0.18476054,0.13583094,-1.3160428,1.3358724,0.22931747279021905,-0.02816070830626427,3.0050776612913395,1.839916645140277,147.14742258430962,147.14742258430965,53.06677713849425,2.3926404758678617,-17.685882461350673,126.20028814894346,8.408614500698336,12.625489879950964,139.3721037220341,142.55820298798156,51.47,4.383293202270508,,10.4651989,63.4046951,20190429,113002,2019-04-29T11:30:02Z,165.305,0.59,1.12,6.13,12,7,19,-0.25,0.11,-0.05,0,0,0,9851,5,5,10.46521476608481,63.40477045531407,50,311930,114,100,110,3690,3690,4386,4389,0,17535,27,3706,17551,0,false,false,false,false,false,false,true,false,false,false,6440,7031,5457,5029,55,69,69,54,1562,1652,1449,1448,1543,1580,1412,1441,0.0,0.0,0.0,0.0,1600.6,1589.5,1592.0,1598.1,3.28,4.89,2.08,1.3,0,0,0,0,161.15145337580145,10.465198358343706,63.40469474047272,0,27.142572,26.371939,0.038553856,-0.049880862,-0.880346,0.8826005,8.152789,4.1720285,3.7136016,9.882542,-227,-164,1459,1485.0,-0.15261388,0.08316561,-1.3638278,1.3748578,0.17380309192554205,0.05577599154949939,3.884384073604047,2.2108523492899494,148.06571246654795,148.06571246654795,66.1951032469104,10.220258037428843,-24.90073154161788,123.10136206811234,8.458633677636191,13.555813650370213,139.52260968506914,142.7087089510166,51.5,NONE,0.0,0.0,0.0,NONE,8.782579586343984E-9,-7.3076229098463905E-9,-0.0032291412,2,47.03,51.95,35.6,37.74,15.986,15.986,5.615,8.5770445,0,2839,3.997,12.0,7.633,77,29.2,OK,79,0,0,0,0,0,65,100,0.0,0,0.0,-3.11427072E9,8.5E-44,0.0,1.05007105E-23,64,0.0015868247,-2.9601352E-4,1.2818126E-25,False,False,0,None,-1.4215561E-37,4.7413005E-19,
324700738,19.215,10.465201809006075,63.404693106783405,19,28.19474,27.240896,0.06258722,-0.058683317,-1.3914726,1.3941151,5.5243983,0.41111335,3.48681,6.545673,-270,-190,1444,1481.0,-0.124142304,0.14018725,-0.4761409,0.51163846,0.18725324328011325,0.07861428373853338,2.1296646761035207,3.0924788279253974,147.19143676794792,147.19143676794795,55.38851951336209,3.9841240268676117,-16.86991715807311,128.27290375583993,8.624916205116689,12.894017843876814,158.5077413818437,161.69384064779115,51.8,5.245054295410156,,10.4652023,63.4046928,20190429,113003,2019-04-29T11:30:03Z,166.104,0.59,1.12,6.15,12,7,19,-0.18,0.08,-0.41,0,0,0,4676,5,5,10.46521476608481,63.40477045531407,50,341997,16,100,111,3690,3688,4363,4371,-626,17459,25,0,16146,0,false,false,false,false,false,false,true,false,false,false,6724,7201,5488,5240,54,69,69,53,1680,1724,1542,1520,1660,1710,1544,1487,0.0,0.0,0.0,0.0,1569.3,1560.7,1562.6,1568.7,6.71,6.91,4.68,3.76,0,0,0,0,167.2228483106953,10.465201732165857,63.40469272017568,0,27.956436,26.94798,0.0522936,-0.05648752,-1.2659801,1.2683182,13.115777,2.2143972,3.6016765,13.780393,-265,-187,1438,1474.0,-0.12169426,0.08031797,-0.7200612,0.7346758,0.14580969888610323,0.1340099095479842,2.479389996691357,3.282424078510598,148.0891599221673,148.0891599221673,67.46610082657836,10.73234455149912,-25.180116020109207,126.27548960052758,8.668070722679662,13.850062591713284,130.10332855621454,133.289427822162,51.77,NONE,0.0,0.0,0.0,NONE,8.234507585608636E-9,-5.52569304806115E-9,-0.0033397675,2,63.83,72.79,52.62,42.47,16.025,16.025,5.685,8.570498,0,2837,3.991,12.0,8.756,77,29.2,OK,80,0,0,0,0,0,65,100,0.0,0,0.0,-8.936706E-17,8.5E-44,0.0,1.05007105E-23,64,0.0033679008,-4.3022828E-4,1.9221467E-25,False,False,0,None,-1.9729708E-37,6.809914E-19,
328565414,20.219,10.46520274100372,63.40469222634236,19,28.111141,27.563442,0.03163279,-0.010247155,-0.94798267,0.94856566,-13.100188,0.5920594,-11.692676,17.569408,-250,-193,1444,1478.0,-0.054874722,-0.07234055,-8.3856285E-4,0.09080249,0.09079862150994933,0.017063108475311436,1.7902025100749768,2.531437158559355,146.9279150977781,146.9279150977781,51.24349276637577,-0.40400338795047713,-17.78532006862487,128.04734656386302,8.71923767895431,13.022178782774636,-129.75442940727885,-126.56833014133139,52.04,5.161455204833985,,10.4652032,63.4046919,20190429,113004,2019-04-29T11:30:04Z,166.482,0.59,1.12,6.14,12,7,19,-0.08,-0.1,-0.29,0,0,0,0,5,5,10.46521476608481,63.40477045531407,50,341997,20,100,112,3690,3688,4363,4371,-626,17459,25,2,16146,0,false,false,false,false,false,false,true,false,false,false,5817,5911,4528,4675,54,70,70,53,1590,1594,1439,1475,1581,1590,1437,1458,0.0,0.0,0.0,0.0,1582.8,1578.5,1579.1,1584.0,5.16,4.44,3.04,3.02,0,0,0,0,-178.79753249051214,10.465202635714338,63.40469159939999,0,28.147694,27.250103,0.035633568,-0.014863952,-0.94138443,0.94217587,-17.03179,-4.9302316,-9.139598,19.947966,-250,-196,1444,1478.0,-0.066399194,-0.12955092,0.040927984,0.15121968,0.14557573154255174,-0.013664724343570578,1.3131557682958415,2.643157107448377,148.0058073985143,148.00580739851432,63.356658334403186,4.525580772806265,-26.822595559995122,128.68048023989132,8.789145854562113,13.996719539191298,-136.70610590204709,-133.52000663609962,52.06,NONE,0.0,0.0,0.0,NONE,-8.169922565686966E-9,-2.801397742563412E-9,-8.201599E-5,2,55.0,60.74,44.39,40.23,16.032,16.032,5.695,8.548142,0,2835,3.995,12.0,8.233,77,29.2,OK,81,0,0,0,0,0,65,100,0.0,0,0.0,-3.5316139E-31,8.5E-44,0.0,1.05007105E-23,64,0.005104065,-5.143175E-4,2.558261E-25,False,False,0,None,-2.590048E-37,7.9053656E-19,
332478814,21.236,10.46520225038435,63.40469191952397,19,28.284224,27.6239,0.034110285,-0.0369298,-0.9668424,0.9681485,9.135205,0.44287837,-0.69378287,9.172211,-253,-204,1438,1474.0,0.003966938,-0.0059486427,-0.0034556594,0.007941318,0.007150031088688718,0.03410315926288267,1.6027630493411182,2.563799532093085,146.7657495303521,146.76574953035208,51.70278986574675,1.4512774602857694,-18.16728170681056,127.70137154389806,8.754978285330749,13.074437172981693,145.4069458575064,148.59304512345386,52.32,5.334537556518555,,10.4652027,63.4046914,20190429,113005,2019-04-29T11:30:05Z,166.52,0.59,1.12,6.15,12,7,19,-0.02,-0.02,-0.11,0,0,0,0,5,5,10.46521476608481,63.40477045531407,50,341999,114,100,113,3689,3688,4305,4329,-2917,17250,25,3690,17375,0,false,false,false,false,false,false,true,false,false,false,5707,6005,4601,4439,55,70,70,56,1568,1600,1469,1450,1552,1590,1470,1439,0.0,0.0,0.0,0.0,1584.0,1579.7,1579.7,1583.4,4.55,4.51,3.21,2.78,0,0,0,0,170.2319549720813,10.465202035874784,63.40469124276468,0,28.056921,27.336327,0.036725946,-0.03814807,-0.9592193,0.9606798,3.5286334,2.4362016,-3.9886622,5.856258,-250,-207,1438,1474.0,0.0075421836,-4.0418707E-4,-0.003553773,0.008347287,0.007553006181223277,0.04125466752875641,1.4576648175467277,2.678129355501131,147.94994727985846,147.94994727985846,64.83283723889875,7.5582220394272515,-26.461425042269227,126.89533540126835,8.83080119371639,14.072647325066033,78.75012079847173,81.93622006441917,52.32,NONE,0.0,0.0,0.0,NONE,-2.702975310772265E-10,2.655759284352082E-10,-3.6239624E-5,2,53.98,61.68,44.3,36.14,15.998,15.998,5.687,8.517164,0,2832,3.994,12.0,8.142,77,29.2,OK,82,0,0,0,0,0,65,100,0.0,0,0.0,-1.7672456E-27,8.5E-44,0.0,1.05007105E-23,64,0.0056129694,-5.4613146E-4,2.7910695E-25,False,False,0,None,-2.773719E-37,8.150476E-19,
336398585,22.255,10.465212057007106,63.404688777851646,19,28.406923,27.673267,-0.01970381,-0.027507469,-1.0528374,1.053381,4.89882,-1.1766202,-8.377529,9.77578,464,-291,1405,1507.0,-1.3805794,1.7289062,0.043911207,2.2129266,2.2124908705700816,-1.623232939540605,-2.4955633576005365,-24.107781813772622,146.254277587509,146.25427758750902,48.71432973271961,-4.969320961698356,-42.18891398002574,124.02548296899155,9.083120634704338,13.683356086105926,123.52740189915019,126.71350116509764,52.68,5.457237294067383,,10.465209,63.4046899,20190429,113006,2019-04-29T11:30:06Z,166.549,0.59,1.12,6.16,12,7,19,-0.7,0.97,-0.04,-2314,10000,0,0,5,5,10.46521476608481,63.40477045531407,50,342709,48,94,114,3450,3705,4278,4283,-1129,17114,32,212,17113,0,false,false,false,false,false,false,true,false,false,false,5761,5962,5031,4845,56,68,69,56,1568,1608,1503,1473,1564,1593,1496,1474,0.0,0.0,0.0,0.0,1580.9,1577.3,1577.9,1580.9,4.52,4.5,3.88,2.58,0,0,0,0,168.16607168044084,10.465210673991667,63.40468842167733,0,28.414743,27.418798,-0.012577252,-0.025341637,-1.0530076,1.0533875,9.526671,-6.293858,-8.453862,14.206966,464,-308,1402,1508.0,-1.2886658,1.521648,0.019562354,1.9941051,1.994009105145051,-1.4715274483107428,-2.7472663311205423,-23.4571207447263,147.38886155755503,147.38886155755506,61.393840383084985,-0.4938518257880432,-54.91170072588199,119.7926508735434,9.123998507826805,14.613875850793798,125.84607915373827,129.03217841968572,52.67,NONE,0.0,0.0,0.0,NONE,8.584876468031356E-8,-3.035275821504119E-8,7.6293945E-5,2,54.79,58.3,47.45,44.98,15.981,15.981,5.679,8.4647875,0,2830,3.99,12.0,7.933,77,29.2,OK,83,0,0,0,0,0,65,100,0.0,0,0.0,-2.763585E-10,8.4E-44,0.0,1.05007105E-23,64,0.006097555,-5.764106E-4,4.701013E-25,False,False,0,None,-4.35438E-37,8.383807E-19,
340253237,23.257,10.465267205374131,63.40466348136159,19,28.146444,27.644127,-0.07737383,-0.031385142,-1.0333796,1.0367473,-7.653693,68.11633,-19.400955,71.23771,439,-83,1450,1517.0,-4.460425,3.6119769,0.12642705,5.740884,5.739491687557615,-1.81608450162816,4.8805814916835395,-19.277415364569226,148.12337891646317,148.12337891646314,47.65339596148333,3.141103849389646,-37.33020932124769,106.29904618040985,12.178034430114916,17.621108128166306,136.93103562727322,140.11713489322068,53.01,5.196758320678711,,10.4652616,63.4046669,20190429,113007,2019-04-29T11:30:07Z,166.541,0.59,1.12,6.15,12,7,19,-3.83,3.41,0.01,0,4205,0,0,5,5,10.46521476608481,63.40477045531407,50,342709,17,94,115,3450,3705,4278,4284,-1066,17114,32,0,17109,0,false,false,false,false,false,false,true,false,false,false,5691,5941,5213,5215,55,71,71,55,1612,1603,1468,1482,1589,1593,1469,1484,0.0,0.0,0.0,0.0,1580.3,1574.8,1576.7,1579.7,5.96,4.12,3.52,2.8,0,0,0,0,168.36099519309693,10.465264622455104,63.40466393566941,0,28.261837,27.427677,-0.08232182,-0.029236026,-1.072548,1.0760999,4.4043837,58.887486,-4.5782185,59.22917,464,-86,1441,1516.0,-4.5736103,3.6664557,0.08773137,5.862466,5.861809390126216,-2.044372867002103,4.625268733524472,-20.879262653775154,148.7735373585703,148.7735373585703,57.043088913891644,5.643635242641628,-51.412068094460224,110.60014554294928,12.101674378671643,18.446347223284576,137.2675331464293,140.45363241237675,52.99,NONE,0.0,0.0,0.0,NONE,3.6306904349045574E-7,-2.045619975093406E-7,4.4441223E-4,2,50.73,56.84,51.81,49.11,15.973,15.973,5.676,8.402593,0,2828,3.987,12.0,8.427,77,29.3,OK,84,0,0,0,0,0,65,100,0.0,0,0.0,5.3207934E12,2.66E-43,0.0,1.05007105E-23,64,0.0061478615,-5.7955476E-4,1.0388429E-22,False,False,0,None,-4.689047E-35,8.408027E-19,
344102558,24.257,10.465327262412938,63.404629518019,19,28.123835,27.525702,-0.03914944,-0.02454912,-1.0532799,1.054293,-19.345892,-37.75029,-2.1660204,42.473988,157,-92,1487,1498.0,-3.474876,2.3988454,0.02608537,4.222547,4.222466308387062,0.592190374420098,3.8221425869037344,-15.767657034944481,148.18927448920795,148.18927448920795,48.35397037348782,4.118543803463601,-31.608468107760352,142.67790913714072,16.642041023537875,22.440882148692864,142.8720438024957,146.05814306844317,53.2,5.174148609985352,,10.4653244,63.4046318,20190429,113008,2019-04-29T11:30:08Z,166.498,0.59,1.12,6.14,12,7,19,-3.1,2.4,0.07,0,10000,0,0,5,5,10.46521476608481,63.40477045531407,50,345926,16,94,116,3439,3698,4292,4299,-615,17167,28,0,16471,0,false,false,false,false,false,false,true,false,false,false,5782,5827,5389,5120,55,70,70,56,1582,1591,1541,1492,1570,1605,1534,1473,0.0,0.0,0.0,0.0,1576.7,1572.3,1572.3,1575.5,4.84,4.1,4.41,3.18,0,0,0,0,164.0683638921635,10.465326383419,63.40462959797921,0,28.332426,27.230877,-0.047368545,-0.023651809,-1.0571147,1.0584397,-19.853199,-47.035522,-5.175146,51.31542,88,-80,1490,1494.0,-3.4802303,2.408945,0.034790453,4.232757,4.232613848322768,0.6674605889813288,4.250241694641596,-14.972093254760068,148.04556499442424,148.04556499442424,52.71120399668256,0.45686737379659625,-53.31351738994555,147.39270408032448,16.618988016616086,23.350433384146335,140.71340606189523,143.8995053278427,53.18,NONE,0.0,0.0,0.0,NONE,2.4302811533493384E-7,-1.4589542385219564E-7,4.9591064E-4,2,55.24,59.85,52.33,46.48,15.944,15.944,5.667,8.367435,1215,2825,3.985,12.0,9.059,77,29.3,OK,85,0,0,0,0,0,65,100,0.0,0,0.0,-8.3179685E-11,2.66E-43,0.0,1.05007105E-23,64,0.0049933195,-5.0740334E-4,3.890678E-19,False,False,0,None,-5.986031E-32,7.852029E-19,
347990297,25.268,10.465389816218792,63.40458752796522,19,28.210457,27.497099,-0.09568515,-0.02219465,-1.044324,1.0489331,-0.524204,8.545588,8.453588,12.031833,430,-149,1438,1508.0,-6.072669,3.798601,0.12712757,7.163996,7.16286805490459,-1.6084413871648735,1.6000172829487862,-22.259184656756304,148.81021973888807,148.81021973888807,47.10149996418464,-0.35895533688825865,-40.15747309443863,127.47496342978918,22.128595276113344,28.05519910078287,144.69020966775233,147.8763089336998,53.57,5.260770848144531,,10.465383,63.4045922,20190429,113009,2019-04-29T11:30:09Z,166.509,0.59,1.12,6.15,12,7,19,-5.56,3.52,0.0,0,9820,0,0,5,5,10.46521476608481,63.40477045531407,50,345926,20,94,117,3439,3698,4292,4299,-615,17167,28,2,16471,0,false,false,false,false,false,false,true,false,false,false,5678,5747,5601,5652,56,71,72,56,1568,1585,1587,1565,1564,1597,1569,1540,0.0,0.0,0.0,0.0,1571.7,1566.8,1567.5,1571.7,4.32,3.87,5.65,4.52,0,0,0,0,174.02567671351937,10.465387913901639,63.404588409836265,0,28.240503,27.333843,-0.096981905,-0.019931868,-1.0085738,1.0134219,-2.308267,8.608179,5.62452,10.538693,433,-147,1438,1508.0,-6.209016,3.879692,0.06815377,7.321785,7.321467451995861,-1.8684298047765031,1.7453794418588295,-22.59537387637447,148.36403221330056,148.36403221330056,52.84338385453957,-1.7084075297923618,-61.88841679758832,128.32584053006778,22.001220815336083,28.86225082216618,144.0277208011703,147.21382006711775,53.54,NONE,0.0,0.0,0.0,NONE,3.8832766989132345E-7,-2.7832357272560284E-7,2.822876E-4,2,59.25,61.03,50.71,50.3,15.913,15.913,5.657,8.38273,1212,2823,3.979,12.0,8.809,77,29.3,OK,86,0,0,0,0,0,65,100,0.0,0,-1.48903757E9,-8.0078022E8,-4.26329651E9,-2.598899E7,3.04172E-35,64,0.005598426,-5.452225E-4,1.9986E-16,False,False,0,None,-1.2979612E-29,8.1434613E-19,
351947850,26.296,10.465459789265145,63.404537378260585,19,28.050234,27.35922,-0.059800856,-0.03762666,-1.1599683,1.162118,-4.753486,-4.1506743,-39.29677,39.800247,-770,-349,1195,1463.0,-3.4488728,2.256989,0.051778965,4.122063,4.121737953204062,2.2706747402615326,-2.9697339158900067,24.19666929296127,142.34618628765358,142.3461862876536,37.43393847418891,-3.309277050581343,15.659610356891195,125.67962692285295,28.643776388558127,34.6301466352453,144.3375299423733,147.52362920832076,53.85,5.100547840942383,,10.4654562,63.4045395,20190429,113010,2019-04-29T11:30:10Z,166.584,0.59,1.12,6.14,12,7,19,-4.69,2.95,-0.06,0,0,-7107,0,5,5,10.46521476608481,63.40477045531407,50,346091,48,92,118,3364,3698,4256,4261,-996,17036,29,212,17035,0,false,false,false,false,false,false,false,false,false,false,5534,5868,5512,5574,55,72,72,55,1561,1602,1543,1544,1552,1613,1537,1514,0.0,0.0,0.0,0.0,1574.8,1569.9,1569.9,1574.2,4.44,4.26,4.53,3.77,0,0,0,0,139.2794635302452,10.46546369546168,63.404533434309556,0,28.26356,26.988234,-0.057404503,-0.034290794,-1.1597743,1.1617004,16.603146,-1.3733727,-16.437841,23.404127,-756,-366,1204,1468.0,-3.5757701,2.3005798,-0.045997553,4.252166,4.2519172383074455,2.732015153824408,-3.3572666119619643,22.681671158312188,139.88807708988426,139.8880770898843,41.14246780033481,-4.0285076739426815,-20.744965504443925,127.44267654663982,29.123381408493195,36.046341860210035,145.34694271383742,148.53304197978488,53.88,NONE,0.0,0.0,0.0,NONE,3.127207065542228E-7,-2.2750434233591444E-7,4.272461E-4,2,54.43,60.82,51.51,49.44,15.912,15.912,5.651,8.437547,1203,2821,3.971,12.0,9.095,77,29.3,OK,87,0,0,0,0,0,65,100,0.0,0,-688523.4,-4.864422E19,-4.26329651E9,-12017.187,3.04172E-35,64,0.0037232041,-4.52431E-4,4.2051636E-16,False,False,0,None,-2.495697E-29,7.1520357E-19,
355828280,27.305,10.465483695302774,63.40452178897079,19,28.099335,27.512203,0.013068132,0.011283851,-1.0050457,1.005194,25.332592,-22.331587,-62.54075,71.07591,-92,-646,1319,1471.0,-0.08733301,0.14224586,-0.08865183,0.18899758,0.1669159653919183,1.917987529823522,-8.472973131363785,7.291704585030788,92.57654016549088,92.57654016549088,-9.664174973940735,9.125945710481833,9.207518335703417,79.00196755223288,30.720835545665256,36.75042610839373,36.72403093173398,39.910130197681426,54.16,5.149648716796875,,10.4654841,63.404522,20190429,113011,2019-04-29T11:30:11Z,166.71,0.59,1.12,6.16,12,7,19,-0.44,0.47,-0.12,0,0,-9998,0,5,5,10.46521476608481,63.40477045531407,50,346091,17,92,119,3364,3698,4256,4261,-996,17036,29,0,17035,0,false,false,false,false,false,false,true,false,false,false,5822,5910,4442,4838,55,71,71,56,1576,1585,1431,1480,1569,1580,1429,1466,0.0,0.0,0.0,0.0,1581.6,1576.7,1577.3,1580.9,4.64,4.17,2.74,2.74,0,0,0,0,-172.84047505488158,10.465483596422523,63.40452093600295,0,28.223316,27.22666,0.017809784,0.013710176,-0.9847774,0.98503387,15.51192,-16.116055,-69.39913,72.914925,-20,-594,1353,1477.0,-0.08494754,0.044897996,-0.12601092,0.15846346,0.096082853653151,1.5962301954108509,-5.948633895812128,5.122332702288314,87.31552995774747,87.31552995774746,-11.145696398257787,6.404699552370575,-32.06081758027793,76.79492169410294,30.80409092182013,37.781783559829975,50.01448796522314,53.20058723117059,54.19,NONE,0.0,0.0,0.0,NONE,1.879154722235099E-8,-1.2045153660030251E-8,-6.637573E-4,2,56.24,57.98,38.11,42.18,15.899,15.899,5.668,8.521441,1190,2818,3.968,12.0,9.178,77,29.3,OK,88,0,0,0,0,0,65,100,0.0,0,-96235.42,-1.0435726E23,-4.26329651E9,-1679.6483,3.04172E-35,64,0.0048258305,-4.969278E-4,4.9793695E-16,False,False,0,None,-2.9650847E-29,7.771296E-19,
359742962,28.322,10.465482545875052,63.40452386806387,19,28.479082,27.576433,0.024797544,0.04232495,-0.9692621,0.9705026,4.796171,10.321082,5.092176,12.468289,281,-331,1423,1487.0,0.0921012,0.0038322145,0.08470606,0.12518959,0.0921808945584633,0.14190445753856956,-0.32149622389305155,1.2915213919793918,71.68448371611885,71.68448371611885,-30.58431150297853,19.247669573730715,5.609538063284608,45.897720174314905,30.487861558477,36.99774119291657,-23.925329857311706,-20.739230591364255,54.58,5.5293961075439455,,10.4654834,63.4045238,20190429,113012,2019-04-29T11:30:12Z,166.693,0.59,1.13,6.15,12,7,19,0.23,-0.05,0.01,0,0,0,0,5,5,10.46521476608481,63.40477045531407,50,346713,16,92,120,3365,3699,4252,4265,-1403,17054,29,0,17077,0,false,false,false,false,false,false,true,false,false,false,5944,5735,4366,4817,56,72,71,57,1589,1581,1426,1483,1583,1578,1429,1470,0.0,0.0,0.0,0.0,1580.3,1576.1,1575.5,1579.1,5.07,4.2,2.68,2.8,0,0,0,0,-165.18866362107525,10.465482366720032,63.404523265809665,0,28.330256,27.398256,0.027958652,0.038363826,-0.9822872,0.9834336,-12.909434,1.3922002,-9.944363,16.35488,281,-329,1420,1484.0,0.08426981,-0.033421714,0.07642608,0.11857216,0.09065545408970554,0.17098672459253333,0.24349105348842393,1.2585016915173783,70.82480437628845,70.82480437628845,-27.804694823645082,14.678506349637015,-36.61162370874209,47.030477163143054,30.54421230069253,38.05872078192359,5.938672274358408,9.12477154030586,54.56,NONE,0.0,0.0,0.0,NONE,-1.1347645432903137E-8,8.841108234023485E-9,2.7656555E-4,2,57.58,57.01,39.04,43.96,15.904,15.904,5.678,8.597524,1179,2816,3.942,12.0,7.744,77,29.4,OK,89,0,0,0,0,0,65,100,0.0,0,-96235.42,-4.6701388E23,-4.26329651E9,-1679.6483,3.04172E-35,64,0.0059969425,-5.701372E-4,4.489852E-16,False,False,0,None,-2.7237272E-29,8.3354995E-19,
363667905,29.342,10.465485077459617,63.40452336783193,19,28.36171,27.610107,0.055925258,0.012796895,-0.9705238,0.972218,1.9324776,0.77536285,54.425865,54.465683,-129,-357,1426,1475.0,-0.11564709,0.115508154,0.005858984,0.16355646,0.16345147609216298,-0.028409061109261224,0.06608923542818823,4.288915798687333,121.4652064622574,121.46520646225741,20.719720834787097,19.95590444753465,8.970572477246243,93.51422917730113,30.593117118996496,37.16478834144457,104.11031291502184,107.29641218096928,54.89,5.412023594726563,,10.4654858,63.4045234,20190429,113013,2019-04-29T11:30:13Z,166.573,0.59,1.13,6.13,12,7,19,-0.17,0.19,0.09,0,0,9998,0,5,5,10.46521476608481,63.40477045531407,50,346713,20,92,121,3365,3699,4252,4265,-1403,17054,29,2,17077,0,false,false,false,false,false,false,true,false,false,false,5968,5790,4371,4263,56,71,73,56,1608,1583,1428,1425,1604,1572,1409,1420,0.0,0.0,0.0,0.0,1580.9,1576.7,1576.7,1580.3,5.0,4.26,2.89,2.41,0,0,0,0,-178.71637850997976,10.46548513620085,63.40452284624248,0,28.147606,27.364643,0.05228818,0.014410679,-0.9843915,0.98588455,-8.932466,1.5616597,50.403126,51.21233,-118,-366,1426,1476.0,-0.100883275,0.07845733,0.011923726,0.1283556,0.12780057783880475,0.014881581243495728,0.12133120722125884,4.034479908023456,118.7616191637846,118.76161916378459,19.987397764895697,10.80551327081004,-34.111794656234835,92.7048141781295,30.646498465616204,38.236861534499276,129.70820520047826,132.89430446642572,54.86,NONE,0.0,0.0,0.0,NONE,8.802558212308235E-9,-4.574759519584504E-9,1.1444092E-4,2,58.47,58.57,38.24,35.51,15.956,15.956,5.669,8.609925,1176,2813,3.963,12.0,7.912,77,29.4,OK,90,0,0,0,0,0,65,100,0.0,0,-96235.42,-5.8174753E24,-4.26329651E9,-1679.6483,3.04172E-35,64,0.0057651997,-5.556533E-4,4.573607E-16,False,False,0,None,-2.765019E-29,8.2239294E-19,
367517220,30.343,10.465487445701331,63.40452177518764,19,28.112984,27.58787,0.048605535,-0.04371945,-0.99159926,0.993752,-2.0052412,4.111895,-18.4979,19.055208,-239,-210,1444,1478.0,-0.158145,-0.00808233,0.026562508,0.16056378,0.15835139308587073,0.0543055887426549,2.6101525037242346,3.775610279319286,137.180862505114,137.18086250511396,35.16083906169161,20.155704393436253,7.947635568616652,117.61203016625258,30.804027719188465,37.38586097097851,172.82828102309952,176.01438028904698,55.12,5.163297703613281,,10.4654878,63.4045219,20190429,113014,2019-04-29T11:30:14Z,166.485,0.59,1.13,6.14,12,7,19,-0.13,0.06,0.05,0,0,-927,0,5,5,10.46521476608481,63.40477045531407,50,346815,48,91,122,3328,3699,4245,4251,-1083,16993,30,212,16991,0,false,false,false,false,false,false,true,false,false,false,5679,6016,4129,4156,56,73,72,56,1548,1604,1399,1460,1540,1609,1383,1451,0.0,0.0,0.0,0.0,1579.1,1577.3,1576.7,1580.9,3.78,4.54,2.58,3.54,0,0,0,0,174.80557109226518,10.465487414581249,63.404521515083545,0,28.253164,27.318644,0.04597745,-0.038529273,-0.9934384,0.9952479,-2.1897893,1.7524338,-10.114825,10.49647,-239,-207,1444,1478.0,-0.11987887,0.022297759,0.040619634,0.12852272,0.12193496066635952,0.06446284174223317,2.6288585187998765,3.5031545646248445,136.5295036561338,136.52950365613378,35.68563154333915,12.75429868242382,-35.03207420811152,118.94530153833844,30.829311078689233,38.43360038551385,-177.38125301330155,-174.19515374735408,55.15,NONE,0.0,0.0,0.0,NONE,7.156862301085958E-9,-3.6495272740353344E-9,1.335144E-4,2,53.97,62.31,31.03,40.09,15.947,15.947,5.683,8.609925,1176,2813,3.978,12.0,7.912,77,29.4,OK,90,0,0,0,0,0,65,100,0.0,0,-96235.42,-1.9858582E25,-4.26329651E9,-1679.6483,3.04172E-35,64,0.0055309534,-5.4100546E-4,4.7735066E-16,False,False,0,None,-2.8636267E-29,8.1109035E-19,
