Tick#,offsetTime,IMU_ATTI(0):Longitude,IMU_ATTI(0):Latitude,IMU_ATTI(0):numSats,IMU_ATTI(0):barometer:Raw,IMU_ATTI(0):barometer:Smooth,IMU_ATTI(0):accel:X,IMU_ATTI(0):accel:Y,IMU_ATTI(0):accel:Z,IMU_ATTI(0):accel:Composite,IMU_ATTI(0):gyro:X,IMU_ATTI(0):gyro:Y,IMU_ATTI(0):gyro:Z,IMU_ATTI(0):gyro:Composite,IMU_ATTI(0):mag:X,IMU_ATTI(0):mag:Y,IMU_ATTI(0):mag:Z,IMU_ATTI(0):mag:Mod,IMU_ATTI(0):velN,IMU_ATTI(0):velE,IMU_ATTI(0):velD,IMU_ATTI(0):velComposite,IMU_ATTI(0):velH,IMU_ATTI(0):GPS-H,IMU_ATTI(0):roll,IMU_ATTI(0):pitch,IMU_ATTI(0):yaw,IMU_ATTI(0):yaw360,IMU_ATTI(0):totalGyro:Z,IMU_ATTI(0):totalGyro:X,IMU_ATTI(0):totalGyro:Y,IMU_ATTI(0):magYaw,IMU_ATTI(0):distanceHP,IMU_ATTI(0):distanceTravelled,IMU_ATTI(0):directionOfTravel[mag],IMU_ATTI(0):directionOfTravel[true],IMU_ATTI(0):temperature,General:relativeHeight,General:absoluteHeight,GPS(0):Long,GPS(0):Lat,GPS(0):Date,GPS(0):Time,GPS:dateTimeStamp,GPS(0):heightMSL,GPS(0):hDOP,GPS(0):pDOP,GPS(0):sAcc,GPS(0):numGPS,GPS(0):numGLNAS,GPS(0):numSV,GPS(0):velN,GPS(0):velE,GPS(0):velD,RC:Aileron,RC:Elevator,RC:Rudder,RC:Throttle,Controller:navHealth,Controller:ctrl_level,HP:Longitude,HP:Latitude,HP:rthHeight,BatBlackBox:tick,BatBlackBox:id,BatBlackBox:rsoc,BatBlackBox:index,BatBlackBox:rm,BatBlackBox:fcc,BatBlackBox:cell_min,BatBlackBox:cell_max,BatBlackBox:current,BatBlackBox:voltage,BatBlackBox:temp,BatBlackBox:flag,BatBlackBox:reserve,BatBlackBox:user_data,OA:avoidObst,OA:emergBrake,OA:radiusLimit,OA:airportLimit,OA:groundForceLanding,OA:horizNearBoundary,OA:vertLowLimit,OA:vertAirportLimit,OA:roofLimit,OA:hitGroundLimit,Motor:Speed:RFront,Motor:Speed:LFront,Motor:Speed:LBack,Motor:Speed:RBack,Motor:EscTemp:RFront,Motor:EscTemp:LFront,Motor:EscTemp:LBack,Motor:EscTemp:RBack,Motor:PPMrecv:RFront,Motor:PPMrecv:LFront,Motor:PPMrecv:LBack,Motor:PPMrecv:RBack,Motor:PPMsend:RFront,Motor:PPMsend:LFront,Motor:PPMsend:LBack,Motor:PPMsend:RBack,Motor:V_out:RFront,Motor:V_out:LFront,Motor:V_out:LBack,Motor:V_out:RBack,Motor:Volts:RFront,Motor:Volts:LFront,Motor:Volts:LBack,Motor:Volts:RBack,Motor:Current:RFront,Motor:Current:LFront,Motor:Current:LBack,Motor:Current:RBack,Motor:Status:RFront,Motor:Status:LFront,Motor:Status:LBack,Motor:Status:RBack,Motor:thrustAngle,IMU_ATTI(1):Longitude,IMU_ATTI(1):Latitude,IMU_ATTI(1):numSats,IMU_ATTI(1):barometer:Raw,IMU_ATTI(1):barometer:Smooth,IMU_ATTI(1):accel:X,IMU_ATTI(1):accel:Y,IMU_ATTI(1):accel:Z,IMU_ATTI(1):accel:Composite,IMU_ATTI(1):gyro:X,IMU_ATTI(1):gyro:Y,IMU_ATTI(1):gyro:Z,IMU_ATTI(1):gyro:Composite,IMU_ATTI(1):mag:X,IMU_ATTI(1):mag:Y,IMU_ATTI(1):mag:Z,IMU_ATTI(1):mag:Mod,IMU_ATTI(1):velN,IMU_ATTI(1):velE,IMU_ATTI(1):velD,IMU_ATTI(1):velComposite,IMU_ATTI(1):velH,IMU_ATTI(1):GPS-H,IMU_ATTI(1):roll,IMU_ATTI(1):pitch,IMU_ATTI(1):yaw,IMU_ATTI(1):yaw360,IMU_ATTI(1):totalGyro:Z,IMU_ATTI(1):totalGyro:X,IMU_ATTI(1):totalGyro:Y,IMU_ATTI(1):magYaw,IMU_ATTI(1):distanceHP,IMU_ATTI(1):distanceTravelled,IMU_ATTI(1):directionOfTravel[mag],IMU_ATTI(1):directionOfTravel[true],IMU_ATTI(1):temperature,IMUEX(0):err,IMUEX(0):rtk_Longitude,IMUEX(0):rtk_Latitude,IMUEX(0):rtk_Alti,IMUEX(1):err,IMUEX(1):rtk_Longitude,IMUEX(1):rtk_Latitude,IMUEX(1):rtk_Alti,MotorCtrl:Status,MotorCtrl:PWM:RFront,MotorCtrl:PWM:LFront,MotorCtrl:PWM:LBack,MotorCtrl:PWM:RBack,BattInfo:Voltage,BattInfo:BatVoltage,BattInfo:AdVoltage,BattInfo:AvgCurrent,BattInfo:R_time,BattInfo:R_CAP_MAH,BattInfo:LowCellVoltage,BattInfo:LowCellVolThreshold,BattInfo:BatCurrent,BattInfo:Remaining%,BattInfo:Temp,BattInfo:status,battery_info:BatDynCnt,battery_info:Vol1Protect,battery_info:Vol2Protect,battery_info:Cap1Protect,battery_info:Cap2Protect,battery_info:Batpresent,battery_info:sopPercentage,battery_info:sopValue,battery_info:sopScale,battery_info:sopFlg,BattInfo:WindHeading:WindDir,battery_info:home_dir,BattInfo:Wind:rangeMin,BattInfo:Wind:rangeMax,battery_info:cap_speed,battery_info:against_wind,battery_info:emergency_land_cap,battery_info:intel_bat_land_cap,battery_info:intel_bat_gh_cap,BattInfo:Smart:SmartGh,BattInfo:Smart:SmartLand,BattInfo:GoHome:CntDown,BattInfo:GoHome:GhCmd,BattInfo:GoHome:CapLevel,BattInfo:GoHome:LandCapLv,Attribute|Value,ConvertDatV3,3.6.6-Tablet
198241173,.000,10.465247507483872,63.40474917106962,21,23.04367,23.102762,0.07911535,-0.030574117,-0.9804998,0.98416156,0.23205204,0.03857987,-0.045990564,0.23969081,304,335,1456,1524.0,0.0010896561,0.0046111946,0.02086657,0.02139776,0.004738192231395802,-0.004738192231395802,1.7673186370276863,4.611082309055334,-32.612283706225845,327.38771629377413,-1.6215115620573155,9.48475399689003,49.09288807995564,-34.564720073461906,2.47523854924557,5.195527870115546,-16.051534018970536,-12.865417766512826,55.14,-0.696174345703124,,10.465247,63.4047495,20190429,114632,2019-04-29T11:46:32Z,160.259,0.54,1.01,6.05,11,10,21,0.0,0.0,0.0,0,0,0,0,5,5,10.465204937538836,63.40473766807994,50,28,48,20,32,734,3702,3761,3763,3,15050,23,212,11,0,false,false,false,false,false,false,false,false,false,false,0,0,0,0,53,66,67,53,944,946,944,946,940,940,940,940,0.0,0.0,0.0,0.0,1716.5,1711.6,1712.2,1716.5,0.0,0.0,0.0,0.0,0,0,0,0,-45.0,10.465247251153038,63.40474875471081,0,23.009321,23.088924,0.07897057,-0.030370269,-0.9804229,0.98406696,0.19444303,-0.06057587,0.08098041,0.2191697,301,335,1453,1521.0,-6.11539E-4,-0.0011488164,-4.5315133E-4,0.0013780803,0.0013014450657132396,-0.0013014450657132396,2.2255193043955708,5.117352202418598,-34.012026763931445,325.98797323606857,-7.089465718916308,5.135810959913121,44.0048052468892,-32.88527962817392,2.440613873020355,7103239.828222552,-10.10945882439603,-6.923342571938321,55.15,NONE,0.0,0.0,0.0,NONE,-9.089675711586757E-11,3.3732448829328E-11,-3.8146973E-6,,,,,,17.27,17.27,6.169,1.2891289,0,3462,4.312,12.0,1.29,98,24.0,OK,48,0,0,0,0,0,65,100,0.0,0,0.0,1.152484E-34,2.69E-43,0.0,-5.9807744E7,62,2.6076918E-9,-2.6077067E-9,4.6351225E-34,False,False,0,None,5.0741677E32,1.0842106E-19,Firmware Date| Oct 17 2018
202171531,1.021,10.465247783454728,63.40474917626761,21,22.95013,23.07909,0.078531906,-0.029700238,-0.9810577,0.9846439,-0.12857702,-0.003531528,0.6315036,0.6444698,301,332,1453,1520.0,-0.01484453,0.009558298,0.006194276,0.018710697,0.017655625627668866,-0.004194733706145698,1.7938309034628144,4.56750236994004,-32.60556036707074,327.3944396329293,-1.7113100046525667,9.570170605011699,49.02187413424013,-34.50801818372514,2.487307537726688,5.227504294834788,122.45624322771947,125.64235948017718,55.41,-0.06918953735351607,,10.4652474,63.4047496,20190429,114633,2019-04-29T11:46:33Z,160.26,0.54,1.01,6.04,11,10,21,-0.01,0.01,0.01,0,0,0,0,5,5,10.465204937538836,63.40473766807994,50,33,16,20,33,734,3702,3761,3763,0,15051,23,1,17508,0,false,false,false,false,false,false,false,false,false,false,572,561,542,577,56,72,70,55,1301,1309,1306,1304,1292,1292,1292,1292,0.1,0.1,0.1,0.1,1687.0,1682.8,1682.8,1686.4,7.66,7.14,7.78,7.37,0,0,0,0,-106.92751306414704,10.46524763851303,63.404748701160365,0,22.95013,23.089787,0.07977121,-0.032157872,-0.9815137,0.985275,0.02715195,0.21372423,-0.1459864,0.2602447,301,332,1468,1534.0,-0.0013869363,0.0028507428,-0.0035959159,0.0047938437,0.0031702250135757486,0.016586691137185777,2.2277712338692344,5.107269049475689,-34.01769274664895,325.98230725335105,-7.144388684419464,5.284410000641749,43.72845161587246,-32.477812593715555,2.45429349217778,7103239.863432363,101.80726568066903,104.99338193312674,55.41,NONE,0.0,0.0,0.0,NONE,9.089675748295102E-11,5.836249083419024E-11,-7.6293945E-6,1,21.56,21.56,21.56,21.56,17.245,17.245,6.059,1.3003987,0,3461,4.312,12.0,1.807,98,24.0,OK,49,0,0,0,0,0,65,100,0.0,0,0.0,7.1661074E-35,2.69E-43,0.0,-5.9807744E7,62,2.6076918E-9,-2.6077067E-9,5.127537E-34,False,False,0,None,5.82327E32,1.0842106E-19,ACType|MavicEnterprise
206090954,2.040,10.465248683064127,63.4047493407372,21,22.95013,23.099861,-0.03318825,0.00560061,-1.1244777,1.1249814,-0.43978003,-22.851477,12.986787,26.28764,464,329,1420,1529.0,0.030008089,0.05979773,-0.1631224,0.17630987,0.06690481204367839,-0.01941688805228131,1.3124430292947245,-3.333631488540708,-30.567653171759602,329.4323468282404,1.450307753520758,9.25466508292057,42.68395774382228,-37.93676815952991,2.535128560230018,5.286882254585565,82.16947408720038,85.3555903396581,55.75,-0.06918953735351607,,10.4652483,63.4047496,20190429,114634,2019-04-29T11:46:34Z,160.268,0.54,1.01,6.02,11,10,21,-0.02,0.01,-0.02,0,0,0,0,5,5,10.465204937538836,63.40473766807994,50,35,18,20,34,735,3702,3843,3845,3564,15381,23,1,15473,0,false,false,false,false,false,false,false,false,false,false,5430,5508,4180,4565,53,70,69,53,1529,1536,1410,1447,1520,1534,1411,1440,0.0,0.0,0.0,0.0,1666.8,1663.1,1663.1,1667.4,4.72,4.7,3.39,3.28,0,0,0,0,-172.03090209487365,10.465248780285245,63.40474884581272,0,22.95013,23.114227,-0.034575403,0.0068919156,-1.1455945,1.1461369,-7.4421997,-5.4535127,2.3113794,9.511552,502,320,1405,1525.0,0.057801086,0.057026587,-0.22245727,0.23681267,0.08119727427567183,-0.0232083778360338,1.5115819021318946,-3.5917851217302554,-31.719293951867755,328.28070604813223,-5.867571762381505,4.199583135503117,35.025861064735984,-34.43631065029148,2.511602698638206,7103239.937150119,61.46555968347394,64.65167593593165,55.75,NONE,0.0,0.0,0.0,NONE,7.271740620548397E-10,-2.141742782369346E-12,-9.727478E-5,2,50.24,51.77,36.13,40.06,17.02,17.02,6.054,1.4046373,0,3460,4.295,12.0,5.128,98,24.1,OK,50,0,0,0,0,0,65,100,0.0,0,0.0,4.413614E-35,2.69E-43,0.0,-5.9807744E7,62,2.6076918E-9,-2.6077067E-9,5.574695E-34,False,False,0,None,6.5171106E32,1.0842106E-19,dateTime|2019-4-29 11:45:49 GMT
210068283,3.074,10.465250214571535,63.404749711038036,21,23.638979,23.3744,-0.022155618,0.02145639,-1.014501,1.0149697,-1.9800577,-12.203306,-0.40434837,12.369512,444,277,1429,1521.0,-0.04568309,0.070563845,-0.44346106,0.45135787,0.0840606952583409,-2.3716613164236067E-4,-0.31935255679855845,-0.7183803045602902,-30.42384643676461,329.5761535632354,1.7648141429807567,8.854068349553053,46.80370167026815,-33.77517230217326,0.08847182414500217,5.383349413638772,104.52348030289285,107.70959655535056,55.98,0.6196589581298824,,10.4652495,63.4047501,20190429,114635,2019-04-29T11:46:35Z,160.678,0.54,1.01,6.02,11,10,21,0.02,0.0,-0.36,0,0,0,0,5,5,10.465248924293133,63.404749163875366,50,40,19,20,35,738,3702,3768,3772,0,15086,23,1,15114,0,false,false,false,false,false,false,true,false,false,false,5656,5543,4686,5113,54,70,70,53,1538,1535,1433,1477,1528,1523,1424,1473,0.0,0.0,0.0,0.0,1666.8,1661.9,1661.3,1665.6,4.31,4.1,3.22,3.17,0,0,0,0,-158.90766049417252,10.465250149055256,63.404749169687506,0,23.70504,23.506134,-0.023566715,0.01766695,-1.0153471,1.0157743,-5.8491225,-10.336284,-1.2157737,11.938555,453,277,1429,1524.0,-0.027523438,0.064423785,-0.53507835,0.5396451,0.07005686117326458,0.004500804603168776,-0.005636410073239511,-0.5248536894065315,-31.736861125215253,328.2631388747848,-6.1778872658401145,0.8756372738937973,36.38997043189186,-32.21177920955974,0.06097244806887778,7103240.031425674,96.72901013097947,99.91512638343718,55.94,NONE,0.0,0.0,0.0,NONE,9.147083786785887E-9,-1.8900878854302824E-9,-0.003944397,2,51.19,50.52,37.99,44.03,16.881,16.881,5.987,1.7051096,0,3459,4.295,12.0,5.188,98,24.1,OK,51,0,0,0,0,0,65,100,0.0,0,0.0,-6.1555977E37,2.68E-43,0.0,-5.9807744E7,62,3.9183305E-9,-3.2147376E-9,7.039055E-36,False,False,0,None,2.6420348E29,1.4032376E-19,geoDeclination|319 degrees
213969906,4.088,10.465250955746576,63.40474956771624,21,24.46049,23.863739,-0.04116791,0.031095903,-0.97091275,0.9722825,-1.9011065,2.928456,-0.017448146,3.4914703,485,248,1426,1526.0,-0.060491405,0.052932113,-0.39410627,0.4022198,0.08038046215609453,-0.04074530876454737,-1.7528638820985882,-1.8774008299328186,-30.575022214703406,329.4249777852966,0.9607580524258921,5.406126457610375,46.71000736176564,-33.62738031745808,0.11064810846282476,5.461079750609596,127.21661823513455,130.40273448759226,56.3,1.4411692730712886,,10.4652504,63.4047499,20190429,114636,2019-04-29T11:46:36Z,161.198,0.54,1.01,6.04,11,10,21,-0.1,0.04,-0.47,0,0,0,0,5,5,10.465248924293133,63.404749163875366,50,7123,48,20,36,738,3702,3762,3764,0,15053,23,212,4,0,false,false,false,false,false,false,true,false,false,false,5477,5497,5036,5190,54,69,70,54,1518,1518,1482,1506,1512,1511,1469,1496,0.0,0.0,0.0,0.0,1663.1,1658.2,1658.8,1662.5,3.84,3.7,4.41,3.89,0,0,0,0,-169.84351797708516,10.465250949866743,63.40474903492067,0,24.645409,24.073238,-0.039377373,0.02520163,-0.97811884,0.97923553,-0.94874537,-0.69574696,0.68049943,1.3591398,482,245,1426,1525.0,-0.057681132,0.04243443,-0.4840308,0.48929912,0.07160861756300618,-0.02960905940245636,-1.4614990400349894,-1.1580414001710324,-31.935928479434068,328.0640715205659,-6.342540364908126,0.720434298034858,34.82050422298922,-31.82592943645352,0.10184810468090397,7103240.127157408,120.17993107286568,123.3660473253234,56.3,NONE,0.0,0.0,0.0,NONE,6.171410664775371E-9,-3.153180380381602E-9,-0.003988266,2,49.16,48.73,43.55,47.43,16.804,16.804,5.977,2.2198257,0,3457,4.245,12.0,7.35,98,24.1,OK,52,0,0,0,0,0,65,100,0.0,0,0.0,-3.7709056E35,2.68E-43,0.0,-5.9807744E7,62,7.077233E-9,-4.28375E-9,8.872459E-36,False,False,0,None,3.858311E29,1.8183499E-19,geoInclination|7478 degrees
217819934,5.088,10.465251928191387,63.404749050567204,21,24.955906,24.282856,-0.043734867,-0.0026053684,-1.1994948,1.2002947,-1.2511157,5.8122807,5.1072693,7.837863,510,280,1408,1523.0,-0.04492976,0.04589579,-0.58355933,0.5870831,0.0642269965025949,0.010894977477449067,0.24317045500204426,-3.0510442070640975,-29.58718959702129,330.4128104029787,0.5619001432493289,6.555405650479963,42.44200890143551,-32.25151004990943,0.15006479656276903,5.5692095829260735,145.40467108478214,148.59078733723985,56.56,1.9365859143066402,,10.4652514,63.4047494,20190429,114637,2019-04-29T11:46:37Z,161.664,0.54,1.01,6.05,11,10,21,-0.05,0.04,-0.47,0,0,0,0,5,5,10.465248924293133,63.404749163875366,50,7123,48,20,37,738,3702,3762,3764,0,15053,23,212,4,0,false,false,false,false,false,false,true,false,false,false,6064,6208,5357,5706,55,70,71,56,1602,1617,1538,1560,1593,1622,1535,1546,0.0,0.0,0.0,0.0,1636.7,1631.8,1631.2,1635.5,6.12,5.47,4.97,4.9,0,0,0,0,-170.37636820748122,10.465251674943696,63.40474843090928,0,25.01127,24.45293,-0.04283137,-0.003456102,-1.2439905,1.2447324,-11.934738,1.2219378,-17.400612,21.135572,510,280,1411,1526.0,-0.049467422,0.010054942,-0.68576646,0.68762183,0.0504789824380247,0.025722438868938623,0.21344852790068747,-2.5701202038561073,-31.12060476183776,328.87939523816226,-5.567482162800841,2.1217889053988865,35.30356139392192,-31.623919595750625,0.1593484464880605,7103240.265382705,149.66233814582057,152.84845439827828,56.57,NONE,0.0,0.0,0.0,NONE,6.219250446118298E-10,-1.1742102315588268E-9,-0.0016078949,2,60.98,64.77,54.18,55.87,16.767,16.767,5.92,2.919146,0,3455,4.205,12.0,7.375,98,24.1,OK,53,0,0,0,0,0,65,100,0.0,0,0.0,-4.0727838E-14,2.68E-43,0.0,-5.9807744E7,62,1.0991471E-8,-5.3555893E-9,1.03365005E-35,False,False,0,None,5.2506066E29,2.0999884E-19,geoIntensity|5185038 nanoTesla
221698121,6.096,10.465251795293673,63.40474884391033,21,27.506422,26.705585,-0.03266148,0.0069037667,-0.98165613,0.9822236,0.32558486,3.8272812,11.593308,12.213062,487,280,1417,1524.0,0.003417567,0.041856285,-3.3508697,3.3511329,0.04199557512502598,-0.018270990492611806,-0.293085271841895,-2.413902038548443,-29.782455456634608,330.2175445433654,2.546480394278082,7.035537801793742,44.70390443977899,-33.93214056546976,0.1472811741100011,5.64178002634038,,,56.94,4.487102042846679,,10.4652512,63.4047491,20190429,114638,2019-04-29T11:46:38Z,163.683,0.54,1.01,6.06,11,10,21,-0.14,0.03,-2.12,0,0,0,0,5,5,10.465248924293133,63.404749163875366,50,7123,48,20,38,738,3702,3762,3764,0,15053,23,212,4,0,false,false,false,false,false,false,true,false,false,false,5863,5991,5413,5433,54,71,70,55,1554,1577,1512,1485,1541,1597,1517,1471,0.0,0.0,0.0,0.0,1649.0,1645.3,1644.7,1650.2,4.82,4.05,3.99,3.38,0,0,0,0,173.8844964337146,10.4652513800428,63.404748269732686,0,26.84062,26.630245,-0.03701075,0.0022009378,-1.0092165,1.0098974,-4.9632096,7.527005,-0.9155032,9.062417,485,289,1417,1525.0,-0.02369549,-0.002880176,-3.2934542,3.2935405,0.023869889527035705,-8.85035009253566E-4,-0.17005642436647697,-2.2241370867446597,-31.350002705723977,328.64999729427603,-8.610283856103148,1.1891109134037041,35.20428707435172,-34.30903106610415,0.1575744876249839,7103240.328455748,165.01272706944155,168.19884332189926,56.86,NONE,0.0,0.0,0.0,NONE,-7.510939124282743E-10,-5.375771983477382E-10,-0.007917404,2,52.81,59.38,49.44,44.29,16.57,16.57,5.919,3.7663193,0,3453,4.192,12.0,9.427,98,24.2,OK,54,0,0,0,0,0,65,100,0.0,0,0.0,-4.244198E-25,2.68E-43,0.0,-5.9807744E7,62,1.1157863E-7,-1.6927634E-8,1.8805434E-35,False,False,0,None,1.498952E30,6.3770006E-19,
225674666,7.130,10.465251335275271,63.40474824370985,21,30.611977,29.87978,-0.025536174,-2.5248155E-6,-0.98450166,0.98483276,-11.135087,-7.9554567,-13.863324,19.48002,453,297,1432,1531.0,0.067497164,0.07972295,-3.1935084,3.1952164,0.1044586787462832,-0.036186164582069635,0.6024847513678793,-0.8964154858783443,-29.760102595423604,330.23989740457637,9.932487405328398,14.739222311488076,49.78529282032854,-33.220379703420264,0.1577135958117436,5.745559984748406,30.591434676416355,33.777550928874064,57.22,7.592656623535156,,10.4652507,63.4047485,20190429,114639,2019-04-29T11:46:39Z,167.049,0.54,1.01,6.07,11,10,21,-0.09,-0.03,-3.12,0,0,0,0,5,5,10.465248924293133,63.404749163875366,50,7123,48,20,39,738,3702,3762,3764,0,15053,23,212,4,0,false,false,false,false,false,false,true,false,false,false,6030,6038,5577,5655,55,71,71,55,1595,1560,1533,1524,1589,1598,1501,1503,0.0,0.0,0.0,0.0,1644.7,1639.2,1640.5,1643.5,4.92,3.66,5.0,4.08,0,0,0,0,-175.21367140508903,10.465251234429399,63.404747708648976,0,30.973948,30.103848,-0.03762147,0.002710876,-1.0175115,1.0182104,-3.971918,0.17252289,0.94418657,4.0862436,453,294,1423,1522.0,0.05492374,-7.788559E-4,-3.1245604,3.1250432,0.05492926062620292,0.005844979516959108,0.26141551494133775,-0.9450268524019763,-31.362368617977413,328.63763138202256,-5.310411179314668,3.2756926337207,41.86689912490875,-33.801366321508745,0.19851583387977392,7103240.503702872,138.32269629643662,141.50881254889433,57.2,NONE,0.0,0.0,0.0,NONE,-4.736194394994196E-10,1.484226199246551E-9,-0.0077991486,2,58.79,59.69,47.65,48.13,16.606,16.606,5.896,4.740096,0,3450,4.183,12.0,10.269,98,24.3,OK,55,0,0,0,0,0,65,100,0.0,0,0.0,174352.0,2.68E-43,0.0,-5.9807744E7,62,3.0947267E-6,-9.007865E-8,4.2636842E-35,False,False,0,None,6.9231797E30,2.8018396E-18,
229574318,8.143,10.465253720817923,63.40474805369567,22,34.238197,32.992455,-0.060434736,-0.0010419353,-0.9604875,0.9623875,19.290817,8.199189,12.945794,24.636475,502,254,1417,1524.0,-0.0034593947,0.073831365,-3.1661663,3.1670287,0.0739123677439549,0.045098724325475945,-0.5244322596319937,-3.0807123416923794,-29.631742970974294,330.3682570290257,10.535790153714903,15.623819252962335,47.451746347529536,-32.119401287873465,0.26879597729687454,5.875932545450258,95.2372932425101,98.42340949496781,57.58,11.218877326660156,,10.465253,63.4047485,20190429,114640,2019-04-29T11:46:40Z,170.321,0.54,0.98,6.07,12,10,22,-0.04,0.14,-3.25,0,0,0,0,5,5,10.465248924293133,63.404749163875366,50,8667,16,20,40,738,3702,3762,3764,0,15055,23,1,17515,0,false,false,false,false,false,false,true,false,false,false,5880,5843,5321,5582,56,71,71,55,1552,1573,1522,1517,1548,1571,1525,1517,0.0,0.0,0.0,0.0,1644.1,1641.7,1640.5,1644.7,4.82,3.67,3.69,4.3,0,0,0,0,-160.02811474303942,10.465253333098573,63.40474750037319,0,34.185123,33.175808,-0.057673734,0.0043918137,-0.9689447,0.97066957,2.8634696,-4.216735,-5.3282204,7.373618,505,257,1414,1523.0,-0.011818022,0.024264844,-3.0535445,3.0536637,0.026989780859059995,0.07859316815748686,-0.3186815186382599,-3.155801398739979,-31.31327034442844,328.6867296555716,-6.723504069998293,-1.092847897643511,39.16405445047839,-31.84240117315417,0.2870240727167046,7103240.650576608,58.94957440538033,62.13569065783804,57.59,NONE,0.0,0.0,0.0,NONE,6.554124985359865E-9,1.7305256932784566E-9,-0.02294159,2,53.19,56.76,51.11,49.15,16.592,16.592,5.897,5.7707477,0,3447,4.115,12.0,9.217,98,24.3,OK,56,0,0,0,0,0,65,100,0.0,0,0.0,-1.7333591E-38,2.68E-43,0.0,-5.9807744E7,62,7.615797E-5,-4.348495E-7,1.0743508E-34,False,False,0,None,3.6377487E31,1.1818916E-17,mcID(SN)|298DG13001W644
233477340,9.158,10.465254833235885,63.404747649657544,22,37.35795,36.091537,-0.05417688,0.018794633,-0.96433645,0.96603996,-5.7304134,-17.161573,-7.5431876,19.602472,508,277,1408,1522.0,0.052021906,0.028678317,-3.1602018,3.1607602,0.05940306746743805,0.01089531035525175,-0.30984244190099863,-3.3886532797857947,-29.662061410200153,330.3379385897998,8.867542644010726,14.537680390986223,44.368299855530225,-33.87296029598594,0.33892945889750076,5.971974985453596,115.50869024456495,118.69480649702265,57.88,14.338628303222656,,10.4652541,63.404748,20190429,114641,2019-04-29T11:46:41Z,173.576,0.54,0.98,6.07,12,10,22,-0.04,0.03,-3.3,0,0,0,0,5,5,10.465248924293133,63.404749163875366,50,8669,18,20,41,740,3703,3842,3843,3562,15375,23,1,15466,0,false,false,false,false,false,false,false,false,false,false,5655,5699,5289,5236,55,71,71,55,1562,1559,1477,1515,1558,1534,1455,1513,0.0,0.0,0.0,0.0,1650.2,1644.7,1646.6,1649.0,4.62,4.48,3.87,3.24,0,0,0,0,173.3262562801837,10.465254556321947,63.40474706259812,0,37.323204,36.22481,-0.059491087,0.0062624803,-0.977014,0.97884357,1.3196092,-3.7404208,5.668287,6.918207,510,274,1405,1519.0,0.03964788,-0.033250734,-3.0367866,3.0372274,0.05174520176979536,0.02510794525370165,-0.4071290095778986,-3.440684105754767,-31.23788553442439,328.7621144655756,-13.475453697123793,-7.132993900196727,36.0301672637374,-33.757637168581034,0.36496161468813676,7103240.750631143,130.34992729250342,133.53604354496113,57.85,NONE,0.0,0.0,0.0,NONE,-9.290586273630459E-9,4.5088949562864135E-9,-0.038181305,2,54.89,51.69,41.79,49.33,16.593,16.593,5.925,6.72622,0,3444,4.148,12.0,9.042,98,24.3,OK,57,0,0,0,0,0,65,100,0.0,0,0.0,1.4324198E35,2.68E-43,0.0,-1.2335205,63,0.0017902851,-2.1297753E-6,2.705298E-34,False,False,0,None,1.8193757E32,4.9222994E-17,mcVer|v3.4.1.6
237331131,10.159,10.465255029434626,63.40474792836818,22,40.306477,39.143574,-0.03748365,0.0050362395,-0.99755126,0.99826795,-2.5411754,-5.585912,-6.606901,9.017268,496,268,1411,1519.0,0.09108794,-0.030373506,-3.1057487,3.1072326,0.09601854874712037,-0.0635761217731888,-0.2831662277139593,-2.542032974787735,-29.545509321383715,330.4544906786163,10.185004660129092,17.205528123732407,45.592434026998774,-32.417551539381584,0.3335245764946049,6.046163932748919,30.510977209715996,33.697093462173704,58.17,17.287156593017578,,10.4652547,63.4047481,20190429,114642,2019-04-29T11:46:42Z,176.875,0.54,0.98,6.04,12,10,22,0.04,0.01,-3.31,0,0,0,0,5,5,10.465248924293133,63.404749163875366,50,11563,19,94,42,3481,3721,4335,4346,0,17345,29,1,17411,0,false,false,false,false,false,false,false,false,false,false,5841,5902,5259,5503,56,71,71,56,1583,1569,1509,1525,1577,1571,1482,1510,0.0,0.0,0.0,0.0,1644.1,1638.0,1638.0,1643.5,4.88,4.29,4.74,3.82,0,0,0,0,-169.4332493990339,10.465255007049889,63.404747244870975,0,40.62074,39.226116,-0.047388718,0.00604866,-1.0158225,1.0169452,-7.001044,2.850614,-7.3677335,10.555762,496,271,1414,1522.0,0.07290383,-0.082428835,-3.0000854,3.0021029,0.11004308609923877,-0.07985480221030512,-0.4877574044669913,-2.6424473912885946,-31.27325253805012,328.72674746194986,-12.057997239713064,-7.267402369532562,37.228157710288116,-33.329093335025064,0.3704338801406179,7103240.8412450785,-179.22162181391005,-176.03550556145234,58.18,NONE,0.0,0.0,0.0,NONE,-8.989189000160376E-9,4.809271957507774E-9,-0.022499084,2,57.0,55.95,45.56,49.33,16.625,16.625,5.912,7.5145855,0,3442,4.141,12.0,8.346,98,24.3,OK,58,0,0,0,0,0,65,100,0.0,0,0.0,-9.734563E-35,2.68E-43,0.0,-1.2335205,63,0.04228878,-1.0502818E-5,5.862809E-34,False,False,0,None,7.393572E32,2.0140497E-16,
241188233,11.162,10.465254857198618,63.40474797430984,22,43.459335,42.3787,-0.039789125,-0.008710799,-0.9960987,0.9969311,9.786375,-3.442236,11.051079,15.157456,490,289,1420,1529.0,0.09098552,-0.030777033,-3.2135487,3.2149837,0.09604994058223666,-0.08609381992771727,0.7767059013310342,-2.3410682061365518,-29.654817865598684,330.34518213440134,11.734799624457185,20.652899519193006,45.023814417708046,-32.012953817301764,0.32360948907473946,6.098703146454489,-48.52573715406279,-45.33962090160508,58.44,20.440015327148437,,10.4652543,63.4047481,20190429,114643,2019-04-29T11:46:43Z,180.232,0.54,0.98,6.03,12,10,22,-0.02,0.0,-3.38,0,0,0,0,5,5,10.465248924293133,63.404749163875366,50,22171,16,94,43,3462,3726,4271,4287,-1386,17151,24,0,16512,0,false,false,false,false,false,false,false,false,false,false,5766,5721,5239,5253,56,72,72,56,1555,1560,1510,1500,1552,1552,1491,1490,0.0,0.0,0.0,0.0,1645.9,1642.3,1641.1,1644.7,4.38,4.24,4.5,3.22,0,0,0,0,-176.60653531853288,10.465254328769214,63.40474727112494,0,43.636276,42.25294,-0.041763347,-0.013071083,-0.9958219,0.99678296,5.777889,3.8759224,3.8417957,7.947715,490,291,1426,1535.0,0.054741874,-0.12732513,-3.0266685,3.02984,0.1385942295457528,-0.10478585956082906,0.5750110977892301,-2.3667047515564352,-31.30531915791353,328.6946808420865,-10.036668622493734,-3.5350984354110433,37.34976954991048,-32.7234134747107,0.34157839887069313,7103240.91358651,-141.94275053871183,-138.75663428625413,58.46,NONE,0.0,0.0,0.0,NONE,-1.9265270819530526E-8,3.698778874220682E-9,-0.022697449,2,54.01,54.27,46.53,46.01,16.621,16.621,5.908,8.10533,0,3440,4.141,12.0,8.563,98,24.3,OK,59,0,0,0,0,0,65,100,0.0,0,0.0,-1.6989567E-37,2.68E-43,0.0,-1.2335205,63,0.95033264,-5.0364306E-5,1.2030541E-33,False,False,0,None,2.639011E33,8.2917416E-16,
245074549,12.172,10.465254117975421,63.404748102452096,22,46.9102,45.74047,-0.03367848,-0.0075379796,-0.985226,0.98583025,4.125848,1.0646504,0.5445174,4.295649,482,317,1411,1524.0,0.110270076,0.0049982197,-3.2997346,3.3015804,0.11038329081864028,-0.07131432783049893,1.5809656783162178,-1.8475155826897203,-29.53818534995965,330.46181465004037,12.624188459346138,21.615754864532292,46.412871838577225,-32.51787249905311,0.2842083458007864,6.165463939261934,52.45173630424524,55.637852556702946,58.76,23.89087821166992,,10.4652534,63.4047483,20190429,114644,2019-04-29T11:46:44Z,183.68,0.54,0.98,6.02,12,10,22,0.0,-0.04,-3.44,0,0,0,0,5,5,10.465248924293133,63.404749163875366,50,22171,20,94,44,3462,3726,4271,4287,-1386,17151,24,2,16512,0,false,false,false,false,false,false,false,false,false,false,5675,5849,5212,5227,56,72,73,56,1555,1579,1496,1506,1546,1553,1484,1501,0.0,0.0,0.0,0.0,1644.7,1639.8,1640.5,1644.1,4.56,4.74,4.12,3.29,0,0,0,0,171.6630012242096,10.465253615211845,63.404747405977936,0,47.37534,45.255524,-0.034739293,-0.015290562,-0.99465185,0.9953758,-11.387065,-4.239185,-12.677158,17.559792,482,315,1417,1529.0,0.04919572,-0.13676341,-3.0067236,3.0102346,0.1453425217451297,-0.10716921173948493,1.1890080028964434,-1.960073819049699,-31.238396515554715,328.7616034844453,-9.28793241572106,-1.482395608329988,38.72402586658209,-33.399250724362105,0.304528570262729,7103240.994836757,-108.82120188232196,-105.63508562986425,58.77,NONE,0.0,0.0,0.0,NONE,-2.3393876071357905E-8,2.7971067669913307E-9,-0.022563934,2,53.48,54.06,45.41,47.92,16.611,16.611,5.906,8.511693,0,3437,4.149,12.0,8.318,97,24.4,OK,60,0,0,0,0,0,65,100,0.0,0,0.0,8.3524585E37,2.68E-43,0.0,-1.2335205,63,22.702148,-2.3308866E-4,2.4399624E-33,False,False,0,None,9.668371E33,3.3874408E-15,
248924037,13.172,10.465254632530678,63.40474820128562,22,50.525524,49.24314,-0.045318015,-0.028797146,-0.99829906,0.999742,-6.0152264,6.9718523,-1.8591583,9.393942,516,315,1423,1546.0,0.06491646,0.0142598115,-3.4396918,3.4403338,0.06646419549491926,-0.038604412836438,1.5865614694906551,-3.112481975237907,-29.746247549947533,330.25375245005245,12.837159686384526,19.83361045040472,45.13400096252391,-32.19552446834443,0.30364806768721975,6.227417552497039,51.62680049504212,54.81291674749983,59.06,27.506204139404296,,10.4652544,63.4047485,20190429,114645,2019-04-29T11:46:45Z,187.126,0.54,0.98,6.01,12,10,22,-0.01,0.06,-3.47,0,0,0,0,5,5,10.465248924293133,63.404749163875366,50,23426,48,22,45,754,3564,3719,3726,-1155,14915,39,212,14912,0,false,false,false,false,false,false,false,false,false,false,5628,5661,5277,5142,57,71,72,57,1535,1542,1515,1470,1525,1554,1489,1449,0.0,0.0,0.0,0.0,1648.4,1642.9,1642.9,1646.6,4.36,3.56,4.26,3.46,0,0,0,0,169.0705119978196,10.465254669069665,63.40474761289366,0,50.261074,48.25051,-0.04725864,-0.023712736,-0.981716,0.98313886,-0.49407667,4.022618,1.3637562,4.2761426,513,315,1423,1545.0,0.024267534,-0.09984904,-3.0235622,3.025308,0.10275574904186828,-0.04549744371157882,1.2795017649307898,-3.2420323556225696,-31.397268656011338,328.60273134398864,-8.816615279329149,0.8607372541581284,37.210123174398284,-33.28318205986925,0.3339544401700291,7103241.0924137,86.52689832798332,89.71301458044103,59.11,NONE,0.0,0.0,0.0,NONE,-4.798373131351893E-9,3.319688396984978E-10,-0.0075531006,2,46.44,48.26,42.02,39.82,16.604,16.604,5.913,8.762679,0,3435,4.144,12.0,8.368,97,24.4,OK,61,0,0,0,0,0,65,100,0.0,0,0.0,-5.214494E-28,2.68E-43,0.0,-1.2335205,63,492.04688,-0.0011338372,5.329998E-33,False,False,0,None,4.011924E34,1.37846015E-14,
252773121,14.173,10.465254596187126,63.40474842106857,22,53.31103,52.470253,-0.045650925,-0.020546958,-0.94600445,0.94732815,-0.74801606,4.5446057,5.244283,6.979647,499,312,1426,1542.0,0.08466812,-0.068864234,-2.4240625,2.426518,0.10913740902219578,-0.08464059657937063,1.4581997854936442,-2.6658781792710933,-29.63915721685889,330.3608427831411,15.08019052543281,20.4178044733293,45.964148253238456,-32.55020342372671,0.2941817023569778,6.304940992361981,-117.20460266641335,-114.01848641395564,59.38,30.291711341552734,,10.4652544,63.4047486,20190429,114646,2019-04-29T11:46:46Z,190.225,0.54,0.98,6.01,12,10,22,0.03,-0.04,-3.06,0,0,0,0,5,5,10.465248924293133,63.404749163875366,50,23426,17,22,46,754,3564,3719,3726,-1155,14915,39,0,14912,0,false,false,false,false,false,false,false,false,false,false,5269,5364,5027,4893,56,73,73,56,1494,1518,1477,1462,1489,1509,1471,1453,0.0,0.0,0.0,0.0,1654.6,1650.2,1650.8,1653.3,3.83,3.58,3.82,2.96,0,0,0,0,162.19411807265743,10.46525451551488,63.40474781584085,0,53.538376,50.654198,-0.04819404,-0.020460855,-0.9491152,0.9505583,-2.2612681,2.7331054,-1.336941,3.7908587,496,312,1426,1541.0,0.07383905,-0.1558242,-1.9485232,1.956138,0.17243371988496747,-0.14861611041954653,1.2066831280984582,-2.701371756647757,-31.33145581250674,328.66854418749324,-5.651495022781948,2.3468842418841342,38.20080416217425,-33.374062511435476,0.31612889201477573,7103241.162424696,-129.807791830564,-126.6216755781063,59.36,NONE,0.0,0.0,0.0,NONE,-7.821871922183182E-9,1.485292348662002E-9,-0.005405426,2,46.26,48.96,43.88,41.36,16.649,16.649,5.941,8.873104,0,3433,4.143,12.0,7.48,97,24.4,OK,62,0,0,0,0,0,65,100,0.0,0,0.0,-1.2123164E-23,2.68E-43,0.0,-1.2335205,63,6740.75,-0.0039954497,9.9328824E-33,False,False,0,None,1.2665097E35,4.607361E-14,
256709091,15.196,10.46525375472167,63.40474801087899,22,55.727383,54.498566,-0.06915813,-0.046343867,-0.9026955,0.9065262,-3.4902735,-7.8002467,0.44441116,8.557065,522,326,1429,1555.0,0.021232244,-0.10027267,-1.5741608,1.5774941,0.10249593827003832,-0.04195736345039503,2.343954181278991,-4.000318726819901,-29.613338208592356,330.3866617914076,14.208425661217632,19.797908540123256,40.75990327063574,-32.46040975460964,0.2725036137378916,6.373003344472294,-133.19495648912005,-130.00884023666234,59.67,32.70806265991211,,10.4652534,63.4047483,20190429,114647,2019-04-29T11:46:47Z,192.811,0.54,0.98,6.02,12,10,22,-0.02,-0.07,-2.15,0,0,0,0,5,5,10.465248924293133,63.404749163875366,50,82844,48,22,47,787,3562,3785,3787,0,15144,22,212,4,0,false,false,false,false,false,false,false,false,false,false,4893,5059,5026,4778,56,73,73,57,1466,1489,1479,1441,1464,1489,1461,1432,0.0,0.0,0.0,0.0,1658.8,1655.2,1653.9,1658.8,3.35,3.07,3.77,2.57,0,0,0,0,109.67135642577819,10.465253904101697,63.40474755777281,0,55.492447,52.24722,-0.07336044,-0.039276153,-0.90889627,0.91269755,4.0433364,-7.8951573,-3.5932002,9.570432,510,326,1435,1557.0,0.019994525,-0.15859169,-1.0923015,1.1039355,0.1598471298401141,-0.1189543698461891,2.0476458126239656,-3.7849825412882248,-31.24798451052707,328.7520154894729,-3.5150260586985085,5.047521096347164,39.80598939158963,-33.582886936578745,0.3055276677985106,7103241.241145662,134.2844525614043,137.470568813862,59.61,NONE,0.0,0.0,0.0,NONE,-2.6120737874379944E-8,2.448000865615962E-9,-0.008857727,2,42.98,46.3,42.95,38.76,16.7,16.7,5.956,8.836553,0,3429,4.139,12.0,6.818,97,24.4,OK,63,0,0,0,0,0,65,100,0.0,0,0.0,-2.8143404E-32,2.68E-43,0.0,-1.2335205,63,36536.0,-0.009824338,1.457999E-32,False,False,0,None,2.5852466E35,9.867498E-14,
260561727,16.197,10.465252677714396,63.40474734452948,22,56.782833,55.608284,-0.033726253,-0.04497337,-0.9265736,0.92827725,-23.920462,37.432278,-11.850872,45.97616,533,338,1405,1540.0,0.11838137,-0.034334075,-0.5266554,0.5408871,0.12325980291810443,-0.03191957789121369,1.672262173533564,0.027667405681765993,-29.671029524092422,330.32897047590757,14.425107705051717,19.692714856429934,36.8701584224286,-29.084488759853098,0.27538645927794575,6.466901629113173,-137.47819118089473,-134.29207492843702,59.98,33.763513099365234,,10.4652523,63.4047475,20190429,114648,2019-04-29T11:46:48Z,193.939,0.54,0.98,6.02,12,10,22,-0.02,-0.05,-1.17,0,0,0,0,5,5,10.465248924293133,63.404749163875366,50,82844,48,22,48,787,3562,3785,3787,0,15144,22,212,4,0,false,false,false,false,false,false,false,false,false,false,4182,4886,5612,5473,57,73,73,58,1407,1425,1561,1501,1455,1487,1410,1433,0.0,0.0,0.0,0.0,1655.8,1636.1,1641.7,1650.8,3.04,1.86,10.5,5.99,0,0,0,0,22.68236427808108,10.465252818141387,63.4047468456384,0,56.0022,53.197296,-0.1065365,-0.04705934,-1.017639,1.0242821,-8.702657,69.468445,-1.0082347,70.01869,565,352,1411,1560.0,0.13928942,-0.07653495,-0.080245554,0.1780407,0.15893124576028397,-0.06317498257206747,2.60918159676742,-4.368262084005551,-31.06854538629536,328.93145461370466,-3.404863390688773,5.920925941246746,45.194389549872454,-32.29127252133826,0.32252336421527367,7103241.355341026,53.43937560498274,56.62549185744045,59.94,NONE,0.0,0.0,0.0,NONE,-2.8153939635811126E-9,2.319496465833973E-9,-2.975464E-4,2,40.47,44.47,38.32,40.38,16.725,16.725,5.975,8.652478,0,3427,4.167,12.0,6.232,97,24.5,OK,64,0,0,0,0,0,65,100,0.0,0,0.0,0.97857666,2.68E-43,0.0,-1.2335205,63,106660.0,-0.015840178,1.9210873E-32,False,False,0,None,4.1021173E35,1.61292E-13,
264458701,17.210,10.465252595846916,63.40474537514061,22,57.721558,56.008995,-0.04799023,-0.06525935,-0.92065006,0.92420685,-8.43559,-3.2815816,-73.4411,73.99678,361,462,1435,1550.0,-0.11297378,-0.038580883,-0.11678946,0.167007,0.11937989379053948,0.09687470009632357,3.6021842694589132,-2.663284136798966,-61.84432237199245,298.15567762800754,-16.46625417332723,20.72344670208446,33.7704512757723,-51.72166239212238,0.4592264224468195,6.6878053084055775,-169.72528064536203,-166.53916439290433,60.28,34.7022376171875,,10.4652517,63.4047456,20190429,114649,2019-04-29T11:46:49Z,194.23,0.54,0.98,6.03,12,10,22,-0.29,-0.09,-0.43,0,0,0,0,5,5,10.465248924293133,63.404749163875366,50,82844,48,22,49,787,3562,3785,3787,0,15144,22,212,4,0,false,false,false,false,false,false,false,false,false,false,4724,5275,4803,4967,57,73,74,57,1453,1510,1456,1454,1457,1527,1438,1437,0.0,0.0,0.0,0.0,1657.6,1654.6,1654.6,1657.6,3.44,3.82,3.32,2.68,0,0,0,0,120.61412987544617,10.46525244590348,63.40474473937449,0,57.660053,53.749374,-0.05301096,-0.066059545,-0.9227363,0.9266155,-12.697128,-15.807573,-73.24833,76.00272,344,473,1429,1544.0,-0.06307217,-0.0067040413,0.18887849,0.19924389,0.06342745862376684,0.16853970673165508,3.6637879132104394,-3.0288915867319908,-66.21847852212524,293.7815214778748,-39.23338638706901,4.326599159097546,43.91742126441431,-55.00126737995397,0.522282318756811,7103241.607208955,-174.76042448450227,-171.57430823204456,60.3,NONE,0.0,0.0,0.0,NONE,-1.817926211647807E-10,-1.5109922891852271E-9,2.975464E-4,2,41.52,50.32,40.45,40.35,16.733,16.733,5.946,8.359297,0,3425,4.168,12.0,6.608,97,24.5,OK,65,0,0,0,0,0,65,100,0.0,0,0.0,-2.1239539E19,2.66E-43,0.0,-1.2335205,63,185280.0,-0.021981364,2.4343552E-32,False,False,0,None,6.6010116E35,2.016382E-13,
268436206,18.243,10.465249834076484,63.404742569423604,22,57.404896,56.077816,-0.0146192135,-0.083604,-0.9799208,0.9835894,-5.8119226,5.392153,-0.14087185,7.9292874,99,543,1399,1503.0,-0.10351545,-0.11801938,0.17376634,0.23417678,0.15698414826815765,0.17282028401619964,5.3564011683046315,-1.7147233418293153,-93.10716198168083,266.89283801831914,-47.821632404279796,19.67059618335983,32.4347953009626,-82.25597263644057,0.7346668610822747,7.031515777970131,-146.4347067875135,-143.2485905350558,60.7,34.3855757824707,,10.4652487,63.4047424,20190429,114650,2019-04-29T11:46:50Z,194.046,0.54,0.98,6.01,12,10,22,-0.35,-0.22,0.15,0,0,0,0,5,5,10.465248924293133,63.404749163875366,50,82844,48,22,50,787,3562,3785,3787,0,15144,22,212,4,0,false,false,false,false,false,false,false,false,false,false,5417,5906,4879,4341,57,74,74,57,1473,1598,1448,1393,1452,1564,1506,1399,0.0,0.0,0.0,0.0,1652.1,1647.8,1648.4,1651.5,4.2,5.03,2.55,1.05,0,0,0,0,153.97143098394832,10.465249196138219,63.40474193457546,0,57.672504,53.989742,-0.008386806,-0.07776066,-0.9739943,0.97712946,16.791435,0.027662426,15.918285,23.13752,97,543,1399,1503.0,-0.036095336,-0.07950343,0.34381482,0.3547285,0.08731362299241319,0.2525603456740524,5.565554798659273,-1.8163165180075056,-94.57410980207726,265.42589019792274,-64.92076864749512,7.997880113119851,44.51505231530617,-82.79772225870596,0.803975370486012,7103241.9651077455,-143.7988899716437,-140.61277371918598,60.7,NONE,0.0,0.0,0.0,NONE,-3.83199646346412E-9,-8.599055606711015E-10,8.583069E-4,2,41.81,55.18,48.14,35.43,16.687,16.687,5.929,8.027965,0,3423,4.171,12.0,6.854,97,24.5,OK,66,0,0,0,0,0,65,100,0.0,0,0.0,-2.0139745E-34,2.63E-43,0.0,-1.2335205,63,247140.0,-0.025668269,3.8771574E-32,False,False,0,None,1.416848E36,2.2586188E-13,
272338630,19.258,10.465234162429423,63.40473923008999,21,57.229244,56.012203,-0.05531055,-0.077311695,-1.0313617,1.0357332,-0.017397346,-1.5368395,4.764624,5.006378,614,595,1265,1526.0,-0.11261001,-1.8125322,0.124782726,1.8203089,1.816026939246892,-0.9641440846177184,6.4289962158868095,-23.310001657538454,-91.54002285041328,268.45997714958673,-49.72559081193057,17.643161143272668,13.26047391634219,-84.90334861733947,1.326693664466287,7.923699326087879,-105.03007573913557,-101.84395948667786,61.04,34.209924232177734,,10.4652346,63.4047391,20190429,114651,2019-04-29T11:46:51Z,193.704,0.56,1.05,5.97,12,9,21,-0.39,-1.42,0.27,0,0,0,0,5,5,10.465248924293133,63.404749163875366,50,82845,16,23,51,787,3562,3785,3786,0,15146,22,1,17515,0,false,false,false,false,false,false,false,false,false,false,5083,5588,5250,4871,58,73,73,57,1479,1548,1502,1464,1473,1535,1495,1455,0.0,0.0,0.0,0.0,1650.2,1646.6,1645.3,1649.6,3.44,4.23,4.22,2.98,0,0,0,0,121.88871511538366,10.465231714002748,63.40473847415862,0,57.11633,54.242985,-0.058417562,-0.07994186,-1.0255402,1.0303087,2.5244665,-17.629,7.3154774,19.252811,625,595,1259,1526.0,-0.124961056,-1.8964318,0.15515018,1.9068667,1.900544367155176,-0.9623524942869897,6.6112705154146365,-23.46042314549675,-93.12551528589985,266.87448471410016,-61.41464897517978,12.727715512237,19.041595401076847,-83.83723195961724,1.4652176613771577,7103242.953714251,-102.99822054848208,-99.81210429602437,61.03,NONE,0.0,0.0,0.0,NONE,-5.860418317242538E-8,-2.270236277217025E-9,2.3269653E-4,2,43.99,51.46,46.88,42.64,16.637,16.637,5.929,7.7382464,0,3421,4.159,12.0,7.951,97,24.6,OK,67,0,0,0,0,0,65,100,0.0,0,0.0,4.4032486E-14,8.8E-44,0.0,1.05007105E-23,64,321496.0,-0.028331405,8.312684E-32,False,False,0,None,5.7227224E36,2.5934292E-13,
276187927,20.258,10.465168841306669,63.40473505428972,22,55.388573,55.64737,-0.053038128,-0.07085405,-1.0177028,1.0215441,-0.3230086,17.013107,1.3010684,17.065842,108,531,1402,1503.0,-0.30859035,-3.7142186,0.20574442,3.7326906,3.7270159495477873,-0.44368783771355025,4.78925829153716,-1.7287849782307048,-98.11024226362261,261.8897577363774,-50.05166145924821,17.18250129046291,36.21080711311329,-81.10907907831994,4.284170858284186,11.222079299104744,-97.1665417953715,-93.98042554291379,61.37,32.36925269287109,,10.4651701,63.4047357,20190429,114652,2019-04-29T11:46:52Z,193.334,0.54,0.98,5.94,12,10,22,-0.33,-3.84,0.32,0,0,0,0,5,5,10.465248924293133,63.404749163875366,50,82846,114,23,52,787,3562,3785,3787,0,15146,22,3702,17542,0,false,false,false,false,false,false,false,false,false,false,4772,4980,4953,4637,59,74,73,59,1461,1504,1469,1442,1460,1490,1463,1429,0.0,0.0,0.0,0.0,1654.6,1649.6,1649.6,1653.3,3.56,3.98,4.1,2.56,0,0,0,0,107.17953291703486,10.465164689847253,63.40473500510672,0,55.306957,53.89608,-0.056152195,-0.06976954,-1.0221364,1.0260526,-7.9719114,12.198997,-0.84068894,14.597043,94,528,1402,1501.0,-0.2138594,-3.7180684,0.16370147,3.72781,3.7242138897188104,-0.3668991854354431,4.738282756920812,-0.9390158406671328,-95.22334505402064,264.7766549459794,-62.39218132964433,10.17202221174147,43.25058849571195,-80.26925794212056,4.479034475303554,7103246.315967576,-97.99976563898248,-94.81364938652477,61.39,NONE,0.0,0.0,0.0,NONE,-1.8679662932023426E-7,-4.8205042836876E-9,4.234314E-4,2,38.74,41.48,45.48,43.87,16.643,16.643,5.94,7.52964,0,3419,4.145,12.0,7.062,97,24.6,OK,68,0,0,0,0,0,65,100,0.0,0,0.0,-1.2310257E-21,8.8E-44,0.0,1.05007105E-23,64,224320.0,-0.024307853,1.822809E-30,False,False,0,None,-6.743452E-39,2.1692458E-13,
280056248,21.263,10.46509014439029,63.40473403850055,22,55.4558,55.10398,-0.11300443,-0.06706058,-0.9694587,0.9783237,1.6763054,0.6614799,-6.9217935,7.1525364,65,528,1405,1502.0,-0.100520715,-3.1643314,0.31076813,3.1811435,3.165927666884283,0.7323660455125398,4.73131723161312,-1.2112417777024065,-97.18956131567523,262.81043868432477,-51.79221214844245,18.388534581033994,38.48406376072825,-85.19840367846466,8.081068632683623,15.143300167077562,-96.19640403433144,-93.01028778187373,61.58,32.4364791027832,,10.4650986,63.4047338,20190429,114653,2019-04-29T11:46:53Z,193.167,0.54,0.98,5.9,12,10,22,-0.16,-3.31,0.15,0,0,0,0,5,5,10.465248924293133,63.404749163875366,50,82847,18,23,53,791,3551,3851,3852,3563,15411,22,1,15499,0,false,false,false,false,false,false,false,false,false,false,4612,4733,4656,4889,58,75,76,59,1437,1483,1478,1507,1419,1470,1489,1502,0.0,0.0,0.0,0.0,1648.4,1645.9,1645.3,1649.0,3.63,3.74,4.1,4.5,0,0,0,0,-29.248826336546983,10.4650930618406,63.404733201289176,0,55.872894,53.789356,-0.07921939,-0.08697357,-0.90127474,0.9089204,-5.5420203,-24.250172,-0.7431481,24.886482,56,525,1402,1498.0,-0.10740064,-3.1499372,0.12560295,3.1542692,3.1517675315119407,0.40049706601545676,4.798793112231885,-0.6352787762620451,-94.46516924277879,265.53483075722124,-58.115995162082115,9.523659837313366,44.65346947221482,-84.368783671525,7.959316485411543,7103249.888656831,-95.5191342949396,-92.3330180424819,61.59,NONE,0.0,0.0,0.0,NONE,-8.275100850729686E-7,-1.311248933139711E-8,7.7056885E-4,2,36.61,43.15,46.86,48.51,16.73,16.73,5.967,7.36019,0,3417,4.161,12.0,6.268,97,24.7,OK,69,0,0,0,0,0,65,100,0.0,0,0.0,-8.185008E-12,8.8E-44,0.0,1.05007105E-23,64,203696.0,-0.023079043,1.3959529E-28,False,False,0,None,-4.5002837E-37,2.0885118E-13,
283949430,22.275,10.465032013294532,63.40473293484217,22,55.73358,54.9494,-0.11301842,-0.058608245,-0.98362726,0.99183196,-3.6692903,-22.883503,-9.352961,24.991924,237,482,1444,1540.0,-0.09298721,-2.9315786,0.16018887,2.9374242,2.9330530798576926,-0.07050416514507107,2.886762419356182,-8.054028971320523,-97.7272295757123,262.2727704242877,-50.44058306043923,17.27458199414843,34.33556758347334,-85.91252009323522,10.947653310902064,18.04106940482126,-94.26724243355254,-91.08112618109483,61.68,32.71426154296875,,10.4650396,63.404733,20190429,114654,2019-04-29T11:46:54Z,193.01,0.54,0.98,5.88,12,10,22,-0.09,-2.86,0.11,0,0,0,0,5,5,10.465248924293133,63.404749163875366,50,82872,19,23,54,814,3551,3809,3811,0,15257,22,1,15249,0,false,false,false,false,false,false,false,false,false,false,4914,5035,5239,5026,59,75,75,59,1480,1485,1492,1465,1469,1516,1481,1447,0.0,0.0,0.0,0.0,1650.8,1647.8,1647.8,1650.8,3.46,3.36,4.47,3.15,0,0,0,0,46.586246960119865,10.465034371227171,63.40473227890978,0,55.423546,53.70683,-0.11844811,-0.057273507,-0.9968694,1.0055141,5.77668,11.584188,9.096593,15.821234,237,479,1447,1542.0,-0.08835563,-2.8762772,0.06548949,2.878379,2.877633920000781,0.011650661413731278,3.2164909352158713,-7.527556933092906,-94.55279984325429,265.4472001567457,-59.84841293680497,7.299060031228259,35.035834485032225,-83.93697026214207,10.844287362166964,7103252.813117222,-95.36699570275117,-92.18087945029346,61.67,NONE,0.0,0.0,0.0,NONE,-4.3228351977565444E-7,-5.90475650677038E-9,4.9972534E-4,2,43.58,49.73,45.44,40.6,16.754,16.754,5.934,7.1840367,1711,3416,4.186,12.0,6.483,97,24.7,OK,70,0,0,0,0,0,65,100,0.0,0,0.0,-5.2798896E-8,8.8E-44,0.0,1.05007105E-23,64,188228.0,-0.02215684,3.341246E-27,False,False,0,None,-8.404601E-36,2.0279006E-13,
287883438,23.298,10.46497311151642,63.40473199778095,21,55.2434,55.01138,-0.114629276,-0.0529829,-1.0103813,1.0182424,-7.42562,-2.452034,-7.7407637,11.00326,226,471,1453,1544.0,-0.105501026,-3.0572772,0.024151452,3.0591924,3.0590969563308095,-0.18946532627065116,2.732323066641298,-7.189355617031695,-97.88624612818836,262.11375387181164,-50.65780136289408,16.061637228651797,35.31839794100584,-84.33768221825227,13.862092899917895,20.975303216661334,-94.38138667552865,-91.19527042307094,62.01,32.22408057373047,,10.4649808,63.4047321,20190429,114655,2019-04-29T11:46:55Z,192.976,0.56,1.05,5.84,12,9,21,-0.12,-3.02,0.04,0,0,0,0,5,5,10.465248924293133,63.404749163875366,50,83243,16,23,55,814,3551,3789,3791,0,15160,22,1,17515,0,false,false,false,false,false,false,false,false,false,false,4867,5067,5115,5117,59,74,74,59,1455,1483,1469,1480,1449,1483,1474,1463,0.0,0.0,0.0,0.0,1656.4,1651.5,1650.8,1653.9,3.3,3.19,3.57,3.16,0,0,0,0,33.601236931242056,10.464969797713044,63.40473134565857,0,55.3505,53.656155,-0.11162674,-0.054650765,-1.0005296,1.0082196,-3.8983552,11.302465,8.756116,14.819327,223,473,1453,1544.0,-0.1320994,-3.0442202,0.019112434,3.047145,3.0470850162996137,0.0985209908475273,2.765550026361764,-6.796035581090426,-94.42921025351018,265.5707897464898,-60.418264938405,7.318954185367297,36.01556570263784,-83.33832517630762,14.035554598353528,7103256.030190491,-95.57251227458427,-92.38639602212656,62.03,NONE,0.0,0.0,0.0,NONE,-4.513238861883466E-7,-8.441454646191542E-9,2.708435E-4,2,41.51,45.64,44.12,42.43,16.698,16.698,5.936,7.019723,1750,3414,4.17,12.0,6.946,97,24.7,OK,71,0,0,0,0,0,65,100,0.0,0,0.0,-8.706469E-6,8.8E-44,0.0,1.05007105E-23,64,179152.0,-0.021616107,9.20731E-26,False,False,0,None,-1.620272E-34,1.9924081E-13,
291859089,24.331,10.464911463951005,63.404730919005196,21,54.975105,54.921627,-0.09439855,-0.050129216,-0.9665417,0.97243345,2.1329813,4.1681027,2.8632576,5.4882545,180,453,1444,1524.0,-0.14943177,-3.1436133,0.033235345,3.1473386,3.1471630763883724,-0.17482534326863952,2.1372683877792076,-5.698493826011076,-98.1303848967023,261.8696151032977,-50.852957732065946,14.489798434212831,36.53738820770017,-85.10559467586984,16.920939573902672,24.046806462227273,-94.85112367627434,-91.66500742381663,62.29,31.95578528564453,,10.4649197,63.404731,20190429,114656,2019-04-29T11:46:56Z,192.964,0.56,1.05,5.79,12,9,21,-0.18,-3.1,0.0,0,0,0,0,5,5,10.465248924293133,63.404749163875366,50,83243,18,23,56,815,3551,3854,3855,3577,15421,22,1,15511,0,false,false,false,false,false,false,false,false,false,false,4674,4848,4946,5039,58,74,74,59,1439,1477,1466,1474,1431,1490,1474,1456,0.0,0.0,0.0,0.0,1653.3,1650.8,1650.8,1652.1,3.3,3.28,3.72,3.24,0,0,0,0,9.923243684497322,10.464908461985205,63.404730263152494,0,55.281666,53.61499,-0.098729506,-0.047813673,-0.98332614,0.9894261,1.337773,18.309141,-0.8281279,18.376617,183,453,1441,1521.0,-0.19263476,-3.1382809,0.04111693,3.1444564,3.1441874630103195,-0.18684613175186549,2.107215816485782,-5.52378863776242,-94.38762361084356,265.61237638915645,-60.9470476901876,8.668501881933702,35.96822883100431,-84.01129647313256,17.07813115538348,7103259.086100344,-94.8847197899887,-91.69860353753099,62.3,NONE,0.0,0.0,0.0,NONE,-4.718759959878316E-7,-1.1410213920421612E-8,1.7166138E-4,2,39.32,46.77,44.09,41.6,16.673,16.673,5.945,6.894982,1781,3412,4.158,12.0,6.74,97,24.7,OK,72,0,0,0,0,0,65,100,0.0,0,-2.6482362E21,-2.272492E-4,-4.622072E19,-1.70523671E18,1.05008604E-23,64,171108.0,-0.021136409,2.8805546E-24,False,False,0,None,-3.578675E-33,1.9608708E-13,
295716321,25.333,10.464849464919455,63.40472867225241,22,55.55142,54.811447,-0.07034917,-0.05924534,-0.9713207,0.97566533,-3.1123173,-10.708637,-16.631336,20.024055,154,494,1441,1531.0,-0.26341584,-3.1766758,0.05594554,3.1880693,3.1875785369173437,-0.0988033029283617,3.7888868917122993,-4.435843278404848,-98.52184452048765,261.47815547951234,-52.3690267397103,15.84183314608671,36.794881403543805,-84.28415847823322,20.015333500446328,27.144136114049562,-98.11656283994355,-94.93044658748585,62.67,32.53209830444336,,10.4648579,63.404729,20190429,114657,2019-04-29T11:46:57Z,192.912,0.54,0.98,5.74,12,10,22,-0.28,-3.15,0.05,0,0,0,0,5,5,10.465248924293133,63.404749163875366,50,83455,19,29,57,1024,3551,3837,3841,0,15387,22,1,15382,0,false,false,false,false,false,false,false,false,false,false,4810,5019,4996,4816,59,74,74,58,1477,1497,1471,1474,1467,1482,1465,1462,0.0,0.0,0.0,0.0,1653.3,1648.4,1647.8,1652.1,3.6,3.89,4.16,2.88,0,0,0,0,92.50233645135262,10.464846515994308,63.40472789300034,0,55.134098,53.583145,-0.07363789,-0.061694007,-0.97910887,0.98381037,-5.2361765,17.868769,1.4897983,18.679667,151,497,1444,1534.0,-0.2847547,-3.1798387,0.05984171,3.1931238,3.1925630935731424,-0.10527762191539569,3.746418245412181,-4.178194147029655,-94.54978226483807,265.4502177351619,-58.54433418460949,11.304170517573361,41.69949704021057,-83.85310577400449,20.17116134394865,7103262.181314326,-99.38630422950997,-96.20018797705227,62.67,NONE,0.0,0.0,0.0,NONE,-4.753778685072115E-7,-1.9058742443152715E-8,2.3269653E-4,2,43.86,45.54,42.79,42.42,16.673,16.673,5.936,6.8059015,1803,3410,4.159,12.0,6.702,97,24.8,OK,73,0,0,0,0,0,65,100,0.0,0,-4.388456E29,-6.9394324E-4,-7.659338E27,-1.70523671E18,1.05008604E-23,64,165060.0,-0.02077592,9.4719065E-23,False,False,0,None,-8.477101E-32,1.9372092E-13,
299602704,26.343,10.46478784653604,63.40472656503611,22,55.261642,54.83644,-0.1076688,-0.04312235,-0.99976593,1.006471,7.1005325,12.351492,3.8900838,14.768537,174,479,1456,1542.0,-0.2216404,-3.0719657,0.017483398,3.0800006,3.079951020631618,-0.034251016028985504,3.4382616356625197,-5.270856956173146,-98.320619099706,261.679380900294,-51.66626261631966,15.069373539060438,36.08551922655673,-84.57547561071107,23.089743501161625,30.220759305211626,-97.72231348385908,-94.53619723140137,63.06,32.24232245605469,,10.4647964,63.4047267,20190429,114658,2019-04-29T11:46:58Z,192.854,0.54,0.98,5.71,12,10,22,-0.24,-3.08,0.08,0,0,0,0,5,5,10.465248924293133,63.404749163875366,50,84521,16,29,58,1025,3551,3806,3808,0,15229,23,1,17503,0,false,false,false,false,false,false,false,false,false,false,4737,4985,5088,5290,59,74,74,59,1453,1468,1475,1490,1445,1495,1472,1458,0.0,0.0,0.0,0.0,1653.3,1649.6,1649.6,1652.7,3.46,2.36,3.7,4.02,0,0,0,0,4.011126101017851,10.464785604262474,63.404725766526624,0,55.098892,53.527763,-0.11323629,-0.04452483,-0.98661584,0.9940904,-2.0627089,-7.5406604,-1.1818371,7.906521,171,485,1453,1541.0,-0.24701871,-3.0595632,0.05280621,3.0699728,3.06951862972439,-0.05837934378829335,3.411774664815538,-5.562325212922998,-94.42042219097635,265.57957780902365,-59.33882125767982,11.513006148993272,38.28455803548002,-86.14312800921284,23.210489828360082,7103265.224427183,-96.94426611672483,-93.75814986426712,63.06,NONE,0.0,0.0,0.0,NONE,-4.6305420944228236E-7,-1.6905765956682673E-8,5.378723E-4,2,40.66,46.26,43.88,43.1,16.668,16.668,5.936,6.743114,1819,3408,4.16,12.0,6.798,97,24.8,OK,74,0,0,0,0,0,65,100,0.0,0,-3.9500865E29,-0.0016513688,-8.505435E27,-1.70523671E18,1.05008604E-23,64,154408.0,-0.02014125,1.3892841E-22,False,False,0,None,-1.1749376E-31,1.8955065E-13,
303452098,27.344,10.46472776257106,63.40472456157612,22,54.66592,54.68126,-0.113132566,-0.041660957,-0.9754754,0.98289716,-0.9120166,-12.066542,-10.758616,16.192005,214,479,1450,1541.0,-0.21261099,-3.049669,0.07201794,3.0579195,3.057071155781898,-0.05910610089022672,2.711375375096158,-7.385118374465951,-98.42393565457074,261.57606434542924,-52.83024676623471,15.099016089531883,36.27004351350752,-86.76859540583865,26.087429844320706,33.2202273002462,-97.10462044463885,-93.91850419218115,63.34,31.64660025756836,,10.4647361,63.4047248,20190429,114659,2019-04-29T11:46:59Z,192.724,0.54,0.98,5.71,12,10,22,-0.23,-3.05,0.13,0,0,0,0,5,5,10.465248924293133,63.404749163875366,50,84523,18,29,59,1027,3552,3866,3867,3560,15471,23,1,15558,0,false,false,false,false,false,false,false,false,false,false,4598,4772,5038,5176,58,73,75,58,1470,1472,1479,1501,1459,1470,1459,1485,0.0,0.0,0.0,0.0,1651.5,1648.4,1648.4,1650.8,3.53,3.34,4.26,3.48,0,0,0,0,2.442415310657111,10.464725379268716,63.40472383884873,0,54.658943,53.455585,-0.12083671,-0.040258702,-0.99289614,1.001032,-10.714993,2.7481494,-6.143288,12.653196,220,476,1450,1541.0,-0.21816972,-3.0457504,0.07288598,3.0544238,3.053554158811246,-0.04920341007963458,2.518038939713558,-7.4422539232124745,-94.43540078715554,265.5645992128444,-57.14073948263512,11.372985896049087,35.61161415267823,-86.13750962661189,26.21393175058736,7103268.230147661,-97.35348215811624,-94.16736590565853,63.37,NONE,0.0,0.0,0.0,NONE,-7.66016165439871E-7,-2.5787531089003312E-8,6.1416626E-4,2,39.17,43.13,46.31,46.31,16.665,16.665,5.941,6.7028756,1829,3406,4.161,12.0,6.676,97,24.8,OK,75,0,0,0,0,0,65,100,0.0,0,-Infinity,-0.0036098207,-1.9691914E38,-1.70523671E18,1.05008604E-23,64,140508.0,-0.019312507,1.877967E-22,False,False,0,None,-1.585913E-31,1.8410361E-13,
307301101,28.344,10.4646611183004,63.40472235197954,22,54.932304,54.577534,-0.115225345,-0.05767976,-1.0137908,1.021947,-5.837451,-5.578383,-7.8581243,11.266956,220,465,1438,1527.0,-0.2621466,-3.1559064,0.0028497335,3.1667767,3.166775366941964,0.15875860086253102,2.631676633261242,-7.204883389202521,-98.67180462468058,261.3281953753194,-55.546143514495,13.678666843931609,35.645852246998146,-84.91984810324594,29.412659690051157,36.54712950145517,-97.97550459624009,-94.78938834378238,63.61,31.91298438232422,,10.4646752,63.4047227,20190429,114700,2019-04-29T11:47:00Z,192.612,0.54,0.98,5.67,12,10,22,-0.31,-3.11,0.12,0,0,0,0,5,5,10.465248924293133,63.404749163875366,50,85383,19,53,60,1882,3552,3964,3971,0,15902,26,1,15868,0,false,false,false,false,false,false,false,false,false,false,4963,5079,5268,5083,59,74,73,59,1473,1494,1499,1489,1465,1479,1489,1478,0.0,0.0,0.0,0.0,1652.1,1647.2,1648.4,1650.8,3.31,3.45,4.06,3.11,0,0,0,0,44.24862301697567,10.464664221752034,63.40472189909215,0,55.0391,53.3594,-0.11535903,-0.0461111,-1.0145704,1.0221483,-3.8833432,1.9160354,-2.0688636,4.79914,223,473,1444,1535.0,-0.27342105,-3.1257255,0.048116814,3.1380303,3.1376614228931574,-0.08662144917335324,2.573541127846736,-7.213020545874947,-94.71533672947834,265.28466327052166,-57.384466659687945,11.217750791036332,38.35826208068772,-84.75227476663193,29.264143185262075,7103271.283021607,-96.60460617294709,-93.41848992048938,63.57,NONE,0.0,0.0,0.0,NONE,-4.6906287896951746E-7,-1.8332160316011416E-8,5.836487E-4,2,43.08,45.16,46.33,44.55,16.682,16.682,5.928,6.7028756,1829,3406,4.161,12.0,6.676,97,24.8,OK,75,0,0,0,0,0,65,100,0.0,0,5.800011E-29,-0.007155865,1.0122988E-30,-1.70523684E18,1.05008604E-23,64,126272.0,-0.018177634,2.6466071E-22,False,False,0,None,-2.0475043E-31,1.7665124E-13,
311237091,29.367,10.464598682170283,63.40471968942312,22,54.760468,54.54869,-0.11995394,-0.039362717,-0.96090007,0.96915805,18.008303,3.7571557,10.799993,21.332018,235,476,1426,1521.0,-0.30224156,-3.145191,-0.010678385,3.1596978,3.1596797022677556,-0.1075531939459835,3.263831178028752,-7.752719331938278,-98.18498406587165,261.8150159341284,-54.82130062198093,15.380788980861952,36.04403443606828,-84.61499718916095,32.53475985185278,39.669969051368184,-97.2751175177339,-94.0890012652762,63.83,31.741147529296875,,10.4646005,63.4047196,20190429,114702,2019-04-29T11:47:02Z,192.489,0.54,0.98,5.66,12,10,22,-0.32,-3.14,0.1,0,0,0,0,5,5,10.465248924293133,63.404749163875366,50,88247,16,53,61,1883,3552,3919,3926,0,15690,24,1,17518,0,false,false,false,false,false,false,false,false,false,false,4843,5182,5123,4999,59,76,76,60,1479,1516,1475,1479,1472,1487,1479,1482,0.0,0.0,0.0,0.0,1649.0,1645.3,1645.3,1649.0,3.87,3.97,3.93,3.04,0,0,0,0,78.16748369696268,10.4646018098011,63.40471910214519,0,54.734314,53.29641,-0.13471715,-0.052049816,-0.96452755,0.9752801,2.7398536,0.8686505,4.66001,5.4751296,229,473,1420,1514.0,-0.28267136,-3.103976,0.010779341,3.1168392,3.1168205026069744,-0.06444485550957424,3.1328571000205967,-7.581772525237324,-94.4491491657019,265.5508508342981,-57.35688469543546,11.016565411021888,37.78874680615197,-84.71483933976911,32.3865363895041,7103274.406474643,-101.06167628112021,-97.8755600286625,63.84,NONE,0.0,0.0,0.0,NONE,-1.5695387886148648E-7,-6.23458369323107E-9,8.392334E-5,2,44.11,46.19,44.7,45.22,16.654,16.654,5.936,6.6787863,1834,3404,4.164,12.0,6.747,97,24.8,OK,76,0,0,0,0,0,65,100,0.0,0,7.4887315E-22,-0.007506817,1.30703516E-23,-1.70523684E18,-7.2465516E30,63,119880.0,-0.017416125,3.6581585E-22,False,False,0,None,-2.8981635E-31,1.716483E-13,
315146832,30.383,10.464535327524652,63.40471692935059,22,54.92,54.463673,-0.10085493,-0.06521467,-0.9950507,1.0022727,-3.9859297,-12.792942,-7.6210637,15.4151745,163,499,1435,1528.0,-0.26349273,-3.2102602,-0.051016144,3.2214594,3.2210554736386974,-0.10262340017161442,4.107086102603054,-5.15886427345076,-97.98777565796128,262.01222434203873,-55.29292775493023,16.792385803824725,39.48169242659089,-85.59471279043792,35.70345206145833,42.839012493616664,-97.8595773697232,-94.67346111726549,64.22,31.900678168945312,,10.4645375,63.4047169,20190429,114703,2019-04-29T11:47:03Z,192.381,0.54,0.98,5.64,12,10,22,-0.29,-3.22,0.09,0,0,0,0,5,5,10.465248924293133,63.404749163875366,50,88249,18,53,62,1868,3559,3970,3976,3560,15891,24,1,15963,0,false,false,false,false,false,false,false,false,false,false,4813,4948,5008,5039,59,74,74,59,1456,1495,1467,1476,1451,1468,1480,1475,0.0,0.0,0.0,0.0,1652.7,1650.2,1648.4,1650.8,3.47,3.72,3.65,2.66,0,0,0,0,19.98310652189997,10.464532514017668,63.40471613758887,0,54.33197,53.185135,-0.096946746,-0.064660944,-1.0051554,1.0118879,-8.297671,-5.1280556,-7.2724433,12.167034,166,505,1429,1524.0,-0.2646345,-3.1867979,-0.016309263,3.1978083,3.1977666929452133,0.21252832688649148,4.132214172226046,-5.266217957124851,-94.5314143265829,265.4685856734171,-57.199677692238325,11.046522166888222,40.936145834671585,-85.55617921227423,35.85171613018086,7103277.872444834,-98.08970340055623,-94.90358714809852,64.19,NONE,0.0,0.0,0.0,NONE,-4.823049486990638E-7,-1.865877502299161E-8,1.296997E-4,2,41.21,43.78,45.13,44.29,16.645,16.645,5.935,6.66984,1836,3402,4.148,12.0,6.869,96,24.9,OK,77,0,0,0,0,0,65,100,0.0,0,1.6489761E-16,-0.008211075,2.8780192E-18,-1.70523684E18,-7.2465516E30,63,110042.0,-0.016243106,5.170042E-22,False,False,0,None,-3.7764477E-31,1.6394266E-13,
