Tick#,offsetTime,IMU_ATTI(0):Longitude,IMU_ATTI(0):Latitude,IMU_ATTI(0):numSats,IMU_ATTI(0):barometer:Raw,IMU_ATTI(0):barometer:Smooth,IMU_ATTI(0):accel:X,IMU_ATTI(0):accel:Y,IMU_ATTI(0):accel:Z,IMU_ATTI(0):accel:Composite,IMU_ATTI(0):gyro:X,IMU_ATTI(0):gyro:Y,IMU_ATTI(0):gyro:Z,IMU_ATTI(0):gyro:Composite,IMU_ATTI(0):mag:X,IMU_ATTI(0):mag:Y,IMU_ATTI(0):mag:Z,IMU_ATTI(0):mag:Mod,IMU_ATTI(0):velN,IMU_ATTI(0):velE,IMU_ATTI(0):velD,IMU_ATTI(0):velComposite,IMU_ATTI(0):velH,IMU_ATTI(0):GPS-H,IMU_ATTI(0):roll,IMU_ATTI(0):pitch,IMU_ATTI(0):yaw,IMU_ATTI(0):yaw360,IMU_ATTI(0):totalGyro:Z,IMU_ATTI(0):totalGyro:X,IMU_ATTI(0):totalGyro:Y,IMU_ATTI(0):magYaw,IMU_ATTI(0):distanceHP,IMU_ATTI(0):distanceTravelled,IMU_ATTI(0):directionOfTravel[mag],IMU_ATTI(0):directionOfTravel[true],IMU_ATTI(0):temperature,General:relativeHeight,General:absoluteHeight,GPS(0):Long,GPS(0):Lat,GPS(0):Date,GPS(0):Time,GPS:dateTimeStamp,GPS(0):heightMSL,GPS(0):hDOP,GPS(0):pDOP,GPS(0):sAcc,GPS(0):numGPS,GPS(0):numGLNAS,GPS(0):numSV,GPS(0):velN,GPS(0):velE,GPS(0):velD,RC:Aileron,RC:Elevator,RC:Rudder,RC:Throttle,Controller:navHealth,Controller:ctrl_level,HP:Longitude,HP:Latitude,HP:rthHeight,BatBlackBox:tick,BatBlackBox:id,BatBlackBox:rsoc,BatBlackBox:index,BatBlackBox:rm,BatBlackBox:fcc,BatBlackBox:cell_min,BatBlackBox:cell_max,BatBlackBox:current,BatBlackBox:voltage,BatBlackBox:temp,BatBlackBox:flag,BatBlackBox:reserve,BatBlackBox:user_data,OA:avoidObst,OA:emergBrake,OA:radiusLimit,OA:airportLimit,OA:groundForceLanding,OA:horizNearBoundary,OA:vertLowLimit,OA:vertAirportLimit,OA:roofLimit,OA:hitGroundLimit,Motor:Speed:RFront,Motor:Speed:LFront,Motor:Speed:LBack,Motor:Speed:RBack,Motor:EscTemp:RFront,Motor:EscTemp:LFront,Motor:EscTemp:LBack,Motor:EscTemp:RBack,Motor:PPMrecv:RFront,Motor:PPMrecv:LFront,Motor:PPMrecv:LBack,Motor:PPMrecv:RBack,Motor:PPMsend:RFront,Motor:PPMsend:LFront,Motor:PPMsend:LBack,Motor:PPMsend:RBack,Motor:V_out:RFront,Motor:V_out:LFront,Motor:V_out:LBack,Motor:V_out:RBack,Motor:Volts:RFront,Motor:Volts:LFront,Motor:Volts:LBack,Motor:Volts:RBack,Motor:Current:RFront,Motor:Current:LFront,Motor:Current:LBack,Motor:Current:RBack,Motor:Status:RFront,Motor:Status:LFront,Motor:Status:LBack,Motor:Status:RBack,Motor:thrustAngle,IMU_ATTI(1):Longitude,IMU_ATTI(1):Latitude,IMU_ATTI(1):numSats,IMU_ATTI(1):barometer:Raw,IMU_ATTI(1):barometer:Smooth,IMU_ATTI(1):accel:X,IMU_ATTI(1):accel:Y,IMU_ATTI(1):accel:Z,IMU_ATTI(1):accel:Composite,IMU_ATTI(1):gyro:X,IMU_ATTI(1):gyro:Y,IMU_ATTI(1):gyro:Z,IMU_ATTI(1):gyro:Composite,IMU_ATTI(1):mag:X,IMU_ATTI(1):mag:Y,IMU_ATTI(1):mag:Z,IMU_ATTI(1):mag:Mod,IMU_ATTI(1):velN,IMU_ATTI(1):velE,IMU_ATTI(1):velD,IMU_ATTI(1):velComposite,IMU_ATTI(1):velH,IMU_ATTI(1):GPS-H,IMU_ATTI(1):roll,IMU_ATTI(1):pitch,IMU_ATTI(1):yaw,IMU_ATTI(1):yaw360,IMU_ATTI(1):totalGyro:Z,IMU_ATTI(1):totalGyro:X,IMU_ATTI(1):totalGyro:Y,IMU_ATTI(1):magYaw,IMU_ATTI(1):distanceHP,IMU_ATTI(1):distanceTravelled,IMU_ATTI(1):directionOfTravel[mag],IMU_ATTI(1):directionOfTravel[true],IMU_ATTI(1):temperature,IMUEX(0):err,IMUEX(0):rtk_Longitude,IMUEX(0):rtk_Latitude,IMUEX(0):rtk_Alti,IMUEX(1):err,IMUEX(1):rtk_Longitude,IMUEX(1):rtk_Latitude,IMUEX(1):rtk_Alti,MotorCtrl:Status,MotorCtrl:PWM:RFront,MotorCtrl:PWM:LFront,MotorCtrl:PWM:LBack,MotorCtrl:PWM:RBack,BattInfo:Voltage,BattInfo:BatVoltage,BattInfo:AdVoltage,BattInfo:AvgCurrent,BattInfo:R_time,BattInfo:R_CAP_MAH,BattInfo:LowCellVoltage,BattInfo:LowCellVolThreshold,BattInfo:BatCurrent,BattInfo:Remaining%,BattInfo:Temp,BattInfo:status,battery_info:BatDynCnt,battery_info:Vol1Protect,battery_info:Vol2Protect,battery_info:Cap1Protect,battery_info:Cap2Protect,battery_info:Batpresent,battery_info:sopPercentage,battery_info:sopValue,battery_info:sopScale,battery_info:sopFlg,BattInfo:WindHeading:WindDir,battery_info:home_dir,BattInfo:Wind:rangeMin,BattInfo:Wind:rangeMax,battery_info:cap_speed,battery_info:against_wind,battery_info:emergency_land_cap,battery_info:intel_bat_land_cap,battery_info:intel_bat_gh_cap,BattInfo:Smart:SmartGh,BattInfo:Smart:SmartLand,BattInfo:GoHome:CntDown,BattInfo:GoHome:GhCmd,BattInfo:GoHome:CapLevel,BattInfo:GoHome:LandCapLv,Attribute|Value,ConvertDatV3,3.6.6-Tablet
140352186,.000,13.99258277633739,66.38513756054901,17,-112.8112,-112.95108,0.07536838,-0.047766503,-0.9854098,0.9894415,0.16864066,-0.08296817,-0.0952373,0.21069773,354,-26,1496,1537.0,2.3406534E-4,-0.023611275,0.004772234,0.024089858,0.023612434984949904,-0.023612434984949904,2.698469171777471,4.3388905416310655,19.609110461898194,19.609110461898183,-2.3898217438416998,5.943094011422574,-2.317844423527478,11.689304035733194,0.5687908704810546,1.7716052374223104,-124.86161059106297,-119.58659286520583,65.02,,,13.9925833,66.3851379,20190516,110114,2019-05-16T11:01:14Z,66.675,0.72,1.54,9.76,9,8,17,0.0,0.0,0.0,-9987,-9995,9963,-9871,5,5,13.992582356564654,66.38514267304355,50,345926,20,94,117,3439,3698,4292,4299,-615,17167,28,2,16471,0,false,false,false,false,false,false,false,false,false,false,0,0,0,0,51,65,65,51,944,945,944,945,940,940,940,940,0.0,0.0,0.0,0.0,1713.4,1708.5,1709.7,1714.0,0.0,0.0,0.0,0.0,0,0,0,0,-45.0,13.992582982495502,66.38513708825441,0,-112.96974,-112.80689,0.07465539,-0.047677007,-0.9858951,0.9898665,0.15637009,-0.14860162,-0.053605057,0.22227809,357,-26,1493,1535.0,-3.6845647E-4,3.7320668E-4,2.5635838E-4,5.8374915E-4,5.244458209874386E-4,-5.244458209874386E-4,2.7717681176083713,4.350434276673446,12.574345571259606,12.574345571259585,-2.0965838968433337,5.38617756717896,-2.268526427743296,11.822107343470956,0.6216257868106442,7464112.055012404,-41.25200794109338,-35.97699021523625,65.01,NONE,0.0,0.0,0.0,NONE,1.2337971763400033E-11,-1.447798771723847E-11,0.0,,,,,,17.248,17.248,6.159,1.261664,0,3360,4.311,12.0,1.262,98,25.1,OK,34,0,0,0,0,0,65,100,0.0,0,0.0,2.5636638E-16,2.65E-43,0.0,-1.04624128E8,62,5.093148E-12,-5.093177E-12,1.4030243E-37,False,False,0,None,1.0596573E30,1.0842106E-19,Firmware Date| Oct 17 2018
144206090,1.002,13.99258247768127,66.38513737267827,17,-112.77368,-112.94954,0.07570346,-0.045431677,-0.984976,0.98892504,0.17330204,-0.06444932,-0.5619579,0.59159446,357,-28,1481,1523.0,-0.0022266253,-0.021257607,-0.0022436732,0.021491341,0.021373902987009488,0.0033526574908025047,2.7078822752915377,4.33737966419155,19.60894780319708,19.608947803197054,-2.4204959014474223,6.127418464854896,-2.3710228157151265,11.825451889079734,0.5893984182959612,1.8081631408063528,-159.0292781339762,-153.75426040811905,64.94,0.06503335937499344,,13.9925828,66.3851377,20190516,110114,2019-05-16T11:01:14Z,66.665,0.72,1.54,9.69,9,8,17,-0.01,0.0,0.0,0,0,0,0,5,5,13.992582356564654,66.38514267304355,50,346091,48,92,118,3364,3698,4256,4261,-996,17036,29,212,17035,0,false,false,false,false,false,false,false,false,false,false,376,379,385,393,55,70,68,54,1290,1299,1296,1294,1282,1282,1282,1282,0.1,0.1,0.1,0.1,1685.2,1680.3,1679.7,1684.6,8.14,7.56,8.16,7.71,0,0,0,0,-12.264773727892418,13.99258229534778,66.3851368464138,0,-112.77368,-112.80374,0.07555925,-0.045711882,-0.9819692,0.9859322,-0.08027712,-0.18436022,-0.16256791,0.2585758,360,-28,1484,1527.0,-6.42859E-4,0.0036986866,-0.0029901436,0.004799428,0.0037541378260595917,0.036923193095663095,2.7559063752117425,4.335734530312268,12.564707857884772,12.564707857884798,-2.0126172765654635,5.196294725786627,-2.3461563382066313,11.909265194778458,0.6478974050736425,7464112.119563186,-81.49196235682764,-76.2169446309705,64.99,NONE,0.0,0.0,0.0,NONE,2.070252119144592E-10,-1.6862400595017697E-11,-7.6293945E-6,1,22.5,22.5,22.5,22.5,17.228,17.228,6.053,1.3200984,0,3359,4.311,12.0,4.153,98,25.1,OK,35,0,0,0,0,0,65,100,0.0,0,0.0,2812.375,8.4E-44,0.0,-1.04624128E8,62,5.093148E-12,-5.093177E-12,1.4844135E-37,False,False,0,None,1.1612845E30,1.0842106E-19,ACType|MavicEnterprise
148093871,2.012,13.992581957023498,66.38513723615849,17,-112.77368,-112.951096,0.074781545,-0.048540566,-0.9875117,0.99152803,1.7814378,0.37230998,0.13291591,1.8247745,349,-31,1499,1539.0,-0.0049444083,-0.016366813,-0.0012032631,0.017139649,0.017097360796986972,0.010335102218649188,2.694961434222875,4.432020892609135,19.72067966182041,19.720679661820384,-0.2608928730150714,5.888825441925821,-1.9388818458005441,12.344330388981673,0.6048159298023855,1.8409048693053947,-93.11306139820337,-87.83804367234623,65.03,0.06503335937499344,,13.9925824,66.3851376,20190516,110116,2019-05-16T11:01:16Z,66.678,0.72,1.54,9.63,9,8,17,0.0,0.01,0.0,0,0,0,0,5,5,13.992582356564654,66.38514267304355,50,346091,48,92,118,3364,3698,4256,4261,-996,17036,29,212,17035,0,false,false,false,false,false,false,false,false,false,false,2095,2048,2137,2157,56,69,69,56,1206,1207,1215,1215,1201,1200,1202,1204,0.0,0.0,0.0,0.0,1707.9,1703.6,1703.6,1707.3,0.63,0.25,0.88,0.38,0,0,0,0,-23.927273380049428,13.99258210860503,66.38513662554435,0,-112.77368,-112.802864,0.072007224,-0.04772861,-0.9894919,0.99325585,-0.29385218,-3.5471087,1.0839348,3.720651,349,-28,1496,1536.0,4.908993E-4,0.0018123273,-9.5943635E-4,0.0021085613,0.0018776348183978365,0.02378500997104468,2.741521067974568,4.411563800956896,12.677163014352187,12.677163014352175,-2.2140692188477393,5.67449794285757,-2.363447261661584,12.136157394113813,0.6725419297924795,7464112.1661470225,-151.86227521317593,-146.5872574873188,64.98,NONE,0.0,0.0,0.0,NONE,1.4582093569891537E-10,-8.366360998729895E-15,-7.6293945E-6,2,10.4,10.0,10.8,11.2,17.017,17.017,6.142,1.3200984,0,3359,4.31,12.0,4.153,98,25.1,OK,35,0,0,0,0,0,65,100,0.0,0,0.0,-5.2069394E22,8.4E-44,0.0,-1.04624128E8,62,5.093148E-12,-5.093177E-12,1.5441066E-37,False,False,0,None,1.2358123E30,1.0842106E-19,dateTime|2019-5-16 11:0:46 GMT
151949820,3.014,13.992581511682902,66.38513703303533,17,-112.77368,-112.95063,0.07402159,-0.045759536,-0.985133,0.9889692,-1.77172,-0.94906825,2.6971319,3.363665,349,-31,1493,1533.0,-0.0032437504,-0.020931108,2.499175E-5,0.021180978,0.02118096289313314,0.00881536605181011,2.6714963008483688,4.395358022230681,19.755787066038344,19.75578706603835,0.5837223797111974,5.809371111655322,-2.3004464052718117,12.27482128102436,0.6282684558832492,1.8889614291900074,-141.07236526632246,-135.79734754046532,65.0,0.06503335937499344,,13.9925819,66.3851374,20190516,110117,2019-05-16T11:01:17Z,66.701,0.72,1.54,9.6,9,8,17,0.0,0.01,0.0,0,0,0,9720,5,5,13.992582356564654,66.38514267304355,50,346713,16,92,120,3365,3699,4252,4265,-1403,17054,29,0,17077,0,false,false,false,false,false,false,false,false,false,false,3710,3353,3500,3762,54,68,68,54,1385,1359,1357,1377,1371,1355,1358,1375,0.0,0.0,0.0,0.0,1686.4,1682.8,1682.1,1686.4,3.62,2.8,3.05,2.72,0,0,0,0,-72.17811491440256,13.992581392742004,66.38513657783626,0,-112.77368,-112.80185,0.07402561,-0.051264506,-0.9844596,0.9885689,-4.666516,-6.3875237,-2.6139593,8.3312435,351,-31,1490,1531.0,-0.0014782908,0.0015590099,-0.0020539912,0.0029723283,0.0021484542552744385,0.03010749817805042,2.70219609745382,4.343379540438986,12.695437478972702,12.695437478972678,-2.2953870699557144,5.401339134886315,-4.27864659366472,12.34117446191265,0.6791144988022959,7464112.226086127,-83.68216161439942,-78.40714388854228,65.0,NONE,0.0,0.0,0.0,NONE,7.222125332698988E-11,-4.373515211589051E-12,0.0,2,35.94,33.53,32.98,34.9,17.173,17.173,6.128,1.5125306,0,3358,4.237,12.0,3.428,98,25.1,OK,36,0,0,0,0,0,65,100,0.0,0,0.0,-3.0429907E-21,8.5E-44,0.0,-1.04624128E8,62,5.093148E-12,-5.093177E-12,1.5656879E-37,False,False,0,None,1.2627762E30,1.0842106E-19,geoDeclination|528 degrees
155841344,4.026,13.992580942361482,66.38513699420754,17,-112.63602,-112.64904,-0.017189171,-0.021279238,-0.8670359,0.86746734,9.190753,-6.9497714,0.84947556,11.553824,464,-83,1456,1530.0,-0.0052062804,-0.12972635,-0.2198768,0.2553465,0.12983078021930117,-0.10439616765488093,1.10083240183206,-0.34204078502019764,20.497945638653803,20.49794563865379,0.9170363236205095,4.241404717050506,-7.070506670616686,13.695778021613812,0.015933512136510446,1.9424780776118797,-111.38258114696701,-106.10756342110987,65.03,0.20269815429686844,,13.992582,66.3851371,20190516,110117,2019-05-16T11:01:17Z,67.008,0.72,1.54,9.61,9,8,17,-0.11,0.03,-0.35,8290,0,0,0,5,5,13.99258129769437,66.38513701069661,50,346713,20,92,121,3365,3699,4252,4265,-1403,17054,29,2,17077,0,false,false,false,false,false,false,true,false,false,false,4913,5199,4562,4405,53,69,68,52,1458,1501,1439,1418,1458,1480,1421,1415,0.0,0.0,0.0,0.0,1676.6,1671.1,1671.1,1676.0,3.5,3.62,3.49,2.36,0,0,0,0,158.84856769175173,13.992581162224507,66.38513618073738,0,-112.04942,-112.3925,-0.014971544,-0.026179545,-0.86686707,0.8673915,8.916243,-5.7015433,-0.7703724,10.611336,467,-80,1453,1528.0,-0.03939073,-0.08891021,-0.29889867,0.31432,0.09724533413270282,-0.05242231936517042,1.5022740567093498,-0.4470973716746499,13.564604719023599,13.564604719023578,-2.7116350367349202,3.9068988333548544,-12.164506581389006,14.52610445709022,0.092484322460465,7464112.3118352005,-172.64787028352188,-167.37285255766474,65.03,NONE,0.0,0.0,0.0,NONE,-3.1984949324738036E-9,-4.4548360190140394E-10,-0.0014266968,2,36.45,53.96,45.73,28.24,17.164,17.164,6.024,2.0754113,0,3356,4.293,12.0,6.45,98,25.1,OK,38,0,0,0,0,0,65,100,0.0,0,0.0,-1.35470776E10,8.7E-44,0.0,NaN,62,7.565726E-12,-6.257024E-12,6.2973697E-38,False,False,0,None,2.4339545E29,1.4055537E-19,geoInclination|7646 degrees
159690648,5.026,13.99258287989667,66.38513606920249,17,-112.22659,-112.66233,-0.014717088,-0.026378281,-0.9942942,0.99475294,-5.718154,-2.6801064,-7.641493,9.913258,484,-105,1441,1523.0,-0.01727227,0.0026232922,0.05448022,0.057212826,0.017470344783131593,0.11674104155079487,-0.2882502597236967,-1.0940523375656228,20.445124188492358,20.445124188492343,0.2682216060877254,1.2158389176983253,-7.284810909491818,12.088960426447656,0.12620136062373224,2.1184765043844846,-164.27328986387414,-158.998272138017,64.99,0.6121219824218684,,13.9925825,66.3851362,20190516,110119,2019-05-16T11:01:19Z,67.149,0.72,1.54,9.67,9,8,17,-0.05,0.03,-0.13,0,0,0,0,5,5,13.99258129769437,66.38513701069661,50,346815,48,91,122,3328,3699,4245,4251,-1083,16993,30,212,16991,0,false,false,false,false,false,false,true,false,false,false,5340,5557,4757,4662,53,67,67,53,1508,1538,1458,1439,1504,1524,1441,1431,0.0,0.0,0.0,0.0,1668.7,1663.1,1664.4,1668.0,4.16,4.19,3.71,2.66,0,0,0,0,168.0800861683068,13.99258240689543,66.38513529764346,0,-111.99934,-112.354164,-0.012876869,-0.020598076,-0.9916015,0.991899,-1.6978505,-11.381756,-2.730895,11.827292,484,-105,1441,1523.0,-0.04168402,0.038279515,-0.012395623,0.05793557,0.056593982631283166,0.05612491200113397,-0.004480744763790681,-1.0092433966424312,14.443319330874662,14.443319330874658,-0.9610298542731069,20.080311196238362,-15.79728240209118,12.884190455281944,0.19678616232500065,7464112.520247381,-167.83140247449393,-162.5563847486368,64.99,NONE,0.0,0.0,0.0,NONE,2.395957546196769E-9,-9.8040357831224E-10,-3.0517578E-5,2,47.38,49.94,40.65,39.62,16.89,16.89,5.989,2.0754113,0,3356,4.295,12.0,6.45,98,25.1,OK,38,0,0,0,0,0,65,100,0.0,0,0.0,-3.9093078E-15,2.66E-43,0.0,NaN,62,7.879031E-12,-6.3352947E-12,7.209985E-38,False,False,0,None,3.0037938E29,1.4271597E-19,geoIntensity|5257906 nanoTesla
163542469,6.027,13.992581069610006,66.385135826557,17,-112.438515,-112.61152,-0.020314546,-0.02593343,-0.9832302,0.9837819,5.754748,9.334149,2.1730297,11.178799,484,-61,1453,1532.0,-0.012942433,-0.04351821,-0.00499002,0.045675397,0.04540199801265697,0.039537222893779575,1.7206979272697613,-0.7397700538548826,20.60932317054641,20.609323170546418,0.37684197076223075,3.049739150001461,-4.6176074695674485,12.67159241502623,0.13206168976441088,2.2739714649145366,-19.02690146204357,-13.751883736186434,64.95,0.4002002905273372,,13.9925816,66.3851364,20190516,110120,2019-05-16T11:01:20Z,67.134,0.72,1.54,9.73,9,8,17,0.04,-0.07,-0.04,0,0,0,0,5,5,13.99258129769437,66.38513701069661,50,346815,17,91,123,3328,3699,4246,4250,-1009,16996,30,0,16991,0,false,false,false,false,false,false,true,false,false,false,5287,5610,4621,4658,53,69,69,54,1488,1523,1438,1448,1482,1518,1446,1438,0.0,0.0,0.0,0.0,1668.7,1661.3,1663.1,1668.0,4.1,3.98,3.12,2.92,0,0,0,0,169.97586005810066,13.992581184335947,66.38513537672763,0,-112.10016,-112.33974,-0.01837288,-0.025811508,-0.990599,0.9911055,3.535894,-4.5674005,2.1821702,6.17459,484,-50,1459,1537.0,-0.012000499,-0.03963255,-0.023619168,0.047671963,0.0414095535399987,0.01369360500954881,1.7301295594159423,-0.80621253025631,14.524827767320595,14.524827767320573,0.25892265980102425,22.15860796042277,-13.721557065192414,11.4687064967403,0.18175921197284653,7464112.644312668,-122.93270035443048,-117.65768262857334,64.91,NONE,0.0,0.0,0.0,NONE,-3.06211392715411E-9,1.2047558968492705E-12,-4.5776367E-5,2,46.77,49.55,39.45,38.93,16.826,16.826,5.987,3.1818056,0,3352,4.205,12.0,7.028,98,25.2,OK,40,0,0,0,0,0,65,100,0.0,0,0.0,-7.287556E26,8.5E-44,0.0,NaN,62,8.027579E-12,-6.372487E-12,7.016413E-38,False,False,0,None,2.882998E29,1.4374167E-19,
167472873,7.049,13.992580513149209,66.38513603353876,17,-110.374016,-111.28001,-0.024317157,-0.028012428,-1.2918957,1.2924283,6.0034046,0.74175364,4.882777,7.7738395,489,-67,1453,1534.0,-0.019443925,-0.0044500334,-3.5516949,3.551751,0.019946654770485663,0.013165836338608024,1.5851523017489906,-0.7102201421598476,20.59212845447592,20.592128454475926,-2.411938060854239,2.1323835673722393,-5.179313627431265,12.818931645210581,0.11413650814862064,2.3458673367076717,-147.69381027659898,-142.41879255074184,64.92,2.4646991918945247,,13.9925811,66.3851362,20190516,110120,2019-05-16T11:01:20Z,67.927,0.72,1.54,9.78,9,8,17,-0.29,0.18,-0.87,0,0,1000,10000,5,5,13.99258129769437,66.38513701069661,50,346819,16,91,124,3328,3700,4234,4246,-1416,16897,30,0,16325,0,false,false,false,false,false,false,true,false,false,false,6497,6760,5953,5735,54,69,68,52,1629,1658,1571,1540,1618,1637,1555,1539,0.0,0.0,0.0,0.0,1636.1,1630.6,1631.2,1636.1,5.72,5.6,5.03,3.72,0,0,0,0,162.95630971480597,13.992580387731437,66.38513540740828,0,-110.86012,-111.237404,-0.023652714,-0.021162784,-1.3819598,1.3823242,1.9233693,5.9265847,3.8374262,7.3177586,489,-67,1459,1540.0,-0.015310701,-0.0069843982,-3.3087602,3.308803,0.01682852823204687,0.018068333880174002,1.6636084281308898,-0.750583976612714,14.474435581956495,14.47443558195647,-1.144000657030831,20.983741748268304,-15.173243897644024,13.0981787471242,0.182827171439365,7464112.727429781,-83.83640942703194,-78.5613917011748,64.89,NONE,0.0,0.0,0.0,NONE,-4.607288600927439E-10,-3.15645992707445E-10,-0.008094788,2,62.76,66.85,55.96,52.38,16.791,16.791,5.826,3.1818056,0,3352,4.192,12.0,7.028,98,25.2,OK,40,0,0,0,0,0,65,100,0.0,0,0.0,-8.3100193E-13,8.7E-44,0.0,NaN,62,2.8598457E-11,-1.22429315E-11,9.3484606E-38,False,False,0,None,5.5091233E29,2.5767837E-19,
171325895,8.050,13.992582739173015,66.38513503735199,16,-108.1507,-108.4312,-0.02510476,-0.003208103,-0.5371202,0.53771615,-2.9516108,-1.2346072,60.26284,60.34771,323,-279,1447,1508.0,0.0060356436,-0.022844179,-0.8831998,0.88351583,0.023628064882617313,0.12483320329232969,-2.488475921130901,-1.7811546222840424,62.01305544802251,62.0130554480225,39.51312037479903,1.1865433330743336,-5.175548384030212,37.8814785155035,0.2286272286833332,2.519899806452733,141.24358537565723,146.51860310151437,64.98,4.688011569824212,,13.9925832,66.3851351,20190516,110121,2019-05-16T11:01:21Z,70.824,0.74,1.56,9.81,9,7,16,-0.13,0.04,-2.1,0,0,9998,0,5,5,13.99258129769437,66.38513701069661,50,346819,16,91,124,3328,3700,4234,4246,-1416,16897,30,0,16325,0,false,false,false,false,false,false,true,false,false,false,4116,3980,3714,3690,54,70,70,55,1403,1388,1363,1360,1396,1387,1365,1355,0.0,0.0,0.0,0.0,1681.5,1678.5,1677.3,1681.5,3.0,2.12,2.23,2.06,0,0,0,0,-170.80641775138693,13.992582880428062,66.38513431730414,0,-108.01327,-108.244644,-0.026436124,-0.0049011544,-0.52429414,0.52498305,-7.1314807,0.3611918,60.945374,61.362263,351,-247,1447,1509.0,-0.155167,0.09805085,-1.1858004,1.1999223,0.18355044402035278,-0.019396499308370646,-1.8802284627936843,-1.9123954954942182,51.94283613965081,51.94283613965081,37.987404435606805,19.884924655805897,-15.730743288048902,33.41044981083118,0.3076775301374424,7464112.914682042,135.69131273385565,140.9663304597128,64.94,NONE,0.0,0.0,0.0,NONE,6.5132746463590645E-9,-3.5802647008769898E-9,-0.00541687,2,33.42,31.91,27.46,27.57,16.424,16.424,6.051,3.9951265,0,3350,4.189,12.0,11.701,97,25.2,OK,41,0,0,0,0,0,65,100,0.0,0,0.0,5.089617E34,2.66E-43,0.0,NaN,62,6.1709216E-10,-5.4209314E-11,2.6703043E-37,False,False,0,None,3.526659E30,1.04776E-18,
175196801,9.056,13.992581197349738,66.3851360103839,16,-106.846466,-107.08912,-0.028127838,0.014312639,-1.0828469,1.0833067,2.1354897,2.0305307,8.397397,8.899418,137,-225,1475,1498.0,0.055084415,0.032374736,-2.6513715,2.6521413,0.0638937883072098,0.06349041264533774,0.6567093094423504,-2.1138628580518275,90.94515244621084,90.94515244621084,67.48096909705356,3.5590096213175455,-8.115570190421522,71.14631957521868,0.11131946646864979,2.74243929251833,62.04676052724799,67.32177825310512,65.03,5.992248935546868,,13.9925819,66.3851354,20190516,110122,2019-05-16T11:01:22Z,71.918,0.75,1.56,9.85,9,7,16,0.02,-0.01,-1.57,0,0,3391,8218,5,5,13.99258129769437,66.38513701069661,50,346819,20,91,125,3328,3700,4234,4246,-1416,16897,30,2,16325,0,false,false,false,false,false,false,true,false,false,false,5967,5938,5153,5395,55,69,70,55,1567,1578,1494,1505,1561,1560,1486,1506,0.0,0.0,0.0,0.0,1649.6,1644.1,1644.1,1649.0,4.94,4.5,3.88,3.58,0,0,0,0,-168.70630782586034,13.99258123794791,66.38513465847915,0,-106.925766,-106.79473,-0.022836942,0.01427639,-1.0583708,1.0587134,-7.94501,2.5401826,8.1220045,11.642279,137,-227,1475,1498.0,0.0067701694,-0.020927334,-2.6507423,2.6508336,0.0219951924677279,0.05992308738520648,0.4547656451067735,-2.1238030746157097,85.2006283444014,85.20062834440137,69.35173138607955,19.55064686445183,-14.440286369508831,70.97392286195534,0.26156818657001846,7464113.199143064,-159.43844137752586,-154.16342365166872,65.05,NONE,0.0,0.0,0.0,NONE,-2.274236325775679E-9,8.441316025491451E-10,-0.006362915,2,57.2,55.98,45.63,49.13,16.93,16.93,5.902,4.925297,0,3347,4.068,12.0,5.893,97,25.3,OK,42,0,0,0,0,0,65,100,0.0,0,0.0,-2.8635497E-29,8.5E-44,0.0,NaN,62,2.2473046E-9,-1.04963614E-10,3.242095E-37,False,False,0,None,4.9547776E30,1.8725386E-18,
179141232,10.081,13.992580984400176,66.38513449445969,17,-104.94033,-105.053444,-0.015335252,0.009337385,-0.56149393,0.56178087,5.1609807,-2.911932,0.569833,5.953132,112,-290,1468,1500.0,0.111355595,-0.004386424,-0.82863,0.83609027,0.11144195559607367,0.053247514825290776,-1.7895076143345976,-2.0092720897481695,92.73708335413721,92.73708335413721,66.04852129510165,-1.0069493046423061,-8.25229379972863,76.14848146457045,0.2801405812088096,2.9363227830565957,-123.1245839759823,-117.84956625012516,65.03,7.8983844946289,,13.9925813,66.3851348,20190516,110123,2019-05-16T11:01:23Z,74.021,0.72,1.54,9.76,9,8,17,0.1,-0.13,-1.89,0,0,0,0,5,5,13.99258129769437,66.38513701069661,50,347055,48,79,126,2904,3700,4102,4107,-1046,16412,33,212,16409,0,false,false,false,false,false,false,true,false,false,false,4272,4158,3647,3862,54,70,70,55,1418,1402,1350,1374,1414,1413,1356,1369,0.0,0.0,0.0,0.0,1676.6,1674.1,1672.9,1676.0,3.11,2.19,2.16,2.16,0,0,0,0,-160.34223510836648,13.992580030118065,66.38513413317925,0,-104.7502,-104.8649,-0.014839287,0.0081091095,-0.59837025,0.59860915,6.636348,1.6765407,2.6000872,7.3220453,115,-290,1468,1500.0,0.028646298,-0.013886088,-0.67654973,0.6772983,0.03183447492200351,0.04563037525997355,-1.5202782280641884,-2.1277507679227528,86.75200760190512,86.75200760190512,67.64498503862421,14.87898878639615,-17.227275263184715,76.52098655804222,0.32490885235445566,7464113.392350973,-66.01725228246376,-60.742234556606626,65.01,NONE,0.0,0.0,0.0,NONE,1.6490985664981626E-9,-1.0213641404826722E-9,-0.004814148,2,34.27,33.49,27.13,30.65,16.574,16.574,6.032,5.796579,0,3346,4.231,12.0,9.893,97,25.3,OK,43,0,0,0,0,0,65,100,0.0,0,0.0,1.4820463E30,8.7E-44,0.0,NaN,62,1.8970695E-8,-3.1119116E-10,6.1518603E-37,False,False,0,None,1.6667625E31,5.2041973E-18,
182990174,11.081,13.992579971953608,66.38513531182703,17,-104.73694,-104.98983,-0.02119387,0.016227324,-1.0068538,1.0072076,7.8462386,-8.434301,9.477051,14.916949,126,-266,1468,1497.0,0.0809194,0.079525195,-0.0026491322,0.11348667,0.11345574488397366,-0.012027846942079742,-0.8648698562998536,-2.18653389500072,92.73815119202573,92.73815119202573,65.56822398228053,-0.7661482331655841,-7.541574881378555,74.03450076832296,0.19792064858021963,3.068618649066304,139.16762036216736,144.4426380880245,64.91,8.101776523437493,,13.9925807,66.385135,20190516,110124,2019-05-16T11:01:24Z,74.064,0.72,1.54,9.67,9,8,17,0.13,-0.14,-0.68,0,0,0,0,5,5,13.99258129769437,66.38513701069661,50,347055,17,79,127,2904,3700,4103,4108,-985,16412,33,0,16409,0,false,false,false,false,false,false,true,false,false,false,5410,5356,4754,4888,54,71,70,55,1519,1512,1454,1463,1518,1509,1444,1460,0.0,0.0,0.0,0.0,1660.0,1655.8,1654.6,1658.8,4.34,3.64,3.39,3.12,0,0,0,0,-170.5046161802295,13.992579393431097,66.385134411861,0,-104.78458,-104.86379,-0.023129571,0.015826005,-1.0071894,1.0075793,15.644363,0.14576654,14.018702,21.006935,126,-266,1468,1497.0,0.06587904,0.007623597,0.025889946,0.07119309,0.06631867861569091,-0.024325681292261085,-0.6501241658728368,-2.0865174963801882,86.80456609282103,86.804566092821,69.0350087927527,18.141762610399514,-19.544184316339567,73.81561402021288,0.3011688444685261,7464113.491007934,127.26580295827529,132.54082068413243,64.94,NONE,0.0,0.0,0.0,NONE,1.2785108083617347E-9,9.787960871124026E-10,1.296997E-4,2,50.12,46.88,39.47,44.32,16.855,16.855,5.954,6.534735,0,3343,4.122,12.0,6.438,97,25.3,OK,44,0,0,0,0,0,65,100,0.0,0,0.0,-2519296.0,8.7E-44,0.0,NaN,62,2.0028892E-8,-3.1945477E-10,6.046479E-37,False,False,0,None,1.6140881E31,5.318229E-18,
186891801,12.095,13.9925815799454,66.38513480007873,17,-104.70144,-105.12218,-0.024192994,0.008017731,-1.0005993,1.0009238,-15.651997,-7.824254,-14.46659,22.70432,137,-263,1472,1501.0,-0.038924336,0.18050395,0.03515005,0.1879689,0.18465313743450917,-0.09443963387634019,-0.7751373746082607,-2.0866822474720363,90.91334041881888,90.91334041881885,66.06376556964707,0.9568500849633583,-8.095192056798762,71.1067379866666,0.24613080099513773,3.179233286605961,113.82067663641295,119.0956943622701,64.97,8.1372760961914,,13.9925811,66.3851346,20190516,110126,2019-05-16T11:01:26Z,73.984,0.72,1.54,9.55,9,8,17,-0.09,0.02,-0.17,0,0,0,1643,5,5,13.99258129769437,66.38513701069661,50,350235,16,79,128,2899,3700,4138,4144,-616,16559,28,0,15888,0,false,false,false,false,false,false,true,false,false,false,5445,5326,4726,4955,56,70,69,55,1559,1525,1457,1503,1563,1566,1494,1504,0.0,0.0,0.0,0.0,1644.1,1649.6,1650.2,1648.4,5.11,3.89,3.59,3.55,0,0,0,0,-162.2934823145076,13.992580547891503,66.38513399590065,0,-104.88645,-104.86706,-0.024879064,0.014714892,-1.0744376,1.0748264,-7.25724,-6.916083,-1.2877084,10.107321,137,-263,1472,1501.0,-0.011918689,0.072058305,-0.043775223,0.08515119,0.0730373506405596,-0.004829200480570298,-0.6964832458545377,-2.01236923267044,84.99352280184719,84.99352280184718,68.98629824015137,20.261497163087824,-20.15727625704335,70.84819110201637,0.33688964400609206,7464113.610969391,170.19994231118497,175.4749600370421,64.96,NONE,0.0,0.0,0.0,NONE,3.237713320056096E-9,6.274762940499693E-10,-8.392334E-5,2,65.02,63.23,52.65,56.44,16.749,16.749,5.955,7.075373,0,3341,4.207,12.0,6.717,97,25.3,OK,45,0,0,0,0,0,65,100,0.0,0,0.0,2.1454412E-5,8.7E-44,0.0,NaN,62,2.0083917E-8,-3.198882E-10,6.2764122E-37,False,False,0,None,1.728938E31,5.3241584E-18,
190806192,13.113,13.992582793991795,66.38513311002012,17,-102.24392,-102.879005,-0.024082692,0.010638365,-1.0675724,1.067897,24.276382,-3.342823,18.048172,30.434416,95,-282,1472,1501.0,0.115052015,0.09692838,-3.899168,3.902069,0.15043961358735053,0.04178057868063606,-1.435323267622795,-0.26415768574318194,90.86963818912501,90.869638189125,67.79789753717395,2.9129378924120313,-6.25013105708513,70.20783271292049,0.4388264329270599,3.3976305593735376,135.76734753176373,141.04236525762087,65.02,10.5947956274414,,13.9925837,66.385133,20190516,110126,2019-05-16T11:01:26Z,75.221,0.72,1.54,9.5,9,8,17,-0.36,0.45,-1.2,0,0,0,9998,5,5,13.99258129769437,66.38513701069661,50,350236,20,79,129,2899,3700,4123,4134,-1373,16468,28,2,15888,0,false,false,false,false,false,false,true,false,false,false,6423,6383,5627,5777,55,71,71,55,1625,1629,1535,1555,1617,1615,1530,1542,0.0,0.0,0.0,0.0,1633.1,1627.0,1626.4,1631.2,6.0,5.24,4.52,4.18,0,0,0,0,-172.2822551927285,13.992582378922322,66.38513229587049,0,-102.50829,-102.91482,-0.023518667,0.014940263,-1.1212388,1.121585,3.7846897,0.871538,5.151867,6.4517584,98,-282,1478,1507.0,0.046853837,0.09578257,-3.8524945,3.8539698,0.10662824328298513,0.09574311749833582,-1.2950960641369778,-0.3188129876399673,85.09248026092106,85.09248026092109,67.10758180708919,16.66191885586773,-19.557596399586252,70.14543486561156,0.5264722592905017,7464113.83109613,152.15535427864427,157.4303720045014,64.98,NONE,0.0,0.0,0.0,NONE,6.325395550161221E-9,8.28067718643406E-10,-0.00919342,2,61.03,59.76,49.05,52.9,16.691,16.691,5.829,7.4148107,0,3337,4.169,12.0,8.066,97,25.4,OK,46,0,0,0,0,0,65,100,0.0,0,0.0,-9.94376E-16,2.65E-43,0.0,NaN,62,1.15060175E-7,-7.75419E-10,1.2950472E-36,False,False,0,None,6.7165675E31,1.2010769E-17,
194723348,14.131,13.992583115483809,66.38513376731873,17,-98.43683,-98.911285,-0.012235904,0.0068898257,-0.8423057,0.8424227,10.879209,-77.44704,0.8802525,78.21237,129,-318,1462,1501.0,0.41475296,-0.19376639,-3.7721047,3.7997816,0.4577831701576554,-0.3846257984248373,-2.351153682282948,-5.402969404342828,90.59840061705353,90.59840061705353,68.46199388429551,3.958153205929726,-7.837901086449106,92.29886350224287,0.3696248754779574,3.556894118403409,-36.30078359162429,-31.025765865767152,64.98,14.401886386718743,,13.9925854,66.3851333,20190516,110128,2019-05-16T11:01:28Z,78.835,0.72,1.54,9.47,9,8,17,0.05,0.11,-2.88,0,3657,0,9732,5,5,13.99258129769437,66.38513701069661,50,351132,48,19,130,627,3520,3706,3712,-1122,14861,43,212,14858,0,false,false,false,false,false,false,false,false,false,false,5593,5681,5001,5182,55,70,72,55,1518,1550,1443,1473,1511,1513,1453,1476,0.0,0.0,0.0,0.0,1660.0,1653.3,1653.3,1658.2,4.28,4.26,2.15,1.99,0,0,0,0,-175.1277202530537,13.992583613146591,66.3851325823115,0,-98.61118,-98.98388,-0.008015835,0.010047938,-0.92642,0.92650914,31.083895,-39.0993,15.280697,52.2347,86,-334,1456,1496.0,0.06381543,0.03456536,-3.8203812,3.8210704,0.07257529229589163,-0.01016551292948522,-2.3126615521853218,-1.3796285776093162,85.23619972461975,85.23619972461972,68.38350822521492,15.915671303250338,-16.383502517403233,79.56853317850532,0.5030992840792441,7464113.99572324,15.324239736067163,20.5992574619243,64.95,NONE,0.0,0.0,0.0,NONE,3.978550391360989E-9,1.954109870945429E-9,-0.009391785,2,53.97,55.31,39.22,41.64,16.484,16.484,5.901,7.744529,0,3333,4.131,12.0,12.388,97,25.4,OK,47,0,0,0,0,0,65,100,0.0,0,0.0,2.9891295E28,2.66E-43,0.0,1.0298358E-23,64,7.0227543E-6,-6.036801E-9,3.3435708E-36,False,False,0,None,3.9938917E32,8.1540904E-17,
198620775,15.144,13.99261045386442,66.38513677307624,17,-96.358315,-96.44563,-0.04795469,0.013800637,-0.62023723,0.6222414,-3.9562402,-1.587359,-3.2022622,5.3316064,695,-236,1349,1535.0,0.3606969,2.6021762,-1.3326619,2.9457445,2.627055952477509,-1.3803946359457782,-0.5243142664841636,-24.08020460037881,90.25570968330467,90.25570968330464,70.14416949432251,9.140068435966445,-26.500566627290308,69.5832796207052,1.2989782258882465,4.863281607844547,80.17308223817429,85.44809996403143,64.94,16.480400485839837,,13.992598,66.3851346,20190516,110128,2019-05-16T11:01:28Z,81.537,0.72,1.54,9.48,9,8,17,-0.06,1.36,-2.69,0,9517,0,3298,5,5,13.99258129769437,66.38513701069661,50,351132,17,19,131,627,3520,3706,3712,-1122,14861,43,0,14858,0,false,false,false,false,false,false,false,false,false,false,4560,4495,4225,4308,56,71,71,55,1418,1423,1388,1400,1418,1413,1383,1390,0.0,0.0,0.0,0.0,1672.9,1669.3,1669.3,1672.3,2.65,2.04,2.3,1.74,0,0,0,0,-164.17064602550272,13.992611888124582,66.38513537131179,0,-96.309326,-96.26316,-0.048353627,0.014658083,-0.6117164,0.6137995,-0.2933334,-0.21130705,3.0044923,3.026164,698,-236,1349,1537.0,0.1736021,2.82266,-1.1936297,3.0695763,2.827993400420348,-1.5474645593565102,-0.2798925099259006,-24.293844968837146,90.67745865318746,90.67745865318744,71.87278517121378,21.726615459476804,-35.18684014139205,70.61448692877642,1.3747356666096688,7464115.426350974,80.88234882352725,86.15736654938439,64.94,NONE,0.0,0.0,0.0,NONE,1.266586267970703E-7,7.481649519878872E-9,-0.0045928955,2,38.0,36.59,33.16,34.5,16.556,16.556,5.917,8.1703615,0,3331,4.097,12.0,8.81,97,25.5,OK,48,0,0,0,0,0,65,100,0.0,0,0.0,-2.0741718E-6,2.68E-43,0.0,1.0298358E-23,64,1.169499E-4,-2.4706997E-8,1.3208245E-35,False,False,0,None,4.9612675E33,3.0123374E-16,
202497049,16.151,13.992689831234859,66.38512484925674,17,-97.0435,-96.28154,-0.14056757,0.022378013,-1.0384208,1.0481306,-14.870767,-0.012895682,-16.296633,22.061733,692,-244,1343,1530.0,-1.3248656,4.69359,0.06521294,4.8774285,4.876992625365666,-1.1286836271698544,-0.5799474915121419,-23.765191142224225,107.56961309773097,107.56961309773095,67.29673294878219,6.496641700043309,-27.142962705200517,68.41720583769398,5.020003836287275,8.784387929163062,102.06076937410842,107.33578709996556,64.99,15.795212192382806,,13.9926875,66.3851244,20190516,110130,2019-05-16T11:01:30Z,82.09,0.72,1.54,9.54,9,8,17,-1.34,4.31,-1.01,0,7686,0,0,5,5,13.99258129769437,66.38513701069661,50,369787,16,19,132,597,3482,3766,3769,0,15072,26,1,16862,0,false,false,false,false,false,false,false,false,false,false,5313,5252,5448,5545,56,72,71,55,1510,1510,1517,1535,1507,1499,1512,1522,0.0,0.0,0.0,0.0,1649.0,1645.3,1644.1,1649.0,4.28,3.62,4.43,3.95,0,0,0,0,-20.26207253235225,13.992695482722425,66.3851242594258,0,-97.07446,-96.092064,-0.14416431,0.031630967,-1.0376611,1.0481051,7.776776,0.40520418,8.681896,11.662665,692,-244,1343,1530.0,-0.72723275,5.4053683,0.028809067,5.4541454,5.454069476601011,-1.5597680592472494,-0.5027632265999826,-23.945824316085254,98.56471695282949,98.56471695282949,66.99929426844443,17.422881804921943,-36.85548195780851,69.56800330541272,5.280103361713801,7464119.415850682,98.42747881770256,103.7024965435597,64.97,NONE,0.0,0.0,0.0,NONE,3.00554433772556E-7,-1.5773694905423224E-8,8.392334E-5,2,48.44,47.27,48.95,50.69,16.748,16.748,5.93,8.519596,0,3329,4.097,12.0,6.464,97,25.5,OK,49,0,0,0,0,0,65,100,0.0,0,0.0,-2.0907755E-15,2.68E-43,0.0,1.0298358E-23,64,1.9134209E-4,-2.9560061E-8,1.9103787E-33,False,False,0,None,4.87336E37,3.6823066E-16,
206365760,17.157,13.992818544322356,66.38510676656026,17,-98.343346,-96.54045,-0.10295538,0.0025443966,-0.9976216,1.0029233,1.784427,12.420444,-9.838526,15.945161,-96,-318,1450,1487.0,-1.738061,5.2538548,1.8978678E-4,5.5338817,5.533881472052732,0.5087821024645001,-1.8973959681307242,6.589303076315441,105.86646699252323,105.86646699252321,58.242679343954,-0.5881001976150473,3.147514028613392,75.03091756755893,11.089937716097158,14.86169560894771,103.72696246073644,109.00198018659358,64.89,14.49536935791015,,13.9928179,66.3851066,20190516,110131,2019-05-16T11:01:31Z,81.812,0.72,1.54,9.49,9,8,17,-1.89,5.82,-0.25,0,1641,0,0,5,5,13.99258129769437,66.38513701069661,50,369788,18,18,133,595,3473,3813,3820,3581,15247,26,1,15274,0,false,false,false,false,false,false,false,false,false,false,4010,3907,5367,4963,55,71,71,56,1409,1391,1521,1492,1404,1375,1513,1482,0.0,0.0,0.0,0.0,1659.4,1654.6,1654.6,1658.8,3.45,2.39,4.64,3.4,0,0,0,0,7.110403806624106,13.992822160952294,66.38510478428736,0,-98.2332,-96.3394,-0.099319175,0.01641785,-0.99152774,0.9966248,-11.90481,6.8519025,4.1730456,14.355743,-96,-318,1450,1487.0,-1.7211989,5.4654794,-0.031686466,5.7301826,5.730095287549286,0.2810162140007506,-2.165530161273225,6.950717172670426,105.60067318850892,105.60067318850895,66.87274867823473,17.93264661259037,-4.180064135949038,72.78005719239107,11.311438706900859,7464125.469774354,104.51898127552143,109.79399900137857,64.9,NONE,0.0,0.0,0.0,NONE,3.4406495695247834E-7,-3.0157373501798325E-8,-2.2888184E-4,2,36.91,32.57,46.37,43.44,16.688,16.688,5.976,8.642651,0,3327,4.18,12.0,7.315,97,25.5,OK,50,0,0,0,0,0,65,100,0.0,0,0.0,-3.2428127E-19,2.68E-43,0.0,1.0298358E-23,64,1.5737861E-4,-2.7487323E-8,1.9946187E-29,False,False,0,None,-8.620047E-36,3.396145E-16,
210244830,18.165,13.992924013317174,66.38509293471328,17,-96.68901,-96.50734,-0.11420828,0.025654893,-1.1292666,1.135317,-4.571981,-1.8093714,-1.6240201,5.1782503,89,-279,1490,1518.0,-1.1570575,3.6963737,-1.4019206,4.1191435,3.873236470239654,1.0300787183767603,-0.6797384260782117,-0.4746954985253001,108.24296534020425,108.24296534020425,61.5453318805429,4.635973237025159,-7.480488859483615,73.65652505502233,16.033111884490673,19.806477103590566,100.06611363682777,105.3411313626849,64.86,16.149704379882806,,13.9929218,66.3850938,20190516,110132,2019-05-16T11:01:32Z,81.987,0.72,1.54,9.42,9,8,17,-1.19,3.92,-0.37,0,1209,0,6518,5,5,13.99258129769437,66.38513701069661,50,369789,114,18,134,596,3473,3813,3820,3592,15293,26,3688,15285,0,false,false,false,false,false,false,false,false,false,false,5264,5199,5338,5403,57,71,72,57,1502,1491,1506,1516,1495,1482,1497,1501,0.0,0.0,0.0,0.0,1653.3,1648.4,1647.8,1652.1,3.98,3.07,4.07,3.54,0,0,0,0,-25.062008255794467,13.992926003238775,66.38509103579285,0,-96.832664,-96.11264,-0.111651845,0.027998727,-1.1021091,1.108104,2.1506102,6.0105853,8.893279,10.9472685,89,-282,1490,1519.0,-1.1153424,3.6044643,-1.517734,4.0668993,3.7730825190090216,1.05908623670271,-0.8469983346033807,0.17277496238547288,110.16477736006176,110.16477736006175,70.80723017361137,18.12544198728374,-11.978700268814869,70.21573856777887,16.18298691935056,7464130.349708051,106.88025191813367,112.1552696439908,64.85,NONE,0.0,0.0,0.0,NONE,2.0116065586955887E-7,-2.5285887944006073E-8,-0.0037460327,2,48.4,45.39,47.1,49.1,16.71,16.71,5.868,8.582441,0,3325,4.18,12.0,6.549,97,25.5,OK,51,0,0,0,0,0,65,100,0.0,0,0.0,-3.0577228E-19,2.68E-43,0.0,1.0298358E-23,64,1.4908984E-4,-2.6981189E-8,4.5045742E-26,False,False,0,None,-1.0931157E-32,3.3262817E-16,
214094321,19.165,13.993004808464068,66.38508408411364,17,-94.9209,-94.94468,-0.105408445,0.017215788,-1.0390508,1.0445257,-7.006989,-8.198216,-2.0179954,10.971826,698,-247,1352,1541.0,-1.4630078,4.62062,-1.2652001,5.0091166,4.846701823915547,-1.117420533028683,-0.4048264203436407,-25.07119182917489,108.38195140266073,108.38195140266072,60.858369940602955,2.394860650048644,-35.45601016292701,76.13459587606425,19.761235874976933,23.540463805131022,100.8405652703028,106.11558299615994,64.92,17.917816562499993,,13.9930014,66.3850847,20190516,110133,2019-05-16T11:01:33Z,83.127,0.72,1.54,9.38,9,8,17,-1.15,3.96,-0.91,0,9818,0,5680,5,5,13.99258129769437,66.38513701069661,50,373411,114,99,135,3489,3489,4385,4391,352,17533,32,3482,17601,0,false,false,false,false,false,false,false,false,false,false,5435,5505,5347,5456,57,72,72,57,1526,1543,1508,1526,1519,1524,1512,1524,0.0,0.0,0.0,0.0,1645.9,1640.5,1640.5,1644.1,4.56,4.12,4.26,3.74,0,0,0,0,-164.1098555568911,13.993007791929498,66.38508228685552,0,-95.05572,-94.7732,-0.10381693,0.022075932,-1.0429631,1.0483499,6.9114265,5.130479,0.26330513,8.61156,704,-247,1352,1544.0,-1.4886285,4.523978,-1.2530023,4.9246736,4.762603702567532,-0.9935664515850036,-0.34078056195519774,-24.431294341613675,110.31777183231866,110.31777183231867,71.48060613717678,18.751370154364682,-37.44821337781994,71.2368928226868,19.948189543360787,7464134.140778109,104.25142255540669,109.52644028126383,64.91,NONE,0.0,0.0,0.0,NONE,2.215632038569553E-7,-2.8395751766930327E-8,-0.0032348633,2,52.39,49.76,49.17,51.84,16.678,16.678,5.916,8.43301,0,3323,4.144,12.0,8.399,97,25.6,OK,52,0,0,0,0,0,65,100,0.0,0,0.0,-1.6128566E-18,2.68E-43,0.0,1.0298358E-23,64,5.9089065E-4,-5.379503E-8,8.056784E-24,False,False,0,None,-1.3401824E-30,6.302908E-16,
217996905,20.180,13.993128245005144,66.38506813280772,17,-93.403206,-93.13371,-0.17985027,0.013839967,-1.0254539,1.0411981,-1.7272068,20.05869,-8.997707,22.052052,433,-252,1435,1519.0,-2.2060897,6.299947,-2.760144,7.223196,6.675040358517827,-0.9790029073106474,-0.007519120232870118,-12.83193944651852,109.23542908345684,109.23542908345684,63.69569830170732,3.6260585666383,-22.70000069524763,67.66082542263419,25.53831418111957,29.31844850767086,103.60578924258623,108.88080696844337,64.98,19.435509128417962,,13.9931254,66.3850683,20190516,110134,2019-05-16T11:01:34Z,84.733,0.72,1.54,9.39,9,8,17,-2.21,6.34,-1.51,0,6870,1596,8604,5,5,13.99258129769437,66.38513701069661,50,373886,114,100,136,3505,3504,4392,4395,163,17555,33,3489,17550,0,false,false,false,false,false,false,false,false,false,false,5272,5405,5488,5582,57,72,72,57,1473,1501,1507,1506,1468,1467,1493,1502,0.0,0.0,0.0,0.0,1658.8,1651.5,1650.8,1658.2,3.17,3.06,3.58,2.9,0,0,0,0,5.667285678239125,13.993131919675672,66.38506650039416,0,-93.27793,-92.9148,-0.16783755,0.015644606,-0.94136745,0.9563403,-0.55928534,21.032356,-3.4390066,21.318996,427,-252,1438,1521.0,-2.199737,6.2991467,-2.8061244,7.238261,6.672188030109078,-0.9527475610932683,-0.1276561667945273,-11.484324488265084,111.03466055889267,111.03466055889265,71.54341608335183,17.403786290710784,-22.627380633686208,62.04533613663938,25.749197884741864,7464139.946483193,103.78507889033025,109.0600966161874,64.99,NONE,0.0,0.0,0.0,NONE,3.51677753810202E-7,-4.932523371003043E-8,-0.0070266724,2,45.6,45.87,47.02,47.15,16.554,16.554,5.907,8.300157,0,3321,4.166,12.0,8.542,97,25.6,OK,53,0,0,0,0,0,65,100,0.0,0,0.0,-1.4640964E-18,2.68E-43,0.0,1.0298358E-23,64,0.005740404,-1.7103689E-7,2.555627E-23,False,False,0,None,-4.0589937E-30,1.7134258E-15,
221860086,21.184,13.993274010150715,66.38504780780737,17,-91.997215,-91.606445,-0.17899859,0.022632971,-0.8867918,0.9049599,10.407467,0.5283339,5.8954477,11.97292,681,-238,1355,1535.0,-2.5666764,7.163363,-0.43251193,7.6215916,7.60930982871219,-0.7618977749468003,-0.3066457339723126,-24.630938741586867,115.8027656618842,115.80276566188422,66.99722018158714,5.747057772810758,-35.789262598076135,76.87828175735115,32.41077801892506,36.19386829994842,102.58322850483171,107.85824623068885,65.01,20.8414997290039,,13.9932705,66.3850481,20190516,110135,2019-05-16T11:01:35Z,86.419,0.72,1.54,9.39,9,8,17,-2.3,6.6,-1.53,0,10000,3592,3308,5,5,13.99258129769437,66.38513701069661,50,373886,19,100,137,3505,3504,4392,4395,163,17555,33,1,17550,0,false,false,false,false,false,false,false,false,false,false,4823,4905,5231,5389,57,71,72,57,1456,1469,1492,1521,1452,1469,1491,1501,0.0,0.0,0.0,0.0,1653.9,1650.2,1650.8,1653.3,3.24,3.0,3.86,3.78,0,0,0,0,-4.869941716281119,13.993279322629881,66.38504646808742,0,-92.12303,-91.11673,-0.17709443,0.028030768,-0.8807339,0.8987994,22.35194,7.0082088,20.40729,31.067373,678,-236,1355,1533.0,-2.5994906,7.113366,-0.57527107,7.595279,7.573462241423378,-0.6678680777370065,-0.21218578973869218,-23.811721612582808,117.78093863897786,117.78093863897789,76.0416086775071,19.054872287672083,-35.557966775955286,72.48821539822464,32.68172433459565,7464146.880516501,104.09777983122025,109.37279755707739,65.02,NONE,0.0,0.0,0.0,NONE,3.8149004193734445E-7,-5.514658209922388E-8,-0.0023498535,2,43.17,42.57,47.11,50.38,16.606,16.606,5.937,8.234981,0,3318,4.154,12.0,8.715,97,25.6,OK,54,0,0,0,0,0,65,100,0.0,0,0.0,-5.2269874E-19,2.68E-43,0.0,1.0298358E-23,64,0.03278351,-4.1116627E-7,3.4203E-23,False,False,0,None,-5.1148847E-30,3.9934694E-15,
225709762,22.184,13.993452255109542,66.3850188462696,17,-91.62472,-91.438866,-0.2668825,0.02075323,-0.8328364,0.8747991,3.8647673,48.54884,-0.44142988,48.704426,712,-197,1355,1543.0,-3.720915,8.462234,-0.06409061,9.244388,9.244166003622992,-0.6806795955882023,1.0972008394232446,-25.530790960602374,117.8153629270617,117.8153629270617,74.2007911255004,13.177763095248073,-33.61060825145531,74.88482988110813,40.95996366809255,44.76419948296829,108.7663139811019,114.04133170695904,65.0,21.21399728759765,,13.9934474,66.3850196,20190516,110136,2019-05-16T11:01:36Z,86.565,0.72,1.54,9.47,9,8,17,-3.64,8.43,-0.75,0,0,0,0,5,5,13.99258129769437,66.38513701069661,50,940812,48,100,138,3411,3479,4361,4364,0,17428,21,212,0,0,false,false,false,false,false,false,false,false,false,false,4961,4935,4610,4651,57,73,73,58,1500,1505,1464,1501,1777,1787,1233,1200,0.0,0.0,0.0,0.0,1648.4,1645.9,1644.7,1647.2,5.16,5.56,2.13,2.31,0,0,0,0,-173.9769037617387,13.993457872924862,66.38501707461438,0,-92.16939,-90.63143,-0.33595324,0.026038874,-1.100644,1.1510689,5.8698473,193.07823,-0.5059764,193.1681,709,-197,1355,1541.0,-3.7566614,8.534084,-0.22356887,9.327008,9.324328392736172,-0.7301111681415726,1.1842241016926884,-20.452405216762337,119.2926829574882,119.29268295748818,76.97210048891765,20.865016699422146,-27.252139138789165,49.46787225072625,41.260307800896776,7464155.481370337,108.38700044421113,113.66201817006827,65.01,NONE,0.0,0.0,0.0,NONE,4.769153287861139E-7,-8.440330454111225E-8,-6.2561035E-4,2,31.47,26.48,51.58,60.17,16.678,16.678,5.93,8.179806,0,3316,4.09,12.0,6.302,97,25.6,OK,55,0,0,0,0,0,65,100,0.0,0,0.0,-2.9149018E-20,2.68E-43,0.0,1.0298358E-23,64,0.054463387,-5.1089245E-7,7.241427E-23,False,False,0,None,-1.0208392E-29,5.1352427E-15,
229590245,23.193,13.993620084914665,66.38498749345953,17,-92.71745,-91.94092,-0.032201447,0.0062752906,-1.2817549,1.2821746,1.744371,-2.962253,-0.4255117,3.4639332,-854,-227,1159,1457.0,-1.8480589,3.7312484,0.29757795,4.1744566,4.163836675249678,4.01514192052,3.1194873965465075,36.47878068923923,116.74058071416813,116.74058071416812,72.7892354081576,15.407095028616384,18.48586332326578,91.18486463093299,49.16726513783767,53.014005004564034,109.04252612992481,114.31754385578195,64.96,20.121261997070306,,13.9936098,66.3849899,20190516,110137,2019-05-16T11:01:37Z,86.287,0.72,1.54,9.44,9,8,17,-2.48,5.49,-0.09,0,0,0,0,5,5,13.99258129769437,66.38513701069661,50,940812,48,100,139,3411,3479,4361,4364,0,17428,21,212,0,0,false,false,false,false,false,false,false,false,false,false,4596,4272,4667,5159,56,72,72,57,1447,1482,1481,1487,1438,1437,1500,1499,0.0,0.0,0.0,0.0,1647.8,1642.9,1641.7,1647.2,4.22,3.93,4.97,3.53,0,0,0,0,-40.423511379814386,13.993614340035522,66.38498837411178,0,-93.483765,-91.12165,-0.045746587,0.010144084,-1.3074594,1.3082987,4.8349237,17.09213,-3.0730622,18.026678,-834,-222,1178,1460.0,-1.9689174,4.179558,0.14180247,4.6222773,4.620101809350067,2.980634978977137,2.9360514599942173,36.05726853432379,117.80322941479199,117.80322941479199,77.38713676058741,21.568074488889106,25.392475193224886,87.65901958982323,48.89332985856876,7464163.147915406,109.76935480757538,115.04437253343252,64.97,NONE,0.0,0.0,0.0,NONE,3.1215469638582164E-7,-5.75796432088383E-8,1.8310547E-4,2,45.32,40.75,45.61,48.34,16.581,16.581,5.927,8.0660095,0,3314,4.133,12.0,7.496,96,25.7,OK,56,0,0,0,0,0,65,100,0.0,0,0.0,-1.8071311E-21,2.68E-43,0.0,1.0298358E-23,64,0.031004906,-4.034392E-7,1.738671E-22,False,False,0,None,-2.2695929E-29,3.8868923E-15,mcID(SN)|298DG13001W644
233564646,24.226,13.993651206294698,66.38498156145492,17,-91.47193,-92.02212,-0.02406823,0.009607236,-0.9962056,0.99654263,4.105184,-11.612097,4.7261667,13.192042,-96,-227,1490,1510.0,-0.057610136,0.27132976,-0.1476633,0.31423435,0.2773783890490064,1.2088637716106516,-0.0070867414740480115,0.971371762252413,128.37755146955973,128.37755146955976,79.10372440389787,7.406120840520025,-17.95835332579642,107.31860310555057,50.69513333672818,54.56590984670286,106.81233617028049,112.08735389613763,64.93,21.366783542480462,,13.9936496,66.384982,20190516,110138,2019-05-16T11:01:38Z,86.024,0.72,1.54,9.42,9,8,17,-0.09,0.25,0.14,0,0,0,0,5,5,13.99258129769437,66.38513701069661,50,940812,48,100,140,3411,3479,4361,4364,0,17428,21,212,0,0,false,false,false,false,false,false,false,false,false,false,5328,5146,4803,4830,58,73,73,58,1511,1505,1446,1464,1501,1490,1453,1458,0.0,0.0,0.0,0.0,1653.3,1648.4,1649.6,1651.5,4.28,3.52,3.17,2.88,0,0,0,0,-166.04393529237691,13.993650121655755,66.38498126775791,0,-91.72127,-91.32244,-0.02669777,0.013215751,-1.0041387,1.0045805,6.119892,-1.9734799,9.21288,11.234983,-90,-225,1490,1509.0,0.036295597,0.06175341,-0.16368458,0.17867148,0.07162997954490687,1.6506240251129638,0.16593901897622693,1.3517208786732158,128.79725081786165,128.79725081786165,86.55980661954698,15.649861775430855,-10.86232378537325,103.4499485077785,50.660872252690915,7464164.971759998,-32.981601710919165,-27.70658398506203,64.95,NONE,0.0,0.0,0.0,NONE,6.843618822018187E-9,1.5420824729434949E-10,-4.348755E-4,2,49.37,46.61,39.93,41.75,16.573,16.573,5.934,7.930806,1503,3312,4.148,12.0,7.872,96,25.7,OK,57,0,0,0,0,0,65,100,0.0,0,0.0,-9.251757E-22,2.68E-43,0.0,-7.4923226E30,63,0.026171684,-3.6656465E-7,2.0574587E-22,False,False,0,None,-2.718951E-29,3.4652323E-15,mcVer|v3.4.1.6
237502854,25.249,13.993647530141724,66.38498330416358,17,-91.83041,-91.9997,-0.020280031,-0.0029926843,-1.0067364,1.0069451,-9.57761,-4.042188,-10.900978,15.06324,22,-206,1478,1492.0,0.045493007,-0.01944355,-0.15748483,0.16507313,0.04947388405373792,0.19839705093682994,0.42860991740869947,-2.2609951056837905,128.47920153588237,128.47920153588234,78.10769159521546,7.133551082245746,-23.23067856845621,99.48518670953787,50.47528210700356,54.84656818997025,-50.69414786374813,-45.419130137890996,65.11,21.00830881103515,,13.9936475,66.384983,20190516,110139,2019-05-16T11:01:39Z,86.018,0.72,1.54,9.41,9,8,17,0.08,-0.06,0.09,0,0,0,0,5,5,13.99258129769437,66.38513701069661,50,940812,48,100,141,3411,3479,4361,4364,0,17428,21,212,0,0,false,false,false,false,false,false,false,false,false,false,5291,5267,4825,4824,58,73,73,57,1508,1503,1454,1471,1497,1498,1454,1457,0.0,0.0,0.0,0.0,1652.1,1647.8,1648.4,1652.7,4.15,3.46,3.44,3.11,0,0,0,0,-178.55058106742428,13.993646346785573,66.38498282972843,0,-91.597496,-91.3765,-0.018919101,-0.0010614269,-1.0030736,1.0032525,-3.8330164,-7.3782835,-5.271235,9.844644,19,-206,1478,1492.0,0.06301718,-0.038580213,-0.20985356,0.22248171,0.07388909121059073,0.1622965757433296,0.41892359987441075,-1.754008315129431,128.86228460779148,128.86228460779148,87.94831001181558,17.12016807509549,-15.359114599641916,96.89090129443117,50.44359404111407,7464165.255162293,-79.04863463993179,-73.77361691407465,65.1,NONE,0.0,0.0,0.0,NONE,-3.1651738693561125E-9,2.2702880877603154E-9,-4.348755E-4,2,46.93,47.9,42.01,41.08,16.637,16.637,5.933,7.821253,1523,3310,4.17,12.0,7.346,96,25.7,OK,58,0,0,0,0,0,65,100,0.0,0,0.0,-1.3751361E-21,2.68E-43,0.0,-7.4923226E30,63,0.025429249,-3.6090395E-7,2.0356482E-22,False,False,0,None,-2.6707256E-29,3.4261468E-15,
241358206,26.251,13.993672318382895,66.38497440708815,17,-91.53345,-91.93323,-0.107354015,0.013269977,-1.1220545,1.1272565,2.8682458,-2.287787,-0.028191179,3.6690052,825,-181,1291,1542.0,-2.613977,3.092481,-0.10472022,4.0505905,4.049236300954994,-2.569650022209024,0.06949088104826262,-34.02638797846765,128.6940195828546,128.6940195828546,75.24215568167597,4.814831704443941,-54.261907603711045,101.92146782351064,51.85219698049833,56.431362204833405,124.48685412379533,129.76187184965247,65.15,21.305267734374993,,13.9936642,66.3849772,20190516,110140,2019-05-16T11:01:40Z,85.922,0.72,1.55,9.42,9,8,17,-1.78,2.08,0.06,0,10000,0,0,5,5,13.99258129769437,66.38513701069661,50,940814,114,99,142,3411,3479,4361,4364,0,17428,21,3504,4,0,false,false,false,false,false,false,false,false,false,false,5575,5514,5484,5573,57,73,73,56,1540,1542,1533,1547,1529,1530,1533,1537,0.0,0.0,0.0,0.0,1640.5,1634.9,1633.7,1639.2,4.58,3.93,4.64,4.18,0,0,0,0,-102.04257514288497,13.993673810234782,66.38497315507205,0,-91.480896,-91.33598,-0.11055243,0.011950194,-1.1191667,1.1246772,7.61799,1.9356498,10.60764,13.202369,825,-181,1288,1540.0,-2.7242713,3.249869,-0.21243457,4.24599,4.240672478518986,-2.6148588461520403,-0.0311414419329118,-33.42402707086281,128.96903877775773,128.96903877775776,86.79285994479065,15.547311155653652,-46.28476359404688,96.63253056530834,51.96313500146946,7464166.92617896,124.5920445854824,129.86706231133954,65.13,NONE,0.0,0.0,0.0,NONE,1.569754725117043E-7,-5.241366966021971E-8,-5.645752E-4,2,52.16,51.29,50.81,52.34,16.645,16.645,5.893,7.7265477,1541,3308,4.108,12.0,7.504,96,25.7,OK,59,0,0,0,0,0,65,100,0.0,0,0.0,-2.34454E-22,2.68E-43,0.0,-7.4923226E30,63,0.026436329,-3.6858737E-7,2.3116636E-22,False,False,0,None,-3.0660805E-29,3.4792185E-15,
245245991,27.261,13.993783844980463,66.38493589601607,17,-91.44976,-91.796036,-0.20994836,0.03293482,-1.0825404,1.1032029,14.782925,-8.138685,8.931531,19.09307,783,-233,1297,1532.0,-5.902041,6.722705,-0.15147644,8.947166,8.945884346487086,-2.454813450773022,-2.9456881136992035,-34.181479092667225,139.60459856465096,139.60459856465093,84.93572224019026,6.974267189832737,-56.63969086415713,117.57005213157575,58.04625018020031,62.9906772957739,126.01567030364231,131.29068802949945,65.1,21.388954562988275,,13.9937659,66.3849418,20190516,110141,2019-05-16T11:01:41Z,85.781,0.72,1.55,9.52,9,8,17,-5.25,5.99,0.04,0,10000,0,0,5,5,13.99258129769437,66.38513701069661,50,978687,181,99,143,3412,3482,4361,4364,0,17426,19,58118,4,0,false,false,false,false,false,false,false,false,false,false,5794,6179,6037,6616,58,72,72,58,1586,1621,1581,1629,1574,1608,1580,1618,0.0,0.0,0.0,0.0,1622.6,1616.5,1618.4,1622.6,5.29,5.13,5.26,5.38,0,0,0,0,-15.923136469442454,13.993788927975219,66.38493316620945,0,-91.50026,-91.49783,-0.22680809,0.03899692,-1.1103458,1.1339446,12.979192,9.03894,-1.9288602,15.933686,780,-227,1297,1530.0,-5.998801,6.854285,-0.21429847,9.111134,9.108613232648132,-2.391419176311298,-2.64188537949892,-33.66057538904236,139.94674439623,139.94674439622997,98.1741738229733,21.300883009222808,-45.33473331082826,114.10349115447328,58.37245024725372,7464173.713902546,126.50319216276623,131.77820988862337,65.07,NONE,0.0,0.0,0.0,NONE,3.264402071053634E-7,-1.11715309759368E-7,-4.119873E-4,2,56.21,56.32,59.22,63.25,16.536,16.536,5.832,7.6788588,1549,3306,4.152,12.0,9.202,96,25.8,OK,60,0,0,0,0,0,65,100,0.0,0,0.0,-2.132007E-25,2.68E-43,0.0,-7.4923226E30,63,0.0227108,-3.4016747E-7,4.421314E-22,False,False,0,None,-5.537896E-29,3.2830322E-15,
249099803,28.263,13.993959327863026,66.38486802648276,17,-91.032555,-91.687805,-0.32412457,-0.0022343853,-0.94038445,0.99467814,-13.564211,-3.7562788,-19.915556,24.387022,825,-77,1325,1562.0,-8.892333,8.618751,-0.17218167,12.384914,12.38371694252174,-1.5357136354436225,4.171554543925337,-34.0322570225476,129.65235029557877,129.6523502955788,75.14383951751927,8.68056574262155,-58.25693274531128,106.94152441810094,68.28151911746858,73.85879009992861,130.33074688534194,135.60576461119908,64.93,21.80616037353515,,13.993936,66.3848779,20190516,110142,2019-05-16T11:01:42Z,85.711,0.72,1.55,9.58,9,8,17,-8.3,8.34,-0.02,0,10000,-3170,0,5,5,13.99258129769437,66.38513701069661,50,1234302,80,99,144,3367,3460,4354,4358,0,17400,19,0,5,0,false,false,false,false,false,false,false,false,false,false,5998,5846,6588,6552,58,73,73,58,1591,1597,1641,1625,1584,1588,1646,1626,0.0,0.0,0.0,0.0,1617.1,1614.1,1613.5,1617.1,5.52,4.44,6.04,4.65,0,0,0,0,-5.114696452226838,13.993967100140992,66.38486404956994,0,-91.05086,-91.43081,-0.3358361,-0.00133383,-0.95096606,1.0085257,-28.29429,0.5531864,-22.480785,36.1422,831,-77,1322,1563.0,-8.959805,8.710262,-0.24873988,12.498345,12.495869678946045,-1.4656449015455753,3.851001655007319,-33.88557606856373,128.69179110584258,128.69179110584258,86.16551253444997,22.17561828352592,-45.34185514833524,104.44408187114155,68.7868903793081,7464184.764520636,130.730897967319,136.00591569317615,64.93,NONE,0.0,0.0,0.0,NONE,4.782813718270146E-7,-1.9550179209269165E-7,-7.324219E-4,2,60.47,58.08,65.02,66.57,16.44,16.44,5.813,7.7679615,1530,3303,4.139,12.0,10.767,96,25.9,OK,61,0,0,0,0,0,65,100,0.0,0,0.0,-8.1651726E-30,2.68E-43,0.0,-7.4923226E30,63,0.023981094,-3.4985177E-7,1.2775614E-21,False,False,0,None,-1.4676819E-28,3.3498732E-15,
252956746,29.265,13.994177198481447,66.38478230763995,17,-89.52048,-91.52086,-0.2845513,-0.34554937,-0.9913222,1.0877011,-67.33826,-23.33693,-74.49801,103.09707,1064,3,1123,1547.0,-9.660301,10.9127865,-0.11935159,14.574793,14.574303554430301,-1.0042469772345868,9.192260334848891,-36.29595307548493,84.30938855793096,84.30938855793096,34.98643534290271,-12.794198860994918,-65.75064664450812,41.270805173645215,81.29560552973184,87.46412519872108,127.03839209733715,132.3134098231943,64.94,23.31823770507812,,13.9941476,66.3847933,20190516,110143,2019-05-16T11:01:43Z,85.631,0.72,1.55,9.61,9,8,17,-9.75,10.26,-0.04,0,8457,-6742,0,5,5,13.99258129769437,66.38513701069661,50,1234310,114,98,145,3367,3460,4354,4357,-15,17399,18,3479,0,0,false,false,false,false,false,false,false,false,false,false,6565,6811,6706,6743,59,74,74,59,1654,1701,1662,1638,1636,1698,1666,1626,0.0,0.0,0.0,0.0,1604.3,1597.5,1597.5,1602.4,6.38,6.44,5.94,4.59,0,0,0,0,70.74659571538939,13.994186025924149,66.384778324112,0,-89.25699,-91.319786,-0.2711349,-0.35768685,-1.050417,1.1422914,-68.8707,-18.073986,-74.00227,102.69459,1076,6,1114,1548.0,-9.515149,11.088304,-0.22787021,14.613024,14.611247060036117,-1.0071843863338206,8.428996470763622,-36.58236400635246,81.08072059384125,81.08072059384125,43.438038332908455,-1.5573168451263681,-50.948617991390755,37.27408751149939,81.85457547249457,7464198.404363871,126.88420518826982,132.15922291412696,64.95,NONE,0.0,0.0,0.0,NONE,5.683585837066669E-7,-2.1839314734193838E-7,-4.9591064E-4,2,64.6,70.76,64.34,61.44,16.338,16.338,5.776,8.058077,1474,3300,4.1,12.0,11.936,96,25.9,OK,62,0,0,0,0,0,65,100,0.0,0,0.0,-6.0763654E-34,2.68E-43,0.0,-7.4923226E30,63,0.026405811,-3.6835453E-7,4.5565515E-21,False,False,0,None,-4.6652494E-28,3.4776464E-15,
256854363,30.278,13.994433747662901,66.38471034190559,16,-93.81488,-91.18174,-0.01934276,-0.13619812,-1.2908779,1.2981871,-7.9384804,-1.5973552,-124.10874,124.37263,498,-869,1092,1481.0,-4.785194,7.463952,-0.124391876,8.867024,8.866152369371624,4.906091094437755,-35.477583062785605,-4.787003844420824,25.46331232225138,25.463312322251397,-6.46499988339823,-70.60378045750566,-14.672516160886575,11.003875572056184,95.18174569949903,101.43072671730681,117.52442952432054,122.79944725017768,65.02,19.023834628906243,,13.9943971,66.3847211,20190516,110144,2019-05-16T11:01:44Z,85.851,0.74,1.56,9.57,9,7,16,-6.27,10.07,-0.2,0,0,-8469,0,5,5,13.99258129769437,66.38513701069661,50,1238451,114,97,146,3364,3477,4347,4351,-17,17373,23,3460,3,0,false,false,false,false,false,false,false,false,false,false,3389,5487,2739,4536,58,75,75,58,1368,1575,1294,1430,1373,1584,1271,1416,0.0,0.0,0.0,0.0,1647.8,1642.3,1642.3,1647.8,3.92,4.83,2.82,3.98,0,0,0,0,169.35225750057077,13.994426152428677,66.38471269992463,0,-94.56645,-91.42905,-0.02406517,-0.15314853,-1.3165218,1.325618,-9.557036,3.6909437,-126.57373,126.98767,343,-904,1123,1481.0,-4.884336,7.964591,-0.13823946,9.344012,9.342989377093836,3.4393656043786063,-35.06049018232527,-0.007132039628596769,33.86971540841794,33.86971540841796,14.397609811920418,-63.91658958264998,-9.302632919086061,15.46830140672578,94.75777200340471,7464211.3674962465,114.05943052791791,119.33444825377505,65.01,NONE,0.0,0.0,0.0,NONE,4.893136116978897E-7,-1.2151610003545572E-7,-3.8146973E-4,2,34.27,53.63,26.11,39.23,16.528,16.528,5.912,8.492328,1397,3296,4.081,12.0,9.951,96,25.9,OK,63,0,0,0,0,0,65,100,0.0,0,-2.2303184E7,-4.5456547E-35,-240886.98,-7812767.5,-7.4923607E30,63,0.024143696,-3.5109596E-7,1.735229E-20,False,False,0,None,-1.5737529E-27,3.3584926E-15,
