Tick#,offsetTime,IMU_ATTI(0):Longitude,IMU_ATTI(0):Latitude,IMU_ATTI(0):numSats,IMU_ATTI(0):barometer:Raw,IMU_ATTI(0):barometer:Smooth,IMU_ATTI(0):accel:X,IMU_ATTI(0):accel:Y,IMU_ATTI(0):accel:Z,IMU_ATTI(0):accel:Composite,IMU_ATTI(0):gyro:X,IMU_ATTI(0):gyro:Y,IMU_ATTI(0):gyro:Z,IMU_ATTI(0):gyro:Composite,IMU_ATTI(0):mag:X,IMU_ATTI(0):mag:Y,IMU_ATTI(0):mag:Z,IMU_ATTI(0):mag:Mod,IMU_ATTI(0):velN,IMU_ATTI(0):velE,IMU_ATTI(0):velD,IMU_ATTI(0):velComposite,IMU_ATTI(0):velH,IMU_ATTI(0):GPS-H,IMU_ATTI(0):roll,IMU_ATTI(0):pitch,IMU_ATTI(0):yaw,IMU_ATTI(0):yaw360,IMU_ATTI(0):totalGyro:Z,IMU_ATTI(0):totalGyro:X,IMU_ATTI(0):totalGyro:Y,IMU_ATTI(0):magYaw,IMU_ATTI(0):distanceHP,IMU_ATTI(0):distanceTravelled,IMU_ATTI(0):directionOfTravel[mag],IMU_ATTI(0):directionOfTravel[true],IMU_ATTI(0):temperature,General:relativeHeight,General:absoluteHeight,GPS(0):Long,GPS(0):Lat,GPS(0):Date,GPS(0):Time,GPS:dateTimeStamp,GPS(0):heightMSL,GPS(0):hDOP,GPS(0):pDOP,GPS(0):sAcc,GPS(0):numGPS,GPS(0):numGLNAS,GPS(0):numSV,GPS(0):velN,GPS(0):velE,GPS(0):velD,RC:Aileron,RC:Elevator,RC:Rudder,RC:Throttle,Controller:navHealth,Controller:ctrl_level,HP:Longitude,HP:Latitude,HP:rthHeight,BatBlackBox:tick,BatBlackBox:id,BatBlackBox:rsoc,BatBlackBox:index,BatBlackBox:rm,BatBlackBox:fcc,BatBlackBox:cell_min,BatBlackBox:cell_max,BatBlackBox:current,BatBlackBox:voltage,BatBlackBox:temp,BatBlackBox:flag,BatBlackBox:reserve,BatBlackBox:user_data,OA:avoidObst,OA:emergBrake,OA:radiusLimit,OA:airportLimit,OA:groundForceLanding,OA:horizNearBoundary,OA:vertLowLimit,OA:vertAirportLimit,OA:roofLimit,OA:hitGroundLimit,Motor:Speed:RFront,Motor:Speed:LFront,Motor:Speed:LBack,Motor:Speed:RBack,Motor:EscTemp:RFront,Motor:EscTemp:LFront,Motor:EscTemp:LBack,Motor:EscTemp:RBack,Motor:PPMrecv:RFront,Motor:PPMrecv:LFront,Motor:PPMrecv:LBack,Motor:PPMrecv:RBack,Motor:PPMsend:RFront,Motor:PPMsend:LFront,Motor:PPMsend:LBack,Motor:PPMsend:RBack,Motor:V_out:RFront,Motor:V_out:LFront,Motor:V_out:LBack,Motor:V_out:RBack,Motor:Volts:RFront,Motor:Volts:LFront,Motor:Volts:LBack,Motor:Volts:RBack,Motor:Current:RFront,Motor:Current:LFront,Motor:Current:LBack,Motor:Current:RBack,Motor:Status:RFront,Motor:Status:LFront,Motor:Status:LBack,Motor:Status:RBack,Motor:thrustAngle,IMU_ATTI(1):Longitude,IMU_ATTI(1):Latitude,IMU_ATTI(1):numSats,IMU_ATTI(1):barometer:Raw,IMU_ATTI(1):barometer:Smooth,IMU_ATTI(1):accel:X,IMU_ATTI(1):accel:Y,IMU_ATTI(1):accel:Z,IMU_ATTI(1):accel:Composite,IMU_ATTI(1):gyro:X,IMU_ATTI(1):gyro:Y,IMU_ATTI(1):gyro:Z,IMU_ATTI(1):gyro:Composite,IMU_ATTI(1):mag:X,IMU_ATTI(1):mag:Y,IMU_ATTI(1):mag:Z,IMU_ATTI(1):mag:Mod,IMU_ATTI(1):velN,IMU_ATTI(1):velE,IMU_ATTI(1):velD,IMU_ATTI(1):velComposite,IMU_ATTI(1):velH,IMU_ATTI(1):GPS-H,IMU_ATTI(1):roll,IMU_ATTI(1):pitch,IMU_ATTI(1):yaw,IMU_ATTI(1):yaw360,IMU_ATTI(1):totalGyro:Z,IMU_ATTI(1):totalGyro:X,IMU_ATTI(1):totalGyro:Y,IMU_ATTI(1):magYaw,IMU_ATTI(1):distanceHP,IMU_ATTI(1):distanceTravelled,IMU_ATTI(1):directionOfTravel[mag],IMU_ATTI(1):directionOfTravel[true],IMU_ATTI(1):temperature,IMUEX(0):err,IMUEX(0):rtk_Longitude,IMUEX(0):rtk_Latitude,IMUEX(0):rtk_Alti,IMUEX(1):err,IMUEX(1):rtk_Longitude,IMUEX(1):rtk_Latitude,IMUEX(1):rtk_Alti,MotorCtrl:Status,MotorCtrl:PWM:RFront,MotorCtrl:PWM:LFront,MotorCtrl:PWM:LBack,MotorCtrl:PWM:RBack,BattInfo:Voltage,BattInfo:BatVoltage,BattInfo:AdVoltage,BattInfo:AvgCurrent,BattInfo:R_time,BattInfo:R_CAP_MAH,BattInfo:LowCellVoltage,BattInfo:LowCellVolThreshold,BattInfo:BatCurrent,BattInfo:Remaining%,BattInfo:Temp,BattInfo:status,battery_info:BatDynCnt,battery_info:Vol1Protect,battery_info:Vol2Protect,battery_info:Cap1Protect,battery_info:Cap2Protect,battery_info:Batpresent,battery_info:sopPercentage,battery_info:sopValue,battery_info:sopScale,battery_info:sopFlg,BattInfo:WindHeading:WindDir,battery_info:home_dir,BattInfo:Wind:rangeMin,BattInfo:Wind:rangeMax,battery_info:cap_speed,battery_info:against_wind,battery_info:emergency_land_cap,battery_info:intel_bat_land_cap,battery_info:intel_bat_gh_cap,BattInfo:Smart:SmartGh,BattInfo:Smart:SmartLand,BattInfo:GoHome:CntDown,BattInfo:GoHome:GhCmd,BattInfo:GoHome:CapLevel,BattInfo:GoHome:LandCapLv,Attribute|Value,ConvertDatV3,3.6.6-Tablet
1310261695,.000,13.993113228789378,66.38572731407396,16,26.314863,26.480997,0.07392962,-0.009425275,-0.98405224,0.9868704,0.33944705,0.028010346,-0.067636006,0.34725136,-340,-366,1473,1555.0,0.016404655,-0.02218923,-3.7571738E-4,0.027597386,0.02759482921002505,-0.02759482921002505,0.5356747346080752,4.297655148350514,176.27411119637276,176.27411119637281,136.83172606289892,99.86255007277738,-46.97145851894817,121.08214659198664,2.6253633623192347,30.97603418382908,40.35251248855609,45.627918533077676,64.97,-1.5324097950439466,,13.9931133,66.3857269,20190520,152302,2019-05-20T15:23:02Z,77.232,0.66,1.26,8.63,7,9,16,-0.01,0.01,0.02,-9991,-9984,9960,-9992,5,5,13.99314740389519,66.38574655060496,50,2187252,20,100,193,3553,3569,4329,4340,-1390,17230,22,2,16698,0,false,false,false,false,false,false,false,false,false,false,0,0,0,0,53,67,67,53,944,946,945,944,940,940,940,940,0.0,0.0,0.0,0.0,1708.5,1703.0,1703.6,1707.9,0.0,0.0,0.0,0.0,0,0,0,0,-45.0,13.993112313953784,66.38572638187003,0,26.589664,26.614708,0.07402117,-0.009591595,-0.98493093,0.98775506,0.23420575,-0.09689581,-0.05903574,0.26024285,-340,-363,1476,1557.0,9.5997617E-4,8.1556995E-4,-2.9654725E-4,0.0012940823,0.0012596462001050965,-0.0012596462001050965,0.5010980421013698,4.289378679716669,161.15355985098307,161.15355985098313,137.05274115603186,105.2633423085444,-52.18764072962478,121.33848681913105,2.7335762129097274,7464211.245504394,102.48519685444283,107.76060289896442,64.96,NONE,0.0,0.0,0.0,NONE,2.405986820808684E-11,0.0,-1.9073486E-6,,,,,,17.187,17.187,6.138,1.3838515,0,3431,4.293,12.0,1.389,97,26.6,OK,327,0,0,0,0,0,65,100,0.0,0,0.0,3.9476548E-22,8.8E-44,0.0,-1.05007105E-23,62,1.6391368E-8,-1.6391487E-8,2.959719E-33,False,False,0,None,1.11472044E33,1.0842106E-19,Firmware Date| Oct 17 2018
1314115268,1.002,13.993113561238532,66.38572708025546,15,26.3685,26.488344,0.07929707,0.0012272205,-0.9777636,0.9809746,0.20069166,-0.3148551,0.23290358,0.44006243,-345,-366,1476,1559.0,0.018075908,-0.020584857,0.0031039966,0.027570086,0.02739479418067725,0.002480290917124508,0.5328920136026511,4.296544651257678,176.29107854000645,176.29107854000642,136.78747123182052,100.30342571407861,-47.33785898642053,121.61205254611991,2.63809996541588,31.021464462649487,-140.02084298807316,-134.74543694355157,65.03,-0.289797244140626,,13.9931136,66.3857267,20190520,152303,2019-05-20T15:23:03Z,77.176,0.68,1.3,8.64,7,8,15,-0.01,0.01,0.0,0,0,0,0,5,5,13.99314740389519,66.38574655060496,50,2187252,20,100,193,3553,3569,4329,4340,-1390,17230,22,2,16698,0,false,false,false,false,false,false,false,false,false,false,545,569,538,548,56,73,71,56,1320,1332,1327,1324,1312,1312,1312,1312,0.1,0.1,0.1,0.1,1677.9,1673.5,1673.5,1677.9,7.8,7.26,7.88,7.45,0,0,0,0,153.43494882292202,13.993112517338473,66.38572615122857,0,26.3685,26.61298,0.07377751,-0.0171019,-0.98230904,0.9852242,0.091749035,0.11982289,0.25046957,0.29242164,-351,-369,1488,1572.0,-2.7403102E-4,8.23725E-4,0.006324551,0.0063838516,8.681105305462527E-4,0.02628960101062791,0.5229761730094118,4.277569423488383,161.15196696427952,161.1519669642795,137.15826274424376,105.57954935958105,-52.11338061764815,122.02548168411413,2.749525654406613,7464211.301764887,136.70139147736958,141.97679752189117,65.01,NONE,0.0,0.0,0.0,NONE,2.405986801718267E-11,-8.566966398931303E-12,1.5258789E-5,1,22.5,22.5,22.5,22.5,17.136,17.136,6.028,1.4309942,0,3431,4.293,12.0,3.654,97,26.6,OK,328,0,0,0,0,0,65,100,0.0,0,0.0,2.2578234E-23,8.8E-44,0.0,-1.05007105E-23,62,1.6391368E-8,-1.6391487E-8,3.2808764E-33,False,False,0,None,1.2819117E33,1.0842106E-19,ACType|MavicEnterprise
1317976082,2.005,13.993113895425333,66.38572675707285,16,26.3685,26.483246,0.07317567,-0.010445849,-0.9850388,0.9878083,-1.0983967,0.959219,2.1634598,2.6090486,-343,-363,1479,1561.0,0.01895097,-0.01877723,0.0069386293,0.027565708,0.026678150169013936,0.01208690781681793,0.5856113896862624,4.255994795508841,176.3139546161328,176.31395461613283,137.22564034483779,99.80693829539437,-47.74727123353658,121.59641252034743,2.659287791030902,31.067173585265266,124.25576333430283,129.53116937882442,65.03,-0.289797244140626,,13.9931138,66.3857266,20190520,152304,2019-05-20T15:23:04Z,77.097,0.66,1.26,8.63,7,9,16,0.0,0.0,0.01,0,0,0,0,5,5,13.99314740389519,66.38574655060496,50,2187252,20,100,193,3553,3569,4329,4340,-1390,17230,22,2,16698,0,false,false,false,false,false,false,false,false,false,false,2068,2037,2135,2153,57,72,71,57,1206,1207,1211,1210,1200,1200,1207,1207,0.0,0.0,0.0,0.0,1702.4,1697.5,1697.5,1701.7,0.6,0.28,0.84,0.26,0,0,0,0,-14.989862359681808,13.99311289530304,66.3857259936232,0,26.445152,26.61313,0.07336372,-0.010502747,-0.9845446,0.98733,0.90243214,0.4386969,0.949031,1.3811222,-343,-366,1479,1561.0,0.001461413,0.0029046447,0.004458498,0.005518233,0.0032515672316125385,0.020967166761162663,0.550173591538413,4.260284274626435,161.1986541758316,161.19865417583162,140.6443382236629,105.87151543341987,-51.566323288640135,121.44185911160803,2.754571478742955,7464211.393750621,-13.44944514571165,-8.17403910119006,64.98,NONE,0.0,0.0,0.0,NONE,1.9782557971446174E-10,1.7133932801305797E-11,1.7166138E-5,2,10.08,10.0,10.69,10.59,16.965,16.965,6.105,1.6007687,0,3430,4.293,12.0,3.975,97,26.6,OK,329,0,0,0,0,0,65,100,0.0,0,0.0,1.577564E-25,8.8E-44,0.0,-1.05007105E-23,62,1.6391368E-8,-1.6391487E-8,3.4626548E-33,False,False,0,None,1.4029723E33,1.0842106E-19,dateTime|2015-10-19 15:17:35 GMT
1321900145,3.025,13.993113480651846,66.3857270289318,16,26.3685,26.481216,0.07643681,-0.011433453,-0.9821835,0.98521966,0.81886995,0.31948477,0.020969402,0.8792373,-340,-359,1479,1559.0,0.020523155,-0.01881084,0.0010952342,0.027861211,0.027839676325661113,0.006898775254291282,0.5953779997725366,4.253221214158702,176.28661920307025,176.28661920307025,137.28240920093478,99.97909569740052,-47.87574646697972,121.52841413316723,2.644834542839142,31.120479323015957,-92.21882868939512,-86.94342264487354,64.97,-0.289797244140626,,13.9931135,66.3857267,20190520,152305,2019-05-20T15:23:05Z,77.028,0.66,1.26,8.62,7,9,16,-0.01,0.0,0.0,0,0,0,0,5,5,13.99314740389519,66.38574655060496,50,2187252,20,100,193,3553,3569,4329,4340,-1390,17230,22,2,16698,0,false,false,false,false,false,false,false,false,false,false,2077,2048,2135,2148,56,72,72,56,1205,1208,1215,1212,1201,1200,1203,1204,0.0,0.0,0.0,0.0,1701.7,1697.5,1696.2,1701.7,0.65,0.3,0.87,0.29,0,0,0,0,-14.886266849017545,13.993112478848294,66.38572618919629,0,26.3685,26.626396,0.07482349,-0.010834646,-0.98054916,0.9834595,0.3776177,0.8032756,1.0705708,1.390672,-340,-363,1479,1560.0,4.6398456E-4,1.671064E-4,-0.005133741,0.005157374,4.931594225553377E-4,0.02753408288627105,0.5775251948805101,4.258146852166247,161.1714610523999,161.17146105239988,140.81245499951123,106.21966290143185,-51.823794016417835,121.27368111287119,2.7470142923193834,7464211.43058441,-27.1171519668977,-21.84174592237611,64.95,NONE,0.0,0.0,0.0,NONE,6.415964763945903E-11,8.566966383357539E-12,-9.536743E-6,2,10.18,10.0,10.34,10.64,17.086,17.086,6.108,1.8543931,0,3429,4.226,12.0,2.006,97,26.6,OK,330,0,0,0,0,0,65,100,0.0,0,0.0,4.6004853E-24,8.8E-44,0.0,-1.05007105E-23,62,1.6391368E-8,-1.6391487E-8,3.34172E-33,False,False,0,None,1.3116618E33,1.0842106E-19,geoDeclination|528 degrees
1325836777,4.048,13.99311302985027,66.3857271552958,16,26.3685,26.477472,0.073019534,-0.0137804635,-0.9823449,0.9851514,1.7510629,-0.08189637,2.1811967,2.7983115,-331,-359,1476,1554.0,0.021252234,-0.01860928,0.0014171402,0.028283758,0.028248233779447678,-0.004294230785188376,0.584012666972685,4.2484207888137,176.30442466387845,176.30442466387842,137.25652374877075,100.57738173143034,-48.25794248997619,120.58017987891657,2.644887563272367,31.159057138790157,-101.59947201073896,-96.32406596621738,64.98,-0.289797244140626,,13.9931132,66.3857267,20190520,152306,2019-05-20T15:23:06Z,76.945,0.66,1.26,8.61,7,9,16,-0.01,-0.01,0.0,0,0,0,0,5,5,13.99314740389519,66.38574655060496,50,2187252,20,100,193,3553,3569,4329,4340,-1390,17230,22,2,16698,0,false,false,false,false,false,false,false,false,false,false,2069,2052,2137,2136,57,72,72,57,1204,1208,1212,1210,1200,1200,1205,1205,0.0,0.0,0.0,0.0,1703.0,1697.5,1696.2,1701.1,0.66,0.32,0.83,0.34,0,0,0,0,-6.009005957494537,13.993112118066364,66.38572615050867,0,26.3685,26.642906,0.07252172,-0.0148629565,-0.9825204,0.98530537,2.5752404,-0.34582412,2.7331827,3.7711728,-331,-359,1479,1557.0,-0.0016491096,-0.0031713226,-0.008598858,0.009312208,0.0035744719709969917,0.012685550731317887,0.5804341069391025,4.254073694120376,161.18414890977442,161.18414890977442,140.43618538875768,106.68685381466156,-51.98240355558226,120.54210534359947,2.7596815073210754,7464211.46855822,113.2769546241016,118.5523606686232,65.0,NONE,0.0,0.0,0.0,NONE,-3.608980191718272E-11,-3.426786545948359E-11,-1.9073486E-5,2,10.0,10.04,10.66,10.56,17.125,17.125,6.106,1.8543931,0,3429,4.267,12.0,2.006,97,26.6,OK,330,0,0,0,0,0,65,100,0.0,0,0.0,1.8655185E-22,8.8E-44,0.0,-1.05007105E-23,62,1.6391368E-8,-1.6391487E-8,3.3599636E-33,False,False,0,None,1.3254872E33,1.0842106E-19,geoInclination|7646 degrees
1329691974,5.050,13.993112741130991,66.38572709338398,16,26.3685,26.47384,0.07129555,-0.0056683794,-0.9898432,0.99242365,-1.9940679,-1.3849669,-0.9856618,2.6202993,-340,-359,1479,1559.0,0.023633637,-0.019517759,-0.002777478,0.030776713,0.03065112837366217,-0.016092597772580625,0.575518625732108,4.261550333636493,176.2936399143951,176.29363991439504,137.22423710095256,100.9160493390682,-48.243796759617595,121.53804935669434,2.657953606693785,31.179132953360984,,,65.0,-0.289797244140626,,13.993113,66.3857267,20190520,152307,2019-05-20T15:23:07Z,76.858,0.66,1.26,8.61,7,9,16,0.0,0.01,0.0,0,0,0,0,5,5,13.99314740389519,66.38574655060496,50,2187252,20,100,193,3553,3569,4329,4340,-1390,17230,22,2,16698,0,false,false,false,false,false,false,false,false,false,false,2055,2047,2161,2135,59,73,73,58,1207,1209,1210,1213,1200,1200,1206,1206,0.0,0.0,0.0,0.0,1699.9,1697.5,1697.5,1701.1,0.7,0.29,0.84,0.34,0,0,0,0,5.300926516525692,13.99311185060534,66.3857261271684,0,26.3685,26.65462,0.06943464,-0.0075014518,-0.9896713,0.9921324,-2.2008827,-1.8455572,-0.5689648,2.9280858,-340,-359,1482,1562.0,9.0966903E-4,-0.0023969144,-0.01286913,0.013122012,0.0025637271203763226,0.009605274948218622,0.5649195424440979,4.265693430412258,161.17229567221824,161.1722956722183,140.24680848470888,107.12052447123843,-52.04202116900049,121.51719598914686,2.768612190070207,7464211.500352031,95.4496909306897,100.72509697521129,65.0,NONE,0.0,0.0,0.0,NONE,-1.1762602057982982E-10,1.7133932689525155E-11,-2.861023E-5,2,10.29,10.0,10.98,11.38,17.121,17.121,6.11,2.2018933,0,3427,4.277,12.0,2.014,96,26.7,OK,332,0,0,0,0,0,65,100,0.0,0,0.0,4.0606813E-22,8.8E-44,0.0,-1.05007105E-23,62,1.6391368E-8,-1.6391487E-8,3.427672E-33,False,False,0,None,1.3765893E33,1.0842106E-19,geoIntensity|5257920 nanoTesla
1333547455,6.052,13.99311271703117,66.3857271097645,16,26.3685,26.471922,0.069713734,-0.013775526,-0.98799473,0.990547,0.8478641,1.3030765,3.1385064,3.5024428,-337,-356,1482,1560.0,0.027615696,-0.0147596,-0.0041067377,0.031580657,0.031312498166294576,-0.029202546180657332,0.5545891102748266,4.269200857721301,176.3152603478246,176.31526034782462,136.9668478016919,101.37639063821521,-48.281387211509966,121.39474572621288,2.6570952355399156,31.19615532619576,,,64.97,-0.289797244140626,,13.9931129,66.3857267,20190520,152308,2019-05-20T15:23:08Z,76.771,0.66,1.26,8.61,7,9,16,-0.01,0.0,0.01,0,0,0,0,5,5,13.99314740389519,66.38574655060496,50,2187252,20,100,193,3553,3569,4329,4340,-1390,17230,22,2,16698,0,false,false,false,false,false,false,false,false,false,false,2069,2046,2115,2152,58,74,73,57,1207,1209,1208,1207,1201,1200,1209,1210,0.0,0.0,0.0,0.0,1701.7,1695.0,1696.2,1702.4,0.7,0.31,0.85,0.3,0,0,0,0,-21.540975918538436,13.9931118530073,66.3857261182342,0,26.3685,26.666574,0.069668755,-0.011935864,-0.9892213,0.9917434,0.8160764,0.04592267,1.9339811,2.0996125,-337,-356,1482,1560.0,0.0054382375,-0.0030249252,-0.018315151,0.019343458,0.006222909288853856,-0.005225744638021187,0.563401823058697,4.278214849053646,161.1931268675704,161.1931268675704,139.98994314743098,107.33955756161572,-51.946088717495044,121.35299349760157,2.769365948187767,7464211.522880535,98.79523364441107,104.07063968893266,64.95,NONE,0.0,0.0,0.0,NONE,-1.6574575596561142E-10,9.423662964615788E-11,-4.5776367E-5,2,10.21,10.0,10.75,10.76,17.124,17.124,6.109,2.272102,0,3426,4.277,12.0,2.016,96,26.7,OK,333,0,0,0,0,0,65,100,0.0,0,0.0,3.597331E-22,8.8E-44,0.0,-1.05007105E-23,62,1.6391368E-8,-1.6391487E-8,3.4280483E-33,False,False,0,None,1.376827E33,1.0842106E-19,mcID(SN)|298DG13001W644
1337444701,7.065,13.993112712443786,66.38572692117603,16,26.3685,26.465338,0.075390406,-0.008594916,-0.9810485,0.98397857,0.7462783,-0.24670058,-0.5018189,0.9325313,-340,-363,1473,1554.0,0.0282748,-0.0011730825,-5.61824E-4,0.028304702,0.028299125400158404,-0.007594655713308713,0.5277332776787895,4.233828262491278,176.28204792099234,176.28204792099234,137.1596794292394,101.8509027282868,-48.25448749557293,121.4806611059694,2.6743016468304877,31.22806151455456,167.2288408544218,172.5042468989434,65.0,-0.289797244140626,,13.9931129,66.3857266,20190520,152309,2019-05-20T15:23:09Z,76.68,0.66,1.26,8.61,7,9,16,-0.01,0.01,0.01,0,0,0,0,5,5,13.99314740389519,66.38574655060496,50,2187252,20,100,193,3553,3569,4329,4340,-1390,17230,22,2,16698,0,false,false,false,false,false,false,false,false,false,false,2082,2036,2139,2145,57,73,73,56,1207,1209,1210,1210,1200,1200,1208,1208,0.0,0.0,0.0,0.0,1701.7,1695.6,1697.5,1700.5,0.65,0.32,0.86,0.31,0,0,0,0,-17.393322146912055,13.993111800464918,66.38572597176339,0,26.3685,26.672588,0.07042552,-0.015067696,-0.98613614,0.9887625,-1.4471984,1.2101804,2.282059,2.9608636,-345,-359,1479,1560.0,0.0064918087,-7.608292E-4,-0.017492821,0.01867408,0.00653624054117007,0.009708679217492088,0.5544121180232465,4.264037965755952,161.17965669078816,161.1796566907882,139.9945603677723,107.7935495090178,-52.077225915760565,122.11911797293527,2.7840755999150804,7464211.554574213,13.481995601471448,18.75740164599304,65.0,NONE,0.0,0.0,0.0,NONE,-8.019955867639049E-11,1.5848887690098144E-10,-4.5776367E-5,2,10.29,10.0,10.54,10.7,17.124,17.124,6.107,2.296396,0,3426,4.277,12.0,2.01,96,26.7,OK,334,0,0,0,0,0,65,100,0.0,0,0.0,1.2971872E-22,8.8E-44,0.0,-1.05007105E-23,62,1.6391368E-8,-1.6391487E-8,3.548889E-33,False,False,0,None,1.4680979E33,1.0842106E-19,mcVer|v3.4.1.6
1341342765,8.078,13.993113119309646,66.38572680668665,16,26.3685,26.458914,0.063636005,-0.017417429,-0.98726195,0.98946404,-0.02213515,-1.0352293,-3.8768573,4.0127563,-340,-359,1479,1559.0,0.029159388,0.010448433,2.015531E-4,0.030975478,0.03097482220444124,-0.009113715780179839,0.5902491769720254,4.156900889520754,176.44311114030535,176.4431111403053,136.6680416177289,101.62194449408251,-48.14126508427971,121.81605776577268,2.6743123387275256,31.26423098468755,174.6450595960839,179.9204656406055,65.0,-0.289797244140626,,13.9931131,66.3857265,20190520,152310,2019-05-20T15:23:10Z,76.573,0.66,1.26,8.6,7,9,16,-0.01,0.01,0.0,0,0,0,10000,5,5,13.99314740389519,66.38574655060496,50,2187252,20,100,193,3553,3569,4329,4340,-1390,17230,22,2,16698,0,false,false,false,false,false,false,false,false,false,false,4087,3902,3899,3989,55,72,72,55,1411,1407,1379,1391,1404,1405,1382,1403,0.0,0.0,0.0,0.0,1674.8,1671.1,1669.3,1674.1,3.83,3.28,3.38,2.86,0,0,0,0,-110.16690687556377,13.993112225058526,66.38572585145002,0,26.3685,26.671438,0.07025217,-0.0072872485,-0.98458844,0.9871185,4.015954,4.5447445,6.684727,9.025972,-334,-359,1476,1555.0,0.0054122754,3.731788E-4,-0.012002289,0.013171445,0.005425125533945717,0.01744133913807501,0.6369408760553412,4.235093732610483,161.24527893894262,161.24527893894265,140.33904272733938,108.07480046466362,-52.31473770499479,120.86903220997173,2.7843949352406,7464211.601401727,46.318223889757384,51.59362993427897,64.96,NONE,0.0,0.0,0.0,NONE,2.6064856453919344E-10,2.0989067486427325E-10,-3.2424927E-5,2,30.88,30.82,30.03,30.73,17.114,17.114,6.063,2.2892108,0,3425,4.278,12.0,2.016,96,26.7,OK,335,0,0,0,0,0,65,100,0.0,0,0.0,6.103688E-24,8.8E-44,0.0,-1.05007105E-23,62,1.6391368E-8,-1.6391487E-8,3.5505818E-33,False,False,0,None,1.4693655E33,1.0842106E-19,
1345206630,9.082,13.993115690344402,66.38572691271463,16,27.602362,27.26713,-0.0066310586,-0.047445018,-1.3995041,1.4003237,4.8814507,6.0830173,3.8541324,8.69977,-194,-282,1502,1540.0,0.020338176,0.1925536,-2.3550415,2.3629878,0.19362470936553303,-0.07898162036116742,3.0956041114665975,-1.218728603887863,177.54719683569786,177.54719683569783,137.1032183269977,102.20131653539384,-52.268499720893836,121.87394394669617,0.1862181678018669,31.394664324478658,67.48034138213676,72.75574742665835,64.97,0.9440646790771474,,13.9931153,66.3857266,20190520,152311,2019-05-20T15:23:11Z,76.875,0.66,1.26,8.61,7,9,16,-0.04,0.14,-0.52,0,0,0,10000,5,5,13.99311235435539,66.38572590332586,50,2187252,20,100,193,3553,3569,4329,4340,-1390,17230,22,2,16698,0,false,false,false,false,false,false,true,false,false,false,6822,7129,6040,5773,55,71,72,55,1678,1710,1593,1570,1670,1704,1587,1559,0.0,0.0,0.0,0.0,1617.1,1612.9,1612.2,1619.0,6.97,6.79,5.58,4.57,0,0,0,0,164.9718839899774,13.993114834156936,66.38572593130779,0,27.139982,27.407993,-0.008582398,-0.057139806,-1.3707103,1.3719275,6.103729,-6.9665146,-5.89455,10.978777,-208,-301,1494,1538.0,0.08736977,0.16972315,-2.1972735,2.20555,0.19089113715231834,-0.07482511254057744,2.8505518343084035,-1.1401591505955957,162.42836011307782,162.42836011307782,143.09722555076178,113.9241323281662,-56.829369221044054,122.33644749040451,0.11049954445050265,7464211.754528182,111.26821718495871,116.5436232294803,65.0,NONE,0.0,0.0,0.0,NONE,9.935387916153332E-9,2.5915071037077885E-9,-0.00440979,2,69.06,72.09,56.01,53.23,17.093,17.093,5.839,2.2892108,0,3425,4.278,12.0,2.016,96,26.7,OK,335,0,0,0,0,0,65,100,0.0,0,0.0,-1.93055949E9,2.68E-43,0.0,-1.05007105E-23,62,4.3080945E-8,-2.6416393E-8,3.5451633E-35,False,False,0,None,3.6782293E29,1.7378487E-19,
1349058728,10.083,13.993120011787745,66.38572822886867,16,31.771921,30.868786,0.008667974,-0.045099504,-0.99518245,0.99624157,-12.684686,2.7125087,-33.10381,35.55448,-228,-285,1499,1542.0,-0.0073253866,0.028334871,-3.9586713,3.9587796,0.029266468799685422,0.21226160782614303,2.7693611288062816,0.41519214406239446,173.57436165483634,173.57436165483637,133.13643619026146,102.87319306613699,-49.76876993847809,121.31506104589094,0.42802179324259687,31.67130283233472,30.603328338602232,35.87873438312382,64.93,5.113624157836913,,13.9931187,66.3857274,20190520,152312,2019-05-20T15:23:12Z,79.831,0.66,1.31,8.66,8,8,16,-0.08,0.07,-2.46,0,0,-3219,10000,5,5,13.99311235435539,66.38572590332586,50,2187252,20,100,193,3553,3569,4329,4340,-1390,17230,22,2,16698,0,false,false,false,false,false,false,true,false,false,false,6209,6706,5371,5616,56,71,70,56,1607,1639,1528,1528,1609,1620,1534,1490,0.0,0.0,0.0,0.0,1638.0,1633.1,1634.3,1637.3,5.36,5.32,4.16,3.59,0,0,0,0,172.55334703242102,13.993118354048669,66.38572705790861,0,31.484156,31.001713,0.010521159,-0.046263237,-0.98066264,0.9818097,3.1862056,6.69948,-19.298979,20.675724,-228,-276,1497,1539.0,-7.396161E-4,0.029064428,-4.0563984,4.056503,0.029073837774026275,0.17138147491082065,2.8657703201938873,0.1947080968563389,160.39397365274516,160.39397365274522,139.71849630935114,113.43803884616264,-54.6899425192105,122.46184985943546,0.2964780612516671,7464211.984316959,-59.81475582571135,-54.53934978118976,65.0,NONE,0.0,0.0,0.0,NONE,1.5024040347321661E-9,-2.5700880112384217E-10,-0.010152817,2,60.35,63.19,50.98,46.58,16.518,16.518,5.882,2.4215336,0,3423,4.261,12.0,9.933,96,26.7,OK,336,0,0,0,0,0,65,100,0.0,0,0.0,6.1251406E-38,2.69E-43,0.0,1.4206529E23,63,1.8847059E-6,-1.8335872E-7,1.2413591E-34,False,False,0,None,3.5904903E30,9.375663E-19,
1352920058,11.087,13.993119337789519,66.3857289216869,17,35.88602,34.912575,-0.017966993,-0.08709198,-0.9728308,0.97688663,1.6351509,-7.059526,-12.822558,14.728497,-231,133,1517,1540.0,0.049884457,0.0044121174,-3.9054325,3.9057536,0.050079194602761605,0.03230975246704453,4.374264869000533,-1.1259836577749178,-129.74728714437927,230.25271285562073,193.53467569789845,103.44366559092084,-50.40450556383709,-176.29147822623227,0.45760432799362677,31.823047730887374,6.123295914898261,11.398701959419851,64.97,9.22772366040039,,13.993119,66.3857285,20190520,152313,2019-05-20T15:23:13Z,83.642,0.63,1.24,8.68,8,9,17,0.0,-0.07,-3.5,0,0,-4093,10000,5,5,13.99311235435539,66.38572590332586,50,2187252,20,100,193,3553,3569,4329,4340,-1390,17230,22,2,16698,0,false,false,false,false,false,false,true,false,false,false,5579,7001,4960,6305,55,71,72,55,1562,1699,1447,1613,1560,1672,1443,1601,0.0,0.0,0.0,0.0,1631.8,1626.4,1625.7,1631.2,4.64,6.51,3.33,4.93,0,0,0,0,176.64886452687335,13.993118896177243,66.3857283587259,0,35.875088,35.488873,-0.025887594,-0.07947339,-0.9906363,0.9941562,-15.771772,-0.05749888,-29.71411,33.640457,-231,127,1514,1536.0,0.044090528,0.0072636832,-3.9730756,3.973327,0.044684849886408654,0.10144359398431517,4.152685527577255,-1.1177129692188381,-145.68881903641335,214.31118096358665,185.70928307559913,119.38439066857367,-52.728239853963764,-176.26075965449996,0.3993126921392802,7464212.2480608225,-5.276650861594932,-0.001244817073342197,64.94,NONE,0.0,0.0,0.0,NONE,3.407140597478164E-9,-7.710260071947822E-11,-0.010066986,2,53.46,68.69,44.31,58.69,16.512,16.512,5.844,2.9811673,0,3420,4.111,12.0,11.444,96,26.8,OK,337,0,0,0,0,0,65,100,0.0,0,0.0,2.8765813E-27,2.69E-43,0.0,1.4206529E23,63,1.3625994E-4,-1.533634E-6,3.8222528E-34,False,False,0,None,2.9509396E31,6.3559504E-18,
1356805798,12.097,13.993120341183989,66.38573121839384,17,39.457035,38.906788,-0.035638724,-0.031282645,-0.9909602,0.99209416,-1.9005197,4.574521,9.077921,10.341512,-182,121,1520,1535.0,0.04999542,-0.029065087,-3.9663584,3.96678,0.05783010598108281,0.19889526022602574,1.550856937848786,-1.6693870108219337,-116.06922607537744,243.93077392462254,208.9437343223882,100.78400885125998,-51.44603230543046,-160.57044088977645,0.6898185612876815,32.08866453774666,-4.976937928241954,0.29846811627963615,64.98,12.798738064697265,,13.9931185,66.3857311,20190520,152314,2019-05-20T15:23:14Z,87.98,0.63,1.24,8.59,8,9,17,0.16,-0.1,-3.82,0,0,240,10000,5,5,13.99311235435539,66.38572590332586,50,2187252,20,100,193,3553,3569,4329,4340,-1390,17230,22,2,16698,0,false,false,false,false,false,false,false,false,false,false,6004,6403,5489,5704,56,71,70,55,1581,1625,1530,1535,1572,1606,1522,1535,0.0,0.0,0.0,0.0,1636.1,1630.6,1630.0,1634.9,5.16,4.86,4.34,3.58,0,0,0,0,171.38155567218902,13.993118103043065,66.38573100610309,0,39.71851,39.51141,-0.036701363,-0.035128217,-0.99351996,0.99481803,-16.55939,3.2723997,-7.4119925,18.435282,-179,121,1520,1535.0,0.063766025,-0.056315675,-4.0212903,4.02219,0.08507385642532715,0.2085108233133156,1.5475666157365962,-1.6761043604609311,-131.11086070262576,228.88913929737424,201.34021747257856,119.06546076482745,-51.4654724907571,-160.32397087824117,0.6225048524006835,7464212.58249968,-8.677677437111992,-3.402271392590401,64.97,NONE,0.0,0.0,0.0,NONE,-3.14515368861798E-9,1.3021762716087557E-9,-0.010051727,2,57.06,60.92,50.05,51.77,16.481,16.481,5.865,3.9667568,0,3417,4.118,12.0,10.307,96,26.8,OK,338,0,0,0,0,0,65,100,0.0,0,0.0,1.0488499E-11,2.69E-43,0.0,1.4206529E23,63,0.009091616,-1.2450214E-5,1.46928005E-33,False,False,0,None,3.0840057E32,4.2788084E-17,
1360794790,13.133,13.993099498700024,66.38572923960152,17,43.81101,42.83677,-0.05432196,-8.7390374E-4,-1.149802,1.1510848,10.98766,-1.4175284,-9.317308,14.475852,865,192,1274,1551.0,-1.2403371,-3.3026283,-3.8523686,5.2236514,3.5278590302275687,-2.607565589147864,-2.2297916510522113,-34.52405190943079,-76.03768575814252,283.9623142418575,246.4587916166911,115.50223011541979,-86.98736546328871,-91.09117031833867,0.6822873572130925,33.15916491491523,-113.54817367844373,-108.27276763392214,64.94,17.15271145336914,,13.9931028,66.3857291,20190520,152315,2019-05-20T15:23:15Z,91.555,0.63,1.24,8.58,8,9,17,-1.13,-2.18,-3.83,0,10000,0,10000,5,5,13.99311235435539,66.38572590332586,50,2187252,20,100,193,3553,3569,4329,4340,-1390,17230,22,2,16698,0,false,false,false,false,false,false,false,false,false,false,7102,7258,6523,6631,55,73,72,56,1712,1724,1630,1641,1703,1703,1633,1638,0.0,0.0,0.0,0.0,1603.0,1598.7,1597.5,1603.0,7.39,6.48,5.59,4.42,0,0,0,0,177.72077397857328,13.993097168183905,66.3857289020024,0,44.34235,43.49926,-0.0683095,0.011042167,-1.1669419,1.1689917,15.042457,4.2837768,2.4429872,15.830174,865,201,1268,1548.0,-1.1019604,-3.363059,-3.9455585,5.3001804,3.538994592684592,-2.611659954920512,-1.2735448758047339,-33.96467421147976,-89.81453926715278,270.1854607328472,233.44742139240276,133.99450707720715,-91.79749538794755,-87.08235914586254,0.7541427661048956,7464213.680433463,-112.46316366451879,-107.1877576199972,64.95,NONE,0.0,0.0,0.0,NONE,-1.1806550646619843E-7,-2.303651473414438E-8,-0.00983429,2,72.03,71.83,66.15,66.91,16.467,16.467,5.753,5.127138,0,3414,4.11,12.0,10.113,96,26.9,OK,339,0,0,0,0,0,65,100,0.0,0,0.0,2.948358E-30,9.0E-44,0.0,1.4206529E23,63,0.58387756,-9.9724646E-5,4.204909E-33,False,False,0,None,1.9633927E33,2.734985E-16,
1364651370,14.136,13.992974720440206,66.38571687892178,17,50.042023,46.716965,-0.18783481,0.042748522,-1.0341172,1.0519067,2.7549381,-2.5183134,0.7937777,3.8159754,868,266,1233,1531.0,-1.3744807,-7.971063,-3.799931,8.936808,8.088698766148495,-2.3765616024768024,-0.2816003840101464,-34.14791903779081,-89.35473048222741,270.6452695177726,247.86595944936528,119.36133122324206,-86.0330834794828,-84.33859710130984,6.2120967236879965,38.90363105233596,-104.977651700287,-99.70224565576541,64.89,23.383725705078124,,13.9929807,66.3857172,20190520,152316,2019-05-20T15:23:16Z,95.047,0.63,1.24,8.57,8,9,17,-1.38,-7.37,-3.77,0,10000,0,10000,5,5,13.99311235435539,66.38572590332586,50,2187252,20,100,193,3553,3569,4329,4340,-1390,17230,22,2,16698,0,false,false,false,false,false,false,false,false,false,false,7637,7841,7522,7615,57,72,72,56,1745,1757,1728,1741,1739,1750,1724,1731,0.0,0.0,0.0,0.0,1578.5,1576.1,1574.2,1579.7,7.52,6.84,6.33,6.16,0,0,0,0,161.96924750183732,13.992969543110673,66.38571705272619,0,49.975998,47.399532,-0.1906532,0.039375566,-1.0276241,1.0459018,3.56524,-3.4228806,3.2591627,5.920235,868,266,1233,1531.0,-1.0464433,-8.334069,-3.8800182,9.252367,8.399509379273292,-2.5775533671342323,0.21718161402775613,-33.72145765238368,-87.63058139023795,272.3694186097621,237.74768258069395,138.22229780559906,-91.9680463915923,-81.9641224950771,6.436802215733736,7464219.530414239,-102.9817296795963,-97.70632363507471,64.91,NONE,0.0,0.0,0.0,NONE,-4.631882152176013E-7,-2.3760404087661675E-8,-0.009716034,2,78.85,78.71,75.61,77.33,16.264,16.264,5.685,6.3318305,0,3411,4.112,12.0,12.904,96,26.9,OK,340,0,0,0,0,0,65,100,0.0,0,0.0,-6.7189103E-7,8.8E-44,0.0,1.4206529E23,63,33.430664,-7.677564E-4,2.0037476E-29,False,False,0,None,-2.009332E-38,1.6563696E-15,
1368548629,15.149,13.99272491089789,66.38570825742794,17,55.69854,51.13684,-0.25491822,0.16160615,-1.0733011,1.1149328,9.002828,2.633975,1.2626464,9.464829,982,217,1159,1534.0,-0.16834974,-12.2485695,-3.9504964,12.870983,12.249725961539404,-1.2234610577546494,-1.2694958795682905,-34.97103768022152,-70.81427750395827,289.18572249604176,263.2624599936778,130.76599760559418,-87.46556118514953,-59.430148375512424,17.368762690672405,50.08258542632564,-96.08336957479457,-90.80796353027299,64.97,29.040242733886718,,13.9927609,66.3857089,20190520,152317,2019-05-20T15:23:17Z,98.514,0.63,1.24,8.57,8,9,17,-0.67,-11.4,-3.74,0,10000,0,10000,5,5,13.99311235435539,66.38572590332586,50,2187252,20,100,193,3553,3569,4329,4340,-1390,17230,22,2,16698,0,false,false,false,false,false,false,false,false,false,false,8135,8526,8082,8475,55,73,73,55,1788,1786,1770,1788,1778,1786,1760,1776,0.0,0.0,0.0,0.0,1557.6,1554.0,1552.7,1556.4,8.22,6.9,6.99,7.43,0,0,0,0,-178.89829388479362,13.992745143073305,66.38570839382093,0,55.82716,51.300083,-0.24210207,0.1460118,-1.0245528,1.0628458,10.894082,2.5336626,0.8746621,11.21898,988,192,1171,1544.0,-0.24260595,-12.049827,-3.9487834,12.682668,12.052268318904096,-2.138424893234502,-1.5294275471890588,-34.66010896950015,-71.40350212844827,288.5964978715517,251.57930485908454,148.00279167515032,-93.5318318453688,-56.11934235459519,16.471861430335263,7464229.58055711,-97.07581657384493,-91.80041052932334,64.99,NONE,0.0,0.0,0.0,NONE,-6.379579599433639E-7,-1.307314187550456E-8,-0.009864807,2,80.95,83.24,81.91,82.58,16.038,16.038,5.604,7.6441555,0,3407,4.045,12.0,16.279,96,26.9,OK,341,0,0,0,0,0,65,100,0.0,0,0.0,-2.248995E-4,8.8E-44,0.0,1.4206529E23,63,1956.7812,-0.0058807447,9.645714E-24,False,False,0,None,-2.494446E-33,1.0610491E-14,
1372473683,16.169,13.992456468911692,66.38571625754012,17,53.325996,55.454712,-0.24162367,0.0698536,-1.0204353,1.0509757,1.9345832,8.044721,0.7411637,8.307194,-617,426,1328,1525.0,0.9508581,-9.4213085,-4.462158,10.467857,9.46917018650505,2.2845721760145583,7.731697347421109,31.051685698087454,-71.96834460385507,288.0316553961449,259.9404908793062,136.35845005839434,-20.245682128243857,-53.56218267013417,29.234245289734286,62.08043025950606,-89.24542254916868,-83.97001650464709,64.95,26.66769939892578,,13.9924815,66.3857157,20190520,152318,2019-05-20T15:23:18Z,102.41,0.63,1.24,8.57,8,9,17,1.08,-11.6,-4.23,0,0,0,10000,5,5,13.99311235435539,66.38572590332586,50,2187252,20,100,193,3553,3569,4329,4340,-1390,17230,22,2,16698,0,false,false,false,false,false,false,false,false,false,false,2955,3684,3956,4305,57,72,72,58,1385,1449,1439,1442,1445,1472,1292,1374,0.0,0.0,0.0,0.0,1644.1,1637.3,1638.0,1642.9,2.04,3.36,6.72,4.18,0,0,0,0,13.185378603196227,13.9924720434184,66.38571549011004,0,52.731495,55.384357,-0.265574,0.083650656,-0.9198636,0.9610807,21.135138,-2.2607799,-2.323962,21.382374,-595,414,1337,1520.0,1.0988996,-10.119468,-4.5788665,11.161417,10.178958986786787,1.7708251866815399,7.980405363147504,29.186299902553035,-72.5710220326829,287.4289779673171,247.3785735209709,156.8945025919286,-36.34800545829519,-55.49280266090485,28.544335957801486,7464241.780298702,-89.05035404558848,-83.77494800106689,64.9,NONE,0.0,0.0,0.0,NONE,-5.754236598089602E-7,2.5203901789011644E-8,-0.011554718,2,38.82,37.67,11.7,29.62,15.934,15.934,5.931,9.180608,0,3402,3.993,12.0,19.71,96,27.0,OK,342,0,0,0,0,0,65,100,0.0,0,0.0,-252.76953,8.8E-44,0.0,1.4206529E23,63,148656.0,-0.050533544,1.5136439E-21,False,False,0,None,-2.340727E-31,7.285189E-14,
1376323334,17.169,13.992329299212214,66.3857229554801,16,58.256367,59.164722,-0.15215306,0.0381373,-1.2038237,1.2140002,-14.689809,-119.19516,4.178826,120.169624,-700,358,1316,1532.0,0.06960389,-1.2669163,-3.8760483,4.0784397,1.2688268027525667,4.4414460494110894,5.31426342164336,26.105101484157952,-71.64988727238237,288.3501127276176,257.7533600028114,131.84136282627216,-28.49649861713184,-99.06497806258092,34.88051363794951,67.79659819563578,-89.52699735710708,-84.25159131258549,64.84,31.598069729736327,,13.9923325,66.3857229,20190520,152319,2019-05-20T15:23:19Z,106.174,0.65,1.32,8.55,7,9,16,0.39,-3.27,-3.99,0,0,0,10000,5,5,13.99311235435539,66.38572590332586,50,2187252,20,100,193,3553,3569,4329,4340,-1390,17230,22,2,16698,0,false,false,false,false,false,false,false,false,false,false,5700,5106,6098,6035,56,72,72,56,1555,1505,1555,1571,1549,1521,1533,1547,0.0,0.0,0.0,0.0,1629.4,1623.2,1623.2,1628.8,4.57,3.27,4.01,4.56,0,0,0,0,-21.808853396861196,13.992330540716068,66.38572314257146,0,57.27723,58.897987,-0.11372532,0.051773425,-1.2731205,1.279238,-1.8747634,-101.73352,0.99648446,101.75567,-801,352,1265,1538.0,0.3034766,-1.7694541,-3.737397,4.1462274,1.7952899078195967,4.561504740369339,6.35633395057673,33.3011768146594,-73.1101793993943,286.88982060060573,247.86221836328193,156.05238075722366,-31.6999359107093,-78.62903569891802,34.82502708416715,7464248.141355765,-86.59977305573742,-81.32436701121583,64.82,NONE,0.0,0.0,0.0,NONE,-2.110413937704195E-7,1.2837535722118392E-8,-0.009361267,2,53.79,51.35,49.59,51.69,16.489,16.489,5.82,10.813673,0,3396,3.934,12.0,13.272,96,27.1,OK,343,0,0,0,0,0,65,100,0.0,0,0.0,-114146.0,8.8E-44,0.0,1.4206529E23,63,5690240.0,-0.30708513,1.2076129E-21,False,False,0,None,-1.8371867E-31,3.6870683E-13,
1380183869,18.172,13.99232971376649,66.38572189839685,17,63.493332,62.7825,-0.07074337,0.004694609,-1.0212765,1.0237345,-13.245969,-7.7509646,-11.9894085,19.475088,312,226,1505,1553.0,-0.19149008,0.38342547,-3.9976585,4.020567,0.42858318258811107,-0.3099949307482317,-1.4336574730686098,-6.060451057841662,-69.61766664850298,290.38233335149704,257.4845001581188,124.70492801815165,-60.9456870995308,-60.027962292743155,34.86335334887997,68.34887767629571,81.1939559544149,86.46936199893649,64.91,36.83503490917968,,13.9923308,66.3857225,20190520,152320,2019-05-20T15:23:20Z,109.647,0.63,1.24,8.51,8,9,17,-0.24,0.44,-3.79,0,0,0,10000,5,5,13.99311235435539,66.38572590332586,50,2187252,20,100,193,3553,3569,4329,4340,-1390,17230,22,2,16698,0,false,false,false,false,false,false,false,false,false,false,6137,6258,5832,5762,56,72,73,56,1601,1616,1574,1566,1600,1605,1550,1553,0.0,0.0,0.0,0.0,1619.6,1615.9,1615.9,1620.8,5.01,5.1,4.65,3.83,0,0,0,0,166.58816298747172,13.99233152406343,66.38572220197861,0,63.270382,63.16533,-0.0628078,0.003907768,-0.99681395,0.9987983,-10.827363,-10.290707,-12.2383995,19.310848,318,223,1502,1551.0,-0.068232246,0.34050176,-3.903172,3.91859,0.34727090202930605,-0.23425755259280723,-0.8357303451797323,-6.2254470309177234,-70.46639211443112,289.53360788556887,249.8045603810704,149.49198419989926,-73.20963525296366,-57.89981689465513,34.782309366395964,7464248.8374536345,123.13342458498613,128.40883062950772,64.93,NONE,0.0,0.0,0.0,NONE,1.8734508642726278E-8,-3.940782233292647E-10,-0.009685516,2,60.4,60.95,53.14,53.64,16.374,16.374,5.819,12.095301,0,3394,4.126,12.0,8.665,96,27.2,OK,344,0,0,0,0,0,65,100,0.0,0,0.0,-105190.0,8.8E-44,0.0,1.4206529E23,63,3.14851328E8,-2.2729652,4.2347293E-22,False,False,0,None,-7.816417E-32,2.2330057E-12,
1384108144,19.192,13.992336916625637,66.38572082123163,17,66.8888,66.44482,-0.067467555,0.009233396,-0.9682693,0.97066087,9.373164,4.958532,7.4413733,12.954432,341,254,1491,1550.0,-0.11433428,-0.021006979,-3.9209013,3.9226243,0.11624809680811322,0.2195291443188862,-0.025027135559650224,-6.0144202656999335,-69.52029798687735,290.4797020131226,257.94443541681073,126.63645741859493,-61.52306728333692,-54.311278334690876,34.54430131896829,68.72281739380043,75.53573364669616,80.81113969121775,65.1,40.23050457470703,,13.9923362,66.385721,20190520,152321,2019-05-20T15:23:21Z,113.214,0.63,1.24,8.48,8,9,17,-0.14,0.03,-3.78,0,0,0,10000,5,5,13.99311235435539,66.38572590332586,50,2187252,20,100,193,3553,3569,4329,4340,-1390,17230,22,2,16698,0,false,false,false,false,false,false,false,false,false,false,6137,6209,5814,5757,56,73,73,57,1606,1613,1557,1564,1597,1597,1554,1557,0.0,0.0,0.0,0.0,1619.6,1615.9,1615.9,1619.6,5.28,4.79,4.45,3.95,0,0,0,0,170.54966686472534,13.992336630109767,66.38572072056878,0,66.80349,67.10555,-0.068298675,0.0053690495,-0.97508806,0.9774918,3.9300063,6.7796507,1.1435914,7.9193697,344,254,1494,1553.0,0.005654534,-0.028083328,-3.998018,3.9981208,0.02864693791705424,0.24669502440882596,0.4679999049169564,-5.785477518438664,-70.41822957496005,289.58177042503996,251.39114046951826,153.48506227932907,-72.46957867634758,-51.62866616312956,34.55724657164301,7464249.14599038,178.2419015873051,-176.4826923681733,65.1,NONE,0.0,0.0,0.0,NONE,2.8230065513045435E-9,-4.41196055005363E-10,-0.009986877,2,59.3,60.53,55.31,54.08,16.362,16.362,5.815,12.766203,0,3392,4.096,12.0,10.257,95,27.2,OK,345,0,0,0,0,0,65,100,0.0,0,0.0,-33414.0,8.8E-44,0.0,1.4206529E23,63,1.8508415E10,-17.418585,1.5650923E-22,False,False,0,None,-3.012049E-32,1.3628488E-11,
1388059866,20.219,13.992335193308287,66.38572109955876,17,70.61749,70.107124,-0.072132885,0.013666133,-0.9399651,0.9428279,2.273691,-6.4182253,-7.437603,10.083711,309,229,1499,1547.0,0.016039234,-0.12300854,-3.781621,3.7836552,0.12404982218597012,-0.04346397862186634,-0.6999799685165732,-4.8738179987403285,-69.5714684071964,290.4285315928036,258.67939463029614,126.65489551289004,-58.297633153278426,-53.833300124679035,34.62055984184268,68.81626359792699,-54.739016414540984,-49.463610370019396,65.09,43.959195675781245,,13.9923348,66.3857215,20190520,152322,2019-05-20T15:23:22Z,116.775,0.63,1.24,8.45,8,9,17,0.09,-0.15,-3.79,0,0,0,10000,5,5,13.99311235435539,66.38572590332586,50,2187252,20,100,193,3553,3569,4329,4340,-1390,17230,22,2,16698,0,false,false,false,false,false,false,false,false,false,false,6127,6029,5700,5754,58,74,73,58,1617,1594,1530,1555,1605,1593,1534,1545,0.0,0.0,0.0,0.0,1619.6,1616.5,1615.9,1620.2,5.83,4.16,3.98,4.02,0,0,0,0,-167.78267337549244,13.992335396456525,66.38572124524364,0,70.682945,71.07378,-0.0815208,0.008113569,-0.9568822,0.9603827,-8.383357,-0.18458202,-10.25268,13.245082,312,229,1499,1548.0,0.10981347,-0.109197155,-3.9945245,3.9975252,0.1548645104927064,-0.07682960557812046,-0.24942827993118738,-4.7907451049895045,-70.44061327281074,289.55938672718923,251.99857063608198,153.2208362240034,-70.3671175242499,-51.73036761176472,34.61126594214436,7464249.255786346,-18.613849657922618,-13.338443613401028,65.11,NONE,0.0,0.0,0.0,NONE,-5.988191274440875E-9,2.745693787349673E-9,-0.010063171,2,58.52,60.39,54.66,52.97,16.356,16.356,5.818,12.962922,0,3389,4.077,12.0,10.256,95,27.3,OK,346,0,0,0,0,0,65,100,0.0,0,0.0,-43186.0,8.8E-44,0.0,2.99788717E15,64,2.72569362E12,-213.73149,4.4898186E-23,False,False,0,None,-1.0014836E-32,1.2597658E-10,
1391972947,21.236,13.992333417380356,66.3857223112644,17,74.70366,74.0465,-0.07585017,6.715581E-4,-0.9818879,0.98481345,-2.286833,-10.696452,-11.282112,15.713999,327,235,1499,1552.0,-0.07477037,-0.0719285,-3.632401,3.6338823,0.10375122932774346,0.04987862839379985,-0.157299998010522,-6.052528495935902,-69.52531750392897,290.474682496071,260.07707723299336,130.8557371448709,-61.178093791603985,-55.03841227270342,34.697840754087814,68.9830249059461,-98.45275037232184,-93.17734432780026,65.05,48.04536205761718,,13.9923328,66.3857223,20190520,152323,2019-05-20T15:23:23Z,120.208,0.63,1.24,8.41,8,9,17,0.02,-0.08,-3.71,0,2272,0,10000,5,5,13.99311235435539,66.38572590332586,50,2187252,20,100,193,3553,3569,4329,4340,-1390,17230,22,2,16698,0,false,false,false,false,false,false,false,false,false,false,5963,5950,5785,5825,58,73,72,57,1585,1590,1551,1551,1569,1585,1556,1550,0.0,0.0,0.0,0.0,1621.4,1618.4,1617.1,1622.0,5.13,4.07,4.23,3.9,0,0,0,0,-170.07834145831433,13.992333428394213,66.3857219590838,0,74.92118,75.01634,-0.08498207,0.0010250942,-0.96791095,0.97163504,14.361853,0.5384793,3.8845658,14.887668,312,223,1499,1547.0,0.017274844,-0.051639687,-3.9785426,3.9789152,0.0544525254235719,0.06182994116520055,-0.16330016922360796,-5.121129303009273,-70.39568436947626,289.60431563052373,254.0758086121304,156.90571198119855,-71.20721542438754,-52.08701871569501,34.697823344163965,7464249.41956495,179.33180139032856,-175.39279256514985,65.04,NONE,0.0,0.0,0.0,NONE,-2.9085487288884105E-9,1.897569024000741E-9,-0.009979248,2,56.68,56.91,55.28,56.16,16.362,16.362,5.82,12.865806,0,3386,4.075,12.0,9.965,95,27.3,OK,347,0,0,0,0,0,65,100,0.0,0,0.0,-61764.0,8.8E-44,0.0,2.99788717E15,64,1.63951787E14,-1671.6644,1.6235545E-23,False,False,0,None,-4.0310993E-33,8.0887125E-10,
1395897975,22.256,13.992330798485474,66.38572216837821,17,77.28021,77.51177,-0.0579376,0.004201443,-0.52578056,0.52897984,0.6157377,-1.821462,0.25779313,1.9399264,275,241,1514,1557.0,-0.00822341,-0.023574697,-2.679597,2.6797132,0.024967794797229242,0.09044111135961852,-0.3775443130630737,-3.3559575112604714,-69.40187328713297,290.59812671286704,259.5150079243294,131.50208503182068,-53.70033661076759,-53.45777018853328,34.81467031345879,69.13865227941423,-51.586410828745855,-46.31100478422427,65.02,50.621915402343745,,13.9923301,66.3857226,20190520,152324,2019-05-20T15:23:24Z,123.624,0.63,1.24,8.38,8,9,17,-0.03,-0.18,-3.69,0,0,0,0,5,5,13.99311235435539,66.38572590332586,50,2187252,20,100,193,3553,3569,4329,4340,-1390,17230,22,2,16698,0,false,false,false,false,false,false,false,false,false,false,4085,4175,4030,4202,58,75,75,58,1375,1386,1379,1386,1365,1372,1364,1375,0.0,0.0,0.0,0.0,1661.9,1657.6,1658.2,1662.5,1.72,1.36,2.02,1.58,0,0,0,0,-108.8531587644191,13.992330391867236,66.38572259836884,0,77.19291,78.840576,-0.05730562,0.0048272377,-0.5404121,0.5434634,4.1855783,-6.8910265,1.2100282,8.152882,269,232,1511,1552.0,0.033786863,-0.06564857,-3.3672338,3.3680432,0.07383283241846011,0.07595291455345149,-0.149470972541188,-3.366930931960568,-70.30179376936118,289.6982062306388,251.04627360539996,156.6685650940478,-64.63743767373883,-52.685979343146485,34.8322431290189,7464249.621348824,-10.015303741795263,-4.739897697273673,64.98,NONE,0.0,0.0,0.0,NONE,-6.073729722686683E-9,9.723427859367172E-10,-0.009605408,2,34.73,34.52,30.55,33.62,16.414,16.414,5.933,12.568519,0,3383,4.079,12.0,9.576,95,27.4,OK,348,0,0,0,0,0,65,100,0.0,0,0.0,-94040.0,8.8E-44,0.0,2.99788717E15,64,8.377454E15,-12125.065,6.0217236E-24,False,False,0,None,-1.6140478E-33,4.8012514E-9,
1399746723,23.257,13.992332607177396,66.38572187244922,17,77.28808,77.80478,-0.09560363,-1.4211982E-4,-0.9964356,1.0010115,-9.203341,-10.435807,-2.0981421,14.071593,304,223,1502,1548.0,0.1149014,0.26829413,0.56618226,0.63698226,0.2918630971666625,-0.20486266203660575,-0.8767422679239909,-5.048829868985904,-69.68875933925052,290.3112406607495,258.87453443899227,130.1283958970208,-56.75604617536914,-55.19860843712403,34.73452223539602,69.32698886939497,113.81476613897384,119.09017218349543,64.99,50.629781308105464,,13.9923313,66.3857224,20190520,152325,2019-05-20T15:23:25Z,124.803,0.63,1.24,8.34,8,9,17,0.27,0.21,-1.74,0,0,0,0,5,5,13.99311235435539,66.38572590332586,50,2187252,20,100,193,3553,3569,4329,4340,-1390,17230,22,2,16698,0,false,false,false,false,false,false,false,false,false,false,4810,4723,5221,5282,57,73,74,57,1462,1463,1510,1510,1452,1449,1511,1508,0.0,0.0,0.0,0.0,1639.8,1636.1,1635.5,1638.6,3.77,3.17,3.92,3.46,0,0,0,0,-8.675130804120727,13.992332164457759,66.3857219990195,0,77.40408,79.87716,-0.085775666,-0.003799778,-0.9722415,0.97602534,-3.4450424,-4.469858,-1.0527442,5.740751,286,229,1511,1554.0,0.03442871,0.19316798,0.07260114,0.20921312,0.1962121461697776,-0.0929184505349477,-0.6988159810893309,-4.372737752710664,-70.4789555876221,289.52104441237793,250.2943903172374,156.36267518030297,-67.9269338835392,-55.47765436310943,34.75406154160777,7464249.776254669,75.12805764533694,80.40346368985853,64.99,NONE,0.0,0.0,0.0,NONE,1.0693183605353856E-8,4.3262819184627797E-10,1.9836426E-4,2,44.58,43.88,46.1,46.38,16.597,16.597,5.894,12.109537,0,3381,4.082,12.0,7.797,95,27.5,OK,349,0,0,0,0,0,65,100,0.0,0,0.0,-62011.0,8.8E-44,0.0,2.99788717E15,64,2.12348681E16,-18668.13,4.85739E-24,False,False,0,None,-1.3344447E-33,7.002115E-9,
1403596381,24.257,13.992333468280025,66.38572052497533,17,77.283195,77.311966,-0.10672078,0.0066838125,-1.0013943,1.0070871,3.8916953,-0.07676535,0.69679105,3.954327,347,241,1497,1555.0,-0.1298546,-0.03105747,0.36392552,0.3876449,0.13351698867476447,0.021067987951571526,-0.16428616458075743,-6.119634464692104,-69.6772646907928,290.3227353092072,259.8113040720967,132.1099478966003,-56.47861532718214,-52.900430905623786,34.698429999200215,69.60854038189488,-167.13754757150036,-161.86214152697877,65.0,50.624898495605464,,13.992333,66.385721,20190520,152326,2019-05-20T15:23:26Z,124.289,0.63,1.24,8.32,8,9,17,-0.18,0.02,-0.31,0,0,0,0,5,5,13.99311235435539,66.38572590332586,50,2187252,20,100,193,3553,3569,4329,4340,-1390,17230,22,2,16698,0,false,false,false,false,false,false,false,false,false,false,5042,4980,5206,5251,57,75,75,58,1480,1479,1510,1515,1473,1469,1507,1510,0.0,0.0,0.0,0.0,1639.2,1635.5,1635.5,1638.0,3.79,2.95,3.85,3.63,0,0,0,0,-13.819097535960736,13.992332915548271,66.38572043644467,0,77.26985,79.66268,-0.10231439,0.0016451748,-0.9891717,0.9944504,4.671742,2.5596993,1.6160537,5.5667644,344,238,1497,1554.0,-0.098779395,0.004969142,-0.058569223,0.11494527,0.09890430213492643,0.07794764104073246,-0.009528909091468878,-5.904774837587318,-70.43155400058774,289.56844599941223,250.15497893978497,157.84058071310523,-69.71803138279473,-51.697529616474505,34.72321722153928,7464250.023972996,-172.13095078721338,-166.8555447426918,65.0,NONE,0.0,0.0,0.0,NONE,0.0,-1.653410755265644E-9,-1.373291E-4,2,44.56,44.4,47.71,48.53,16.563,16.563,5.891,11.476419,0,3377,4.175,12.0,6.401,95,27.5,OK,350,0,0,0,0,0,65,100,0.0,0,0.0,-25512.0,8.8E-44,0.0,2.99788717E15,64,1.67612301E16,-16223.815,5.115783E-24,False,False,0,None,-1.3883764E-33,6.4714247E-9,
1407448002,25.258,13.992332588699533,66.38571824224533,17,77.05142,77.00521,-0.09786796,-0.004875768,-1.0065322,1.0112908,5.506046,6.860803,4.776387,10.010047,355,284,1485,1553.0,-0.08739394,-0.15221544,0.17731148,0.24949268,0.1755199132144329,0.08105242533942347,1.232056124532912,-6.188320109654239,-69.61656389593298,290.383436104067,258.3799366866445,132.10174290253084,-57.40035144424069,-52.66314408866805,34.742901072392065,69.8728660987576,-154.27832421232765,-149.00291816780606,64.96,50.39312511914062,,13.9923314,66.3857186,20190520,152327,2019-05-20T15:23:27Z,123.859,0.63,1.24,8.32,8,9,17,-0.18,-0.13,0.05,0,0,0,0,5,5,13.99311235435539,66.38572590332586,50,2187252,20,100,193,3553,3569,4329,4340,-1390,17230,22,2,16698,0,false,false,false,false,false,false,false,false,false,false,5076,5061,5235,5291,59,73,74,58,1487,1494,1512,1494,1483,1492,1501,1488,0.0,0.0,0.0,0.0,1639.2,1635.5,1634.9,1639.2,3.94,3.05,3.89,3.31,0,0,0,0,-10.343726204607776,13.992331270078475,66.38571819134009,0,77.13673,79.43218,-0.09801583,-0.0047161425,-1.0133685,1.0181086,0.52551687,-4.7361255,-0.8907284,4.8477263,355,284,1482,1550.0,-0.031621095,-0.06602797,-0.17987111,0.19419888,0.07320919565374319,0.1867068002628322,1.5579370905987318,-6.02496014445263,-70.32480284019644,289.6751971598036,250.72919409679727,160.10264284895132,-68.69147619900495,-51.07575340136237,34.801756740467674,7464250.312012581,-142.50355592385446,-137.22814987933288,64.97,NONE,0.0,0.0,0.0,NONE,-3.678454859768144E-9,-7.881543821328035E-10,-4.348755E-4,2,45.41,46.13,47.86,47.04,16.547,16.547,5.883,10.706244,0,3375,4.175,12.0,7.176,95,27.5,OK,351,0,0,0,0,0,65,100,0.0,0,0.0,-7611.25,8.8E-44,0.0,2.99788717E15,64,1.39151443E16,-14929.565,5.413859E-24,False,False,0,None,-1.45056E-33,5.9440315E-9,
1411362721,26.276,13.992328570020998,66.3857184797832,17,77.18624,76.87525,-0.09350777,-0.005855295,-1.0026209,1.006989,-8.989574,-3.0644388,-7.578041,12.150307,338,275,1494,1556.0,0.10676688,-0.17611098,-0.0022518113,0.2059595,0.20594718804675202,-0.02810588736379463,0.7717053055767916,-5.312751629633755,-69.75673255332457,290.2432674466754,258.38144120964574,131.94060737793853,-55.59514403196164,-52.17188271782118,34.92121370883779,70.09359053057237,-56.2134269020179,-50.93802085749631,65.0,50.52794414990234,,13.9923273,66.3857186,20190520,152329,2019-05-20T15:23:29Z,123.592,0.63,1.24,8.31,8,9,17,0.11,-0.19,0.01,0,0,0,0,5,5,13.99311235435539,66.38572590332586,50,2187252,20,100,193,3553,3569,4329,4340,-1390,17230,22,2,16698,0,false,false,false,false,false,false,false,false,false,false,4987,4963,5224,5280,58,75,75,59,1479,1487,1498,1495,1472,1477,1498,1494,0.0,0.0,0.0,0.0,1640.5,1636.1,1635.5,1639.8,3.73,2.88,3.59,3.26,0,0,0,0,-8.216957941257249,13.992327737985773,66.3857185097024,0,76.99839,79.22959,-0.095034905,-0.009379242,-1.0070992,1.0116167,3.4273841,0.84448886,2.7137382,4.452471,335,275,1494,1555.0,0.1166413,-0.09480923,-0.28488955,0.32211185,0.15031294860297056,0.008186958357957519,1.1390415885291234,-5.039344616449549,-70.32368930459693,289.67631069540306,248.95971211447966,158.12038440198702,-68.77016324463557,-50.52055607813812,34.958185601320785,7464250.506686424,-52.11645322831519,-46.8410471837936,64.99,NONE,0.0,0.0,0.0,NONE,-3.250727636082632E-9,2.4715494035576294E-9,-6.2561035E-4,2,44.84,44.53,46.92,47.81,16.544,16.544,5.892,9.915338,0,3373,4.126,12.0,7.286,95,27.5,OK,352,0,0,0,0,0,65,100,0.0,0,0.0,-8622.5,8.8E-44,0.0,2.99788717E15,64,1.11512469E16,-13672.565,5.742631E-24,False,False,0,None,-1.5191384E-33,5.4318723E-9,
1415322767,27.305,13.99232446554016,66.38572026491607,17,77.51168,76.95299,-0.09097938,0.00904707,-0.998076,1.0022548,7.084038,0.16002215,5.839236,9.181823,304,247,1502,1552.0,0.20176403,-0.13201472,-0.19442716,0.30973947,0.24111535035516743,0.02109054764635601,-0.09963848355467998,-4.284661613848788,-69.82764020639195,290.17235979360805,258.811459748887,130.2630840350883,-54.85904144293841,-52.58217944782018,35.09987748262382,70.36695606086852,-42.41569536733909,-37.1402893228175,64.99,50.85338360302734,,13.9923232,66.3857206,20190520,152329,2019-05-20T15:23:29Z,123.594,0.63,1.24,8.32,8,9,17,0.22,-0.15,-0.14,0,0,0,0,5,5,13.99311235435539,66.38572590332586,50,2187252,20,100,193,3553,3569,4329,4340,-1390,17230,22,2,16698,0,false,false,false,false,false,false,false,false,false,false,4972,4913,5205,5337,58,75,75,59,1489,1483,1501,1498,1481,1482,1486,1483,0.0,0.0,0.0,0.0,1640.5,1635.5,1635.5,1639.2,3.81,2.88,3.82,3.52,0,0,0,0,-16.209959956929993,13.992322774372802,66.38572042387163,0,77.01074,79.10761,-0.09028607,0.009650023,-1.0064034,1.0104913,-10.738281,-2.4106364,-13.234274,17.212433,304,250,1505,1555.0,0.19395347,-0.028421499,-0.37885615,0.42656502,0.19602481648685022,0.10216310966045322,0.10621882206177849,-4.065382726215664,-70.39059582924418,289.60940417075585,248.91765461290584,158.31679665175622,-66.9915618329837,-51.51896672131419,35.17488304204661,7464250.8201465,-39.129394042260074,-33.853987997738486,64.99,NONE,0.0,0.0,0.0,NONE,-1.7964549481319795E-9,4.304865188724146E-9,-9.384155E-4,2,46.02,44.09,45.84,46.39,16.547,16.547,5.896,9.192386,0,3371,4.125,12.0,7.173,95,27.6,OK,353,0,0,0,0,0,65,100,0.0,0,0.0,-26219.5,8.8E-44,0.0,2.99788717E15,64,9.3925781E15,-12873.065,6.0074862E-24,False,False,0,None,-1.6080763E-33,5.106046E-9,
1419236967,28.322,13.992322075223287,66.38572249981867,17,77.3983,77.18523,-0.08808851,0.010768169,-0.9943302,0.9982826,-3.5649195,-13.723491,-3.7521944,14.667031,301,220,1508,1553.0,0.12761739,-0.07781056,-0.24263576,0.28497857,0.14946799458036275,0.1162959223828568,-1.2102948260228752,-4.3501758962183015,-70.0207894762387,289.9792105237613,257.9811932299113,129.52249043621939,-54.73801858258151,-53.52917317368614,35.20278025207491,70.6709205050621,-23.33778105212246,-18.062375007600867,65.01,50.74000317089843,,13.9923209,66.3857225,20190520,152331,2019-05-20T15:23:31Z,123.712,0.63,1.24,8.3,8,9,17,0.16,-0.12,-0.23,0,0,0,0,5,5,13.99311235435539,66.38572590332586,50,2187252,20,100,193,3553,3569,4329,4340,-1390,17230,22,2,16698,0,false,false,false,false,false,false,false,false,false,false,5034,4950,5190,5201,58,75,75,59,1488,1483,1503,1491,1482,1474,1487,1485,0.0,0.0,0.0,0.0,1641.1,1638.0,1637.3,1641.7,3.75,3.04,3.84,3.12,0,0,0,0,-13.138472464019458,13.99232131043076,66.38572251307833,0,77.93578,79.137634,-0.08650781,0.0064790044,-0.98018974,0.98402107,-2.1211936,-7.938193,1.1576091,8.297856,304,223,1502,1548.0,0.1336643,0.007518654,-0.39370993,0.41584876,0.13387558916551756,0.10331231739388153,-1.073105438570814,-3.8571478136281008,-70.47567433416909,289.52432566583093,248.86427580048334,157.72921042209325,-67.69529824471763,-51.10451084612028,35.23682798860854,7464251.076489577,-25.3069896466761,-20.031583602154512,65.0,NONE,0.0,0.0,0.0,NONE,-6.843638298802649E-10,3.3196721445873377E-9,-9.689331E-4,2,45.52,44.0,45.95,46.75,16.548,16.548,5.888,8.569185,0,3369,4.125,12.0,7.194,95,27.6,OK,354,0,0,0,0,0,65,100,0.0,0,0.0,-86202.0,8.8E-44,0.0,2.99788717E15,64,9.7089626E15,-13016.815,6.0096067E-24,False,False,0,None,-1.6089696E-33,5.1645945E-9,
1423161622,29.342,13.99231998508614,66.38572391635977,17,77.95269,77.432014,-0.08200523,0.014427229,-0.99272186,0.99620765,2.9296389,8.674483,0.22618283,9.158635,295,210,1511,1553.0,0.055913996,-0.079264,-0.22270186,0.24291001,0.09700080735722282,0.08238025692321903,-1.4041327355619293,-3.9103049319362992,-70.02525359158933,289.9747464084107,258.967921468271,129.82227525170623,-53.926634880219964,-52.18713925353437,35.29453566964247,70.85914429185549,-37.744495110074666,-32.46908906555308,65.0,51.294393124511714,,13.9923192,66.3857239,20190520,152332,2019-05-20T15:23:32Z,123.887,0.63,1.24,8.27,8,9,17,0.09,-0.07,-0.29,0,0,0,0,5,5,13.99311235435539,66.38572590332586,50,2187252,20,100,193,3553,3569,4329,4340,-1390,17230,22,2,16698,0,false,false,false,false,false,false,false,false,false,false,5120,5053,5121,5188,58,76,76,58,1504,1490,1501,1497,1498,1481,1475,1482,0.0,0.0,0.0,0.0,1640.5,1636.7,1635.5,1639.2,3.88,3.21,3.86,3.3,0,0,0,0,-44.57559458063855,13.992319515170578,66.38572383480637,0,77.77975,79.24129,-0.07901323,0.013555889,-0.98908657,0.99233013,2.2094274,4.482545,-2.3912168,5.5400987,295,204,1514,1555.0,0.059868574,0.012012574,-0.35792065,0.36309192,0.061061838040038716,0.1029726612343239,-1.3466946390423136,-3.6157285468852116,-70.44974591448103,289.550254085519,249.22435527078966,158.47706181601248,-66.22432463622202,-50.242879874072905,35.31552427209791,7464251.257756566,-34.502026684346205,-29.226620639824617,65.0,NONE,0.0,0.0,0.0,NONE,5.98818385495652E-10,1.409254345620028E-9,-9.0026855E-4,2,46.31,44.1,45.64,47.57,16.551,16.551,5.89,8.056952,1504,3367,4.124,12.0,7.112,95,27.6,OK,355,0,0,0,0,0,65,100,0.0,0,0.0,-185888.0,8.8E-44,0.0,2.99788717E15,64,1.1090224E16,-13644.815,5.9202445E-24,False,False,0,None,-1.571683E-33,5.4205036E-9,
1427011229,30.343,13.992318780175498,66.38572413448658,17,78.22073,77.669174,-0.08436583,0.0077204155,-0.9850666,0.98870283,-1.219441,2.1120453,5.869391,6.3559046,298,223,1508,1553.0,-0.02036266,-0.028562581,-0.16832498,0.17194115,0.035077898480378504,0.023788449374218146,-0.7803682605919168,-4.353887554013843,-69.97740508953423,290.0225949104658,258.5801594956765,130.11925338512955,-55.02828550229817,-53.09084893518539,35.34806051645919,70.93354702274281,-137.06828028994633,-131.79287424542474,65.03,51.56243664257812,,13.9923174,66.3857243,20190520,152333,2019-05-20T15:23:33Z,124.049,0.63,1.24,8.27,8,9,17,-0.01,-0.04,-0.26,0,0,0,0,5,5,13.99311235435539,66.38572590332586,50,2187252,20,100,193,3553,3569,4329,4340,-1390,17230,22,2,16698,0,false,false,false,false,false,false,false,false,false,false,5139,5077,5067,5198,59,75,75,59,1488,1498,1494,1500,1480,1475,1495,1499,0.0,0.0,0.0,0.0,1639.8,1636.7,1634.9,1639.8,3.8,3.3,3.63,3.16,0,0,0,0,-75.75439407955861,13.992318039508794,66.38572408042975,0,78.14053,79.36213,-0.08153991,0.0099343425,-0.97851056,0.9819523,7.3666186,5.214545,10.927495,14.172815,295,220,1505,1549.0,-0.017286796,0.033200797,-0.29564592,0.2980061,0.03743162123552472,0.033710882079813084,-0.7488015391299044,-3.830389886030319,-70.4009391452043,289.5990608547957,249.12494675242556,159.15221765768098,-67.08315253046946,-51.00887193144006,35.38108486944996,7464251.359392324,-101.01941834563432,-95.74401230111273,65.0,NONE,0.0,0.0,0.0,NONE,2.30972804131045E-9,5.996826909013939E-11,-7.7819824E-4,2,46.39,44.88,45.78,46.99,16.553,16.553,5.893,7.6548476,1582,3365,4.127,12.0,7.146,95,27.6,OK,356,0,0,0,0,0,65,100,0.0,0,0.0,-217496.0,8.8E-44,0.0,2.0469024E-31,64,1.27438895E16,-14396.815,5.800388E-24,False,False,0,None,-1.5311989E-33,5.7270033E-9,
