Tick#,offsetTime,IMU_ATTI(0):Longitude,IMU_ATTI(0):Latitude,IMU_ATTI(0):numSats,IMU_ATTI(0):barometer:Raw,IMU_ATTI(0):barometer:Smooth,IMU_ATTI(0):accel:X,IMU_ATTI(0):accel:Y,IMU_ATTI(0):accel:Z,IMU_ATTI(0):accel:Composite,IMU_ATTI(0):gyro:X,IMU_ATTI(0):gyro:Y,IMU_ATTI(0):gyro:Z,IMU_ATTI(0):gyro:Composite,IMU_ATTI(0):mag:X,IMU_ATTI(0):mag:Y,IMU_ATTI(0):mag:Z,IMU_ATTI(0):mag:Mod,IMU_ATTI(0):velN,IMU_ATTI(0):velE,IMU_ATTI(0):velD,IMU_ATTI(0):velComposite,IMU_ATTI(0):velH,IMU_ATTI(0):GPS-H,IMU_ATTI(0):roll,IMU_ATTI(0):pitch,IMU_ATTI(0):yaw,IMU_ATTI(0):yaw360,IMU_ATTI(0):totalGyro:Z,IMU_ATTI(0):totalGyro:X,IMU_ATTI(0):totalGyro:Y,IMU_ATTI(0):magYaw,IMU_ATTI(0):distanceHP,IMU_ATTI(0):distanceTravelled,IMU_ATTI(0):directionOfTravel[mag],IMU_ATTI(0):directionOfTravel[true],IMU_ATTI(0):temperature,General:relativeHeight,General:absoluteHeight,GPS(0):Long,GPS(0):Lat,GPS(0):Date,GPS(0):Time,GPS:dateTimeStamp,GPS(0):heightMSL,GPS(0):hDOP,GPS(0):pDOP,GPS(0):sAcc,GPS(0):numGPS,GPS(0):numGLNAS,GPS(0):numSV,GPS(0):velN,GPS(0):velE,GPS(0):velD,RC:Aileron,RC:Elevator,RC:Rudder,RC:Throttle,Controller:navHealth,Controller:ctrl_level,HP:Longitude,HP:Latitude,HP:rthHeight,BatBlackBox:tick,BatBlackBox:id,BatBlackBox:rsoc,BatBlackBox:index,BatBlackBox:rm,BatBlackBox:fcc,BatBlackBox:cell_min,BatBlackBox:cell_max,BatBlackBox:current,BatBlackBox:voltage,BatBlackBox:temp,BatBlackBox:flag,BatBlackBox:reserve,BatBlackBox:user_data,OA:avoidObst,OA:emergBrake,OA:radiusLimit,OA:airportLimit,OA:groundForceLanding,OA:horizNearBoundary,OA:vertLowLimit,OA:vertAirportLimit,OA:roofLimit,OA:hitGroundLimit,Motor:Speed:RFront,Motor:Speed:LFront,Motor:Speed:LBack,Motor:Speed:RBack,Motor:EscTemp:RFront,Motor:EscTemp:LFront,Motor:EscTemp:LBack,Motor:EscTemp:RBack,Motor:PPMrecv:RFront,Motor:PPMrecv:LFront,Motor:PPMrecv:LBack,Motor:PPMrecv:RBack,Motor:PPMsend:RFront,Motor:PPMsend:LFront,Motor:PPMsend:LBack,Motor:PPMsend:RBack,Motor:V_out:RFront,Motor:V_out:LFront,Motor:V_out:LBack,Motor:V_out:RBack,Motor:Volts:RFront,Motor:Volts:LFront,Motor:Volts:LBack,Motor:Volts:RBack,Motor:Current:RFront,Motor:Current:LFront,Motor:Current:LBack,Motor:Current:RBack,Motor:Status:RFront,Motor:Status:LFront,Motor:Status:LBack,Motor:Status:RBack,Motor:thrustAngle,IMU_ATTI(1):Longitude,IMU_ATTI(1):Latitude,IMU_ATTI(1):numSats,IMU_ATTI(1):barometer:Raw,IMU_ATTI(1):barometer:Smooth,IMU_ATTI(1):accel:X,IMU_ATTI(1):accel:Y,IMU_ATTI(1):accel:Z,IMU_ATTI(1):accel:Composite,IMU_ATTI(1):gyro:X,IMU_ATTI(1):gyro:Y,IMU_ATTI(1):gyro:Z,IMU_ATTI(1):gyro:Composite,IMU_ATTI(1):mag:X,IMU_ATTI(1):mag:Y,IMU_ATTI(1):mag:Z,IMU_ATTI(1):mag:Mod,IMU_ATTI(1):velN,IMU_ATTI(1):velE,IMU_ATTI(1):velD,IMU_ATTI(1):velComposite,IMU_ATTI(1):velH,IMU_ATTI(1):GPS-H,IMU_ATTI(1):roll,IMU_ATTI(1):pitch,IMU_ATTI(1):yaw,IMU_ATTI(1):yaw360,IMU_ATTI(1):totalGyro:Z,IMU_ATTI(1):totalGyro:X,IMU_ATTI(1):totalGyro:Y,IMU_ATTI(1):magYaw,IMU_ATTI(1):distanceHP,IMU_ATTI(1):distanceTravelled,IMU_ATTI(1):directionOfTravel[mag],IMU_ATTI(1):directionOfTravel[true],IMU_ATTI(1):temperature,IMUEX(0):err,IMUEX(0):rtk_Longitude,IMUEX(0):rtk_Latitude,IMUEX(0):rtk_Alti,IMUEX(1):err,IMUEX(1):rtk_Longitude,IMUEX(1):rtk_Latitude,IMUEX(1):rtk_Alti,MotorCtrl:Status,MotorCtrl:PWM:RFront,MotorCtrl:PWM:LFront,MotorCtrl:PWM:LBack,MotorCtrl:PWM:RBack,BattInfo:Voltage,BattInfo:BatVoltage,BattInfo:AdVoltage,BattInfo:AvgCurrent,BattInfo:R_time,BattInfo:R_CAP_MAH,BattInfo:LowCellVoltage,BattInfo:LowCellVolThreshold,BattInfo:BatCurrent,BattInfo:Remaining%,BattInfo:Temp,BattInfo:status,battery_info:BatDynCnt,battery_info:Vol1Protect,battery_info:Vol2Protect,battery_info:Cap1Protect,battery_info:Cap2Protect,battery_info:Batpresent,battery_info:sopPercentage,battery_info:sopValue,battery_info:sopScale,battery_info:sopFlg,BattInfo:WindHeading:WindDir,battery_info:home_dir,BattInfo:Wind:rangeMin,BattInfo:Wind:rangeMax,battery_info:cap_speed,battery_info:against_wind,battery_info:emergency_land_cap,battery_info:intel_bat_land_cap,battery_info:intel_bat_gh_cap,BattInfo:Smart:SmartGh,BattInfo:Smart:SmartLand,BattInfo:GoHome:CntDown,BattInfo:GoHome:GhCmd,BattInfo:GoHome:CapLevel,BattInfo:GoHome:LandCapLv,Attribute|Value,ConvertDatV3,3.6.6-Tablet
212380088,.000,9.120804119406502,62.690738579692905,12,573.0954,572.92004,0.04689535,-0.10843558,-0.9771212,0.9842374,0.2127772,0.024025632,-0.15578148,0.26480037,110,-286,1479,1510.0,-0.035943262,0.014190598,-0.0044829655,0.03890229,0.038643126566988255,-0.038643126566988255,6.290641572541651,2.6702037377235888,73.12589606149506,73.12589606149504,0.23951820411812466,11.376224602813666,1.5517142998214293,68.37875914141944,0.6269494636780204,9.020628594401645,-149.0715157719686,-146.55863937466378,43.62,,,9.1208056,62.6907386,20190821,192701,2019-08-21T19:27:01Z,665.004,0.78,1.56,10.56,8,4,12,-0.01,0.0,-0.01,-9998,-9998,9998,-9998,4,4,9.120792835381781,62.69074081322398,120,10078474,48,99,357,3668,3668,4381,4396,169,17547,29,212,17549,0,false,false,false,false,false,false,false,false,false,false,0,0,0,0,47,61,59,48,944,945,944,945,940,940,940,940,0.0,0.0,0.0,0.0,1728.8,1723.2,1722.6,1728.2,0.0,0.0,0.0,0.0,0,0,0,0,-45.0,9.120804306565665,62.69073811825494,0,572.9078,572.5768,0.04552172,-0.109068125,-0.97793573,0.98505145,0.27500492,-0.018905943,-0.11923075,0.300335,110,-286,1476,1507.0,6.7262165E-4,0.0014366254,-0.0012105143,0.0019954091,0.0015862888786226839,-0.0015862888786226839,6.245664196492309,2.9815591057866686,70.147371023534,70.14737102353399,-0.41328013233459693,9.661707920864378,1.094139886662381,67.46971242590251,0.6574712897608833,7012417.607003849,80.410418598783,82.92329499608779,43.63,NONE,0.0,0.0,0.0,NONE,-2.406838211961707E-12,1.1094275770331884E-10,0.0,,,,,,17.394,17.394,6.219,1.2548158,0,3491,4.339,12.0,1.279,100,30.0,OK,52,0,0,0,0,0,65,100,0.0,0,0.0,-1.8235246E-31,2.68E-43,0.0,-5.9807744E7,62,1.04774855E-10,-1.0477532E-10,5.294616E-36,False,False,0,None,1.255426E31,1.0842437E-19,Firmware Date| Oct 17 2018
216233997,1.002,9.120806302601235,62.690738177240476,12,572.86786,572.9004,0.04568016,-0.108546555,-0.9774887,0.9845574,0.25380903,0.07168567,-0.24918851,0.36283988,110,-283,1458,1489.0,-0.038393848,0.012815632,9.259153E-4,0.040486854,0.040476264131738875,0.0793611649186989,6.304363372076416,2.678567648830282,73.12236642768273,73.12236642768272,0.07271017967897381,11.67510920178005,1.6002225109024852,68.24389424552425,0.7469481550598771,9.141884874210513,101.73229943103881,104.2451758283436,43.95,0.004882886718746704,,9.1208064,62.6907385,20190821,192702,2019-08-21T19:27:02Z,664.939,0.78,1.56,10.54,8,4,12,0.0,-0.01,0.0,0,0,0,0,4,4,9.120792835381781,62.69074081322398,120,10078474,48,99,358,3668,3668,4381,4396,169,17547,29,212,17549,0,false,false,false,false,false,false,false,false,false,false,557,541,557,548,52,64,64,52,1329,1338,1335,1333,1322,1322,1322,1322,0.1,0.1,0.1,0.1,1704.2,1699.3,1698.7,1703.6,7.9,7.37,7.98,7.58,0,0,0,0,-45.0,9.120805795159118,62.690737871297365,0,572.86786,572.5767,0.04589464,-0.10911184,-0.9784413,0.98557556,0.084548324,0.1101894,0.2555137,0.29082188,110,-283,1461,1492.0,-0.0029321883,-6.870789E-4,-0.0014373221,0.0033370196,0.0030116118368222976,0.07761196600667766,6.276154363888777,2.9051347386677735,70.16881070751201,70.16881070751202,-0.49811827370794076,9.856749253591323,1.1092960132616683,67.58689479849029,0.7376520265549078,7012417.704662662,20.1657442325009,22.6786206298057,43.92,NONE,0.0,0.0,0.0,NONE,-1.2617666890667413E-10,-2.5735507449989127E-10,0.0,1,22.5,22.5,22.5,22.5,17.363,17.363,6.128,1.3120989,0,3491,4.339,12.0,3.944,100,30.0,OK,53,0,0,0,0,0,65,100,0.0,0,0.0,-2.4403458E-30,2.68E-43,0.0,-5.9807744E7,62,1.04774855E-10,-1.0477532E-10,7.4631515E-36,False,False,0,None,2.2660492E31,1.0842437E-19,ACType|MavicEnterprise
220169616,2.024,9.120806812033566,62.69073803928481,12,572.86786,572.9014,0.056538906,-0.10702778,-0.9803738,0.987818,-0.034522124,-8.873597,2.9035041,9.336608,107,-283,1464,1494.0,-0.042235613,0.0066081686,-0.009240668,0.043736767,0.042749442649106066,-0.013245150701289732,6.315673984148869,2.755578634136484,72.93150276251136,72.93150276251134,0.329489092704134,11.054850795169008,-0.49428662841365645,68.37723196894646,0.7768819193095874,9.21120647180021,120.02065729465455,122.53353369195935,44.28,0.004882886718746704,,9.1208082,62.690738,20190821,192703,2019-08-21T19:27:03Z,664.886,0.78,1.56,10.47,8,4,12,0.0,0.01,-0.01,0,0,0,6929,4,4,9.120792835381781,62.69074081322398,120,10078474,48,99,359,3668,3668,4381,4396,169,17547,29,212,17549,0,false,false,false,false,false,false,false,false,false,false,4366,3828,3672,4182,50,65,66,50,1432,1388,1366,1406,1412,1386,1371,1399,0.0,0.0,0.0,0.0,1702.4,1697.5,1697.5,1704.2,3.89,2.98,2.94,2.88,0,0,0,0,-107.97448748883602,9.120807438657238,62.69073743782953,0,572.86786,572.5342,0.05697062,-0.0813556,-0.9755947,0.98063725,0.59443223,-0.65824926,3.0740447,3.1994364,107,-283,1470,1500.0,-0.013995259,0.003793052,0.0300195,0.03333804,0.014500156064063309,0.08005016680992125,6.242821113313481,2.91813338597147,69.94012439416588,69.94012439416588,-3.0422760093465615,10.259229270383864,2.3249212724521224,67.83923509119838,0.8341970715978886,7012417.821905664,116.85695621110006,119.36983260840485,44.3,NONE,0.0,0.0,0.0,NONE,-4.128092152446378E-11,-2.4989308326488226E-10,1.2207031E-4,2,41.16,36.1,31.14,36.05,17.199,17.199,6.158,1.5029492,0,3489,4.338,12.0,3.755,100,30.0,OK,54,0,0,0,0,0,65,100,0.0,0,0.0,-6.9134866E-31,2.68E-43,0.0,-5.9807744E7,62,1.04774855E-10,-1.0477532E-10,1.02973786E-35,False,False,0,None,4.0135873E31,1.0842437E-19,dateTime|2015-10-18 0:0:6 GMT
224052344,3.034,9.120809545590863,62.69073634397161,12,574.02625,573.5617,-0.016389804,0.013526383,-1.2828025,1.2829784,0.934112,2.2773826,3.5415068,4.3129234,186,-494,1416,1511.0,-0.05367654,-0.024946121,-2.0573282,2.0581794,0.059190199881423156,0.1731798882332394,-1.0524036691549046,-0.8537591739194589,73.75769296594673,73.75769296594672,3.015400276638071,4.909205457930988,-3.1083333856416644,70.60305269454953,0.1250618160230221,9.472633471592856,-173.20889337086328,-170.69601697355847,44.56,1.1632691171874967,,9.1208096,62.6907363,20190821,192704,2019-08-21T19:27:04Z,665.696,0.78,1.56,10.44,8,4,12,-0.2,0.14,-0.83,0,0,0,7952,4,4,9.120807935007619,62.69073719188568,120,10078475,19,100,360,3668,3668,4377,4391,86,17556,29,1,17534,0,false,false,false,false,false,false,true,false,false,false,6627,6746,5700,5849,50,62,63,50,1622,1638,1529,1541,1615,1629,1524,1529,0.0,0.0,0.0,0.0,1671.7,1663.7,1663.7,1669.9,6.0,5.47,4.33,3.92,0,0,0,0,-179.057720166483,9.120808792876435,62.690735596076124,0,574.293,573.3634,-0.015014908,0.0058320174,-1.2490193,1.2491232,11.054815,-8.424101,9.8050375,17.009209,191,-491,1419,1513.0,-0.05856146,-0.017730935,-2.2345207,2.2353582,0.06118684991577906,0.15299597301092643,-0.7340983182232933,-0.8769811798139715,70.84076716122435,70.84076716122433,-3.7449416177693653,0.5463153067352051,-3.6693674558101255,70.31235979287136,0.18276322426569758,7012418.082965584,175.91455303316792,178.42742943047273,44.57,NONE,0.0,0.0,0.0,NONE,-1.7178987221261577E-9,-3.4912750924161675E-9,-0.009399414,2,60.47,62.1,49.23,50.37,17.294,17.294,5.986,1.8876443,0,3488,4.285,12.0,7.618,100,30.0,OK,55,0,0,0,0,0,65,100,0.0,0,0.0,-1.1307245E-37,2.66E-43,0.0,-5.9807744E7,62,2.0473934E-10,-1.4893779E-10,1.1269883E-36,False,False,0,None,6.974825E29,1.559674E-19,geoDeclination|251 degrees
227966937,4.051,9.120810220555212,62.69073731325038,12,576.5652,576.0315,-0.013140279,0.0018594405,-0.91941077,0.91950655,10.608539,-3.9775321,7.8648443,13.791941,200,-467,1416,1504.0,0.004850212,-0.023732984,-1.7942266,1.7943902,0.024223523477078047,0.08698878561191281,-0.08650959699917588,-0.8693731071469496,73.70798822243754,73.7079882224375,4.021838480100593,6.35215738532691,-3.7010492073005965,68.9959227089522,0.11737666930853627,9.76377877732906,30.78657614794634,33.29945254525114,44.83,3.7022095468749967,,9.1208117,62.6907374,20190821,192705,2019-08-21T19:27:05Z,667.893,0.78,1.56,10.4,8,4,12,0.05,0.02,-1.7,0,0,0,6775,4,4,9.120807935007619,62.69073719188568,120,10078476,114,100,361,3668,3668,4376,4391,0,17524,29,3662,740,0,false,false,false,false,false,false,true,false,false,false,5648,5773,4824,5017,49,64,64,49,1533,1547,1446,1471,1528,1539,1444,1465,0.0,0.0,0.0,0.0,1684.0,1676.6,1679.1,1684.0,4.68,4.21,3.38,3.18,0,0,0,0,-177.53562650046828,9.12081051360505,62.6907369056345,0,576.10803,575.6312,-0.014077869,0.003738611,-0.9421174,0.94223,-6.500789,6.067392,-4.532014,9.980614,194,-470,1416,1504.0,0.0047067306,-0.015724635,-1.8445038,1.8445767,0.016413940638092532,0.1507102361636016,-0.09479645421499565,-0.7021881356891357,70.79531745697611,70.79531745697614,-1.8928311224294516,2.6889401616665367,-1.9267934409206944,69.30966165611936,0.1353443920832082,7012418.345910734,35.01526702867989,37.52814342598469,44.83,NONE,0.0,0.0,0.0,NONE,-2.9187459142593894E-9,-2.569868957163306E-10,-0.02154541,2,51.62,52.71,40.39,42.88,16.949,16.949,6.056,1.8876443,0,3488,4.324,12.0,7.618,100,30.0,OK,55,0,0,0,0,0,65,100,0.0,0,0.0,-9.5748604E-17,2.68E-43,0.0,-5.9807744E7,62,2.223544E-9,-4.649384E-10,1.7055809E-36,False,False,0,None,1.6013141E30,4.3790616E-19,geoInclination|7435 degrees
231833694,5.056,9.120814596109781,62.69073855348595,12,577.2099,576.5023,-0.017395489,0.0010494767,-1.0047587,1.0049099,-6.242448,-6.3367867,-65.00412,65.6099,387,-381,1404,1505.0,-0.021597255,-0.025463186,0.065829754,0.07381309,0.03338884904763677,0.22770360616575291,0.0817542023408797,-0.6731959753572501,44.446466632787526,44.44646663278752,-23.807018930268857,7.429973894037179,-3.4157844818390037,45.951879985406634,0.3720215528924368,10.064773261293537,58.3977070247219,60.910583422026704,45.18,4.346923902343747,,9.1208144,62.6907386,20190821,192706,2019-08-21T19:27:06Z,668.663,0.78,1.56,10.38,8,4,12,-0.03,-0.16,-1.1,0,0,-9998,0,4,4,9.120807935007619,62.69073719188568,120,10255887,16,100,362,3661,3688,4344,4362,-613,17426,24,0,16110,0,false,false,false,false,false,false,true,false,false,false,5653,5752,4803,4947,52,64,64,51,1540,1540,1444,1470,1531,1529,1435,1460,0.0,0.0,0.0,0.0,1684.6,1678.5,1679.7,1684.0,4.68,4.1,3.36,2.93,0,0,0,0,-178.44249246763357,9.120814861944853,62.69073816653713,0,576.9932,576.22516,-0.01726089,1.4079269E-4,-1.0005586,1.0007075,-2.1873562,-4.079287,-65.212944,65.37701,361,-396,1407,1505.0,-0.028967133,-0.013422454,0.11045029,0.11497184,0.031925806501764326,0.22920689488670318,0.1462308350307124,-0.44749575768699884,44.824259059778015,44.824259059778,-28.238552307826243,2.356798767130515,-0.09300105245722612,48.78428287977254,0.36962623610022477,7012418.620935312,52.8790223774603,55.3918987747651,45.12,NONE,0.0,0.0,0.0,NONE,-1.059190538995692E-9,-8.829907437139591E-10,4.8828125E-4,2,50.9,51.18,39.26,42.71,16.996,16.996,6.055,2.5244367,0,3485,4.199,12.0,7.982,100,30.0,OK,56,0,0,0,0,0,65,100,0.0,0,0.0,-4.198826E27,2.68E-43,0.0,5.9807744E7,63,4.8245283E-9,-7.2063616E-10,4.6299106E-36,False,False,0,None,9.298632E30,6.563745E-19,geoIntensity|5165930 nanoTesla
235762208,6.077,9.120815849890061,62.69074005633234,12,577.4976,576.4796,-0.017616022,-0.010228987,-0.9772211,0.9774334,5.4703746,3.356086,-58.276505,58.628826,554,51,1410,1515.0,-0.022402015,0.020704793,-0.014233176,0.03366188,0.030504733243443022,0.14474611474022464,0.9845349943740799,-0.9160612186678175,-15.088297468007244,344.9117025319928,-83.53112246033947,7.820962942599774,-3.8518009793655548,-2.8835183420813455,0.5142852714549674,10.280821799093765,17.32651789490922,19.83939429221402,45.5,4.634643628906247,,9.1208143,62.6907398,20190821,192707,2019-08-21T19:27:07Z,668.852,0.78,1.56,10.23,8,4,12,0.04,-0.05,-0.48,0,0,-9642,0,4,4,9.120807935007619,62.69073719188568,120,10255887,20,100,363,3661,3688,4344,4362,-613,17426,24,2,16110,0,false,false,false,false,false,false,true,false,false,false,5532,5672,4930,4916,52,63,64,51,1526,1537,1451,1458,1518,1524,1441,1453,0.0,0.0,0.0,0.0,1684.0,1677.3,1679.7,1684.6,4.34,4.01,3.36,2.93,0,0,0,0,173.5301800148268,9.120815490328795,62.69073946767015,0,577.133,576.2718,-0.018964035,-0.00670752,-0.98060566,0.98081195,3.5650618,0.93429667,-53.33383,53.461014,556,23,1401,1507.0,-0.044261068,-0.011842636,-0.007933809,0.046499845,0.04581801236762468,0.09932196645721147,0.7950209323630208,-0.7450318557754934,-14.645849067485925,345.3541509325141,-87.28783439012484,3.4075887871348156,-1.0074028578204004,-0.37915526923614334,0.46108552740673747,7012418.902806842,32.91466353461796,35.42753993192276,45.54,NONE,0.0,0.0,0.0,NONE,-8.48227670538172E-10,-1.8312989635170359E-9,0.0,2,49.98,50.35,40.09,41.94,17.039,17.039,6.054,3.3281503,0,3483,4.244,12.0,6.199,100,30.0,OK,57,0,0,0,0,0,65,100,0.0,0,0.0,1.38619E-33,2.69E-43,0.0,5.9807744E7,63,5.009383E-9,-7.321896E-10,6.173414E-36,False,False,0,None,1.7495497E31,6.6622124E-19,mcID(SN)|298DG13001W644
239649353,7.087,9.120816481089692,62.6907409303908,13,577.52325,576.5322,-0.018651554,-0.016881786,-1.4161179,1.4163413,-11.49676,-4.085228,-11.625105,16.852528,425,321,1398,1496.0,0.023775723,0.10318538,-0.32605407,0.3428174,0.10588912721722644,-0.004541743917532065,0.7730065170719005,-0.45585246747955527,-50.71268930848786,309.2873106915121,-118.10722342185342,9.210988378525563,-3.0781529471560236,-36.130701468195014,0.6024031010722133,10.499882164935176,41.201668134562496,43.7145445318673,45.84,4.660278394531247,,9.1208172,62.6907421,20190821,192708,2019-08-21T19:27:08Z,668.889,0.75,1.51,9.99,8,5,13,0.21,0.09,-0.27,0,0,0,3671,4,4,9.120807935007619,62.69073719188568,120,10255887,20,100,363,3661,3688,4344,4362,-613,17426,24,2,16110,0,false,false,false,false,false,false,true,false,false,false,6829,6832,5913,5808,51,65,65,50,1671,1679,1567,1565,1666,1668,1564,1561,0.0,0.0,0.0,0.0,1649.0,1641.7,1644.7,1649.0,7.26,6.82,5.49,4.9,0,0,0,0,176.81362702536083,9.120817155200772,62.6907409645139,0,577.4202,576.33246,-0.015167983,-0.009882722,-1.2976815,1.2978077,8.481171,-1.7777168,8.772777,12.330942,428,321,1401,1499.0,0.024669694,0.038649615,-0.1378526,0.1452781,0.045851790281839166,0.13911180993861721,0.7264487607658083,-0.378675781064003,-53.341384142095464,306.6586158579045,-125.88028562173926,3.926940719568737,-2.2365426001749245,-35.91072977042648,0.6302603765256245,7012419.218930632,27.484992400834937,29.997868798139738,45.79,NONE,0.0,0.0,0.0,NONE,3.0508847161401234E-9,6.684334872413429E-10,1.2207031E-4,2,67.58,68.03,55.43,53.91,16.989,16.989,6.035,4.137682,0,3482,4.247,12.0,7.575,100,30.0,OK,58,0,0,0,0,0,65,100,0.0,0,0.0,8.597598E-28,2.69E-43,0.0,5.9807744E7,63,5.34385E-9,-7.5309375E-10,1.1424935E-35,False,False,0,None,5.361147E31,6.8402217E-19,mcVer|v3.4.1.6
243498165,8.087,9.120823946169146,62.690745738844456,13,580.85205,579.1869,-0.011647906,-0.0032708168,-1.0476255,1.0476954,-8.428548,-0.9593398,-7.099365,11.061724,662,303,1338,1523.0,0.3179589,-0.28102374,-3.997315,4.019776,0.4243491525601784,0.23190081078580776,-0.3074854586980226,-10.452657086284107,-50.62215392643668,309.3778460735633,-121.66000728058887,4.929360923631054,-14.012955554013821,-37.20494794428975,1.2531596454864111,11.17262948652983,-2.5843501688864596,-0.07147377158165928,46.12,7.989074781249997,,9.1208231,62.6907463,20190821,192709,2019-08-21T19:27:09Z,670.764,0.75,1.51,9.78,8,5,13,0.63,0.03,-1.88,0,9901,0,10000,4,4,9.120807935007619,62.69073719188568,120,10255889,114,100,364,3660,3688,4271,4302,-2916,17086,24,3668,17288,0,false,false,false,false,false,false,true,false,false,false,6383,6556,5608,5633,51,65,66,50,1604,1623,1523,1531,1602,1610,1513,1521,0.0,0.0,0.0,0.0,1665.6,1660.7,1660.7,1664.4,5.3,4.92,4.27,3.66,0,0,0,0,175.01861082894715,9.120823182830524,62.69074541393312,0,580.2843,578.88055,-0.012000888,-0.011269866,-1.0760046,1.0761305,-16.954784,-17.906153,-14.79442,28.757084,635,303,1341,1514.0,0.36926425,-0.28443187,-4.0076284,4.034643,0.46610897245239785,0.11625003562818798,-0.22771068522545146,-10.03788543333613,-53.26901042208942,306.7309895779106,-122.35613415563655,7.604529095030654,-10.759599982745103,-38.20409853200563,1.2003925522198438,7012419.82784162,0.077692904050084,2.5905693013548845,46.12,NONE,0.0,0.0,0.0,NONE,-4.0067698971261666E-8,2.0918853380394565E-8,-0.020202637,2,59.73,60.86,49.61,49.6,16.982,16.982,5.946,4.903364,0,3479,4.238,12.0,7.475,100,30.0,OK,59,0,0,0,0,0,65,100,0.0,0,0.0,5.418033E-23,2.69E-43,0.0,5.9807744E7,63,5.5444616E-8,-2.4777627E-9,1.4595603E-34,False,False,0,None,5.036772E33,1.9850352E-18,
247462695,9.118,9.12081136586658,62.69075996550768,13,585.0971,583.3227,-0.030094575,-0.007274853,-0.9918218,0.992305,-3.6892679,-6.809395,-8.343702,11.384021,676,297,1338,1528.0,1.745199,-1.3469445,-3.9994946,4.5668297,2.2045359320823703,-0.547681020082136,-0.40505883859235503,-10.452103236691045,-45.02668597526388,314.9733140247361,-121.77150891787636,4.386034055594651,-13.890693609612798,-35.95842455741965,2.5383527233931353,12.891710080020935,-30.20122156512633,-27.688345167821527,46.41,12.234130933593747,,9.1208123,62.6907583,20190821,192710,2019-08-21T19:27:10Z,674.558,0.75,1.51,9.65,8,5,13,1.73,-1.2,-3.32,0,10000,0,10000,4,4,9.120807935007619,62.69073719188568,120,10255995,48,99,365,3623,3688,4315,4330,-1015,17283,25,212,17279,0,false,false,false,false,false,false,false,false,false,false,6255,6383,5750,5747,51,65,66,51,1600,1614,1531,1542,1594,1603,1528,1533,0.0,0.0,0.0,0.0,1664.4,1659.4,1659.4,1665.6,5.38,4.84,4.44,3.82,0,0,0,0,173.45045922212577,9.120808814480892,62.690760140114854,0,585.2239,583.2891,-0.034184303,-0.006558965,-0.997935,0.9985419,9.048268,10.713461,4.65038,14.774148,670,300,1341,1528.0,1.6079631,-1.8410147,-3.968642,4.6610084,2.4443569083386776,-0.7031713769217671,-0.30323181138737587,-10.214078738247196,-50.531036003579416,309.4689639964206,-123.46504788105273,6.705647254212689,-11.335009705624492,-36.051970769847266,2.552121072327092,7012421.651783276,-24.145597578208445,-21.632721180903644,46.43,NONE,0.0,0.0,0.0,NONE,-1.539278069250116E-7,6.118315479741314E-8,-0.020019531,2,59.07,60.3,51.32,51.74,16.703,16.703,5.979,5.7032676,0,3477,4.234,12.0,12.466,100,30.0,OK,60,0,0,0,0,0,65,100,0.0,0,0.0,40.19629,2.69E-43,0.0,5.9807744E7,63,3.6244164E-6,-2.0118597E-8,1.1216334E-32,False,False,0,None,1.5679114E37,1.3231979E-17,
251317601,10.120,9.120776557440035,62.69078323323661,13,589.0646,587.35156,-0.13272966,-0.025273025,-1.0318143,1.0406232,9.969947,190.10818,-0.3737821,190.3698,451,303,1401,1502.0,2.7294357,-2.1482167,-4.062503,5.344959,3.473421130568645,-0.34125797255733525,0.1850334513171833,9.752584201815523,-37.222985252230394,322.7770147477696,-122.72956019986269,5.259390718893629,3.521779186599362,-23.63735082329598,5.363982822270634,16.032421283134887,-41.05945341801003,-38.54657702070523,46.67,16.201599195312497,,9.1207792,62.6907807,20190821,192711,2019-08-21T19:27:11Z,678.47,0.75,1.51,9.51,8,5,13,2.79,-2.16,-3.82,0,224,-1563,10000,4,4,9.120807935007619,62.69073719188568,120,10255995,17,99,366,3623,3688,4315,4330,-1015,17283,25,0,17279,0,false,false,false,false,false,false,false,false,false,false,5762,6366,5826,6112,52,65,66,52,1536,1566,1543,1611,1545,1572,1517,1553,0.0,0.0,0.0,0.0,1666.2,1655.2,1658.2,1665.6,1.99,2.42,7.39,8.17,0,0,0,0,120.85765335796731,9.12077406063403,62.690784050225425,0,589.25323,587.2233,-0.10244606,-0.018232666,-0.9789241,0.9844389,-0.72144985,122.277916,-7.303149,122.49794,282,297,1443,1499.0,2.488615,-2.199978,-4.0238914,5.21774,3.3216123661924604,-0.13195452834639765,0.29108510718228764,16.588569633441594,-43.15730925195126,316.84269074804877,-123.25490042533725,7.308968996843331,15.309006243547756,-22.992377370355005,5.489513048038699,7012424.855043243,-40.42480866194092,-37.91193226463612,46.67,NONE,0.0,0.0,0.0,NONE,-2.2140794420801824E-7,1.1353659439702518E-7,-0.020141602,2,52.63,56.33,54.94,51.41,16.812,16.812,5.975,6.603513,0,3471,4.184,12.0,9.687,100,30.1,OK,61,0,0,0,0,0,65,100,0.0,0,0.0,1.7849379E-7,9.0E-44,0.0,5.9807744E7,63,4.8945844E-4,-2.266434E-7,3.333752E-27,False,False,0,None,-9.136236E-35,1.282857E-16,
255173524,11.122,9.120756909700338,62.69079523747112,13,591.46985,590.4976,-0.017733254,-0.012311739,-0.61317223,0.61355215,3.1509428,-19.266058,-2.5115626,19.68292,48,287,1470,1498.0,0.43648067,-0.4710344,-1.1994731,1.3605604,0.6421750552417207,1.0235156638379062,-0.19419361957568773,11.964262752073672,-38.96276161450325,321.0372383854967,-122.80169448754485,7.708090451326032,7.40093417292183,-39.71643576532194,6.959523397915933,17.713891007152878,-35.13294705463404,-32.62007065732924,47.0,18.606872632812497,,9.1207569,62.6907957,20190821,192712,2019-08-21T19:27:12Z,681.965,0.75,1.51,9.3,8,5,13,0.74,-0.58,-3.34,0,0,0,2079,4,4,9.120807935007619,62.69073719188568,120,10256000,16,99,367,3620,3686,4296,4321,-1404,17141,24,0,16620,0,false,false,false,false,false,false,false,false,false,false,4493,4675,4078,4023,52,67,67,52,1427,1450,1386,1379,1426,1445,1384,1376,0.0,0.0,0.0,0.0,1691.4,1685.8,1685.8,1691.4,3.22,2.71,2.48,1.97,0,0,0,0,167.47687808814183,9.120757145660809,62.69079613132954,0,591.49634,590.0114,-0.014742785,-0.012684774,-0.6368724,0.6371693,2.7150593,-16.67531,2.903026,17.142494,69,287,1470,1499.0,0.43124408,-0.36028907,-0.9284889,1.0852978,0.5619427782026575,1.0312884357504446,-0.13710991896977703,10.889739374499523,-39.47141564941493,320.52858435058505,-128.13843295093204,3.3864707299634986,12.87557558807207,-40.072292362591824,7.047364960631968,7012426.46002341,-44.37602307822112,-41.863146680916316,47.04,NONE,0.0,0.0,0.0,NONE,-5.3623730821054305E-8,3.124953451907673E-8,-0.008850098,2,39.83,41.51,33.17,32.66,16.8,16.8,6.079,7.4902897,0,3468,4.193,12.0,9.98,100,30.2,OK,62,0,0,0,0,0,65,100,0.0,0,0.0,1.8301591E-9,9.0E-44,0.0,5.9807744E7,63,0.008240223,-9.1904457E-7,6.246928E-25,False,False,0,None,-1.07178754E-32,4.481042E-16,
259059362,12.132,9.120755961715288,62.69079620953494,13,591.8051,590.9295,-0.005694177,-0.012450641,-1.0017267,1.0018203,-9.14042,-2.3977911,-7.790957,12.247273,384,327,1431,1517.0,-0.110308595,0.031855617,-0.2267028,0.2541199,0.11481623027931957,0.0024361152223003057,0.541562411430008,0.10187476373380591,-40.956445261696324,319.04355473830367,-125.03850545307128,7.233466108919072,-3.6212334829207165,-39.03922178116529,7.077856685912235,17.967122048984844,151.06606404697504,153.57894044427985,47.3,18.942138746093747,,9.1207559,62.6907973,20190821,192713,2019-08-21T19:27:13Z,682.535,0.75,1.51,9.15,8,5,13,-0.01,0.07,-1.33,0,0,0,697,4,4,9.120807935007619,62.69073719188568,120,10256000,20,99,368,3620,3686,4296,4321,-1404,17141,24,2,16620,0,false,false,false,false,false,false,false,false,false,false,5684,5886,4835,4836,53,67,67,53,1529,1553,1455,1455,1528,1543,1451,1444,0.0,0.0,0.0,0.0,1677.3,1671.7,1672.9,1678.5,4.48,4.14,3.48,2.67,0,0,0,0,173.9580139905117,9.120756817134335,62.69079627004016,0,591.92706,590.13556,-0.0027679666,-0.011449955,-0.9906562,0.99072623,13.209539,0.34321168,8.875504,15.918049,387,327,1431,1518.0,-0.13444276,0.08653107,-0.01401455,0.16049576,0.1598827131202551,-0.1373292653939555,0.38643181659203985,-0.0376464188836005,-41.44055001050479,318.5594499894952,-130.43095994212266,6.352841069968605,-0.46624317722823955,-39.42032590250403,7.067877503977846,7012426.774475596,130.99025538748697,133.50313178479178,47.31,NONE,0.0,0.0,0.0,NONE,8.542080900503105E-9,-6.0263284246232305E-9,-1.2207031E-4,2,51.31,52.86,40.01,39.48,17.024,17.024,6.029,8.166408,0,3467,4.187,12.0,5.661,100,30.2,OK,63,0,0,0,0,0,65,100,0.0,0,0.0,1.7038531E-9,9.0E-44,0.0,5.9807744E7,63,0.009309292,-9.5166996E-7,6.281133E-25,False,False,0,None,-1.0764519E-32,4.7590043E-16,
262910953,13.133,9.120759808543431,62.69079735804067,13,592.3232,591.2183,-0.018868139,-0.014767509,-1.039931,1.040207,9.749051,-41.16054,4.5052314,42.538586,591,337,1365,1525.0,0.16822757,-0.113411345,-0.26695234,0.33530018,0.2028857986822121,0.031019435156238062,0.7257405859713182,-11.658354027684847,-41.0737299043741,318.9262700956259,-125.56452233146533,7.9887308832405095,-15.52903704091272,-46.61661488303849,7.1264548328615795,18.234626700070294,-13.84529734506738,-11.332420947762579,47.6,19.460205152343747,,9.1207588,62.6907974,20190821,192714,2019-08-21T19:27:14Z,682.829,0.75,1.51,9.01,8,5,13,0.03,0.01,-0.61,0,9993,0,0,4,4,9.120807935007619,62.69073719188568,120,10257112,48,29,369,950,3496,3730,3743,-1161,14975,40,212,14974,0,false,false,false,false,false,false,false,false,false,false,5757,5850,4782,4761,52,68,67,52,1547,1579,1431,1446,1534,1546,1459,1459,0.0,0.0,0.0,0.0,1674.1,1669.9,1669.3,1674.1,5.64,5.66,1.71,1.39,0,0,0,0,176.8386196555448,9.120759872500303,62.690796893986764,0,592.3648,590.07935,-0.014861196,-0.011032976,-1.0208247,1.0209925,-1.953534,-58.60432,2.447736,58.68794,492,333,1398,1518.0,0.04690175,-0.037674535,0.016015455,0.062254637,0.060159331248997035,0.11028248937914883,0.38817791790344747,-8.400933701396914,-41.66993008199767,318.3300699180023,-130.41583181043438,5.49960752426667,-6.971602988586593,-48.90765158020411,7.076904601322686,7012427.0441365335,20.425387257543015,22.938263654847816,47.61,NONE,0.0,0.0,0.0,NONE,6.170836719548491E-9,-3.627789776516533E-9,2.4414062E-4,2,53.84,54.98,40.33,41.36,16.918,16.918,6.02,8.511816,0,3465,4.255,12.0,6.971,100,30.2,OK,64,0,0,0,0,0,65,100,0.0,0,0.0,1.3997351E-8,9.0E-44,0.0,5.9807744E7,63,0.008688211,-9.3272337E-7,6.5944053E-25,False,False,0,None,-1.11916466E-32,4.5975937E-16,
266913021,14.173,9.120740345566833,62.69080721860127,13,592.6821,591.6884,-0.04286561,-0.016359419,-0.97091323,0.9719967,-7.6312933,-2.3367188,-8.976941,12.01176,717,355,1299,1525.0,1.8730822,-1.7804726,-0.26924315,2.5982707,2.5842831208987924,-1.1621293379065423,0.5325228668928876,-14.663823158055543,-44.738845639446836,315.2611543605532,-125.928946448249,11.266774346235303,-18.072922914265895,-43.292330433084594,8.515914434909623,19.717116717991097,-42.95390384396625,-40.44102744666145,47.98,19.819152906249997,,9.1207463,62.6908044,20190821,192715,2019-08-21T19:27:15Z,683.15,0.75,1.51,9.0,8,5,13,1.35,-1.32,-0.39,0,10000,0,0,4,4,9.120807935007619,62.69073719188568,120,10257112,17,29,370,950,3496,3730,3743,-1161,14975,40,0,14974,0,false,false,false,false,false,false,false,false,false,false,5369,5564,5077,5142,53,68,67,53,1499,1522,1471,1483,1494,1517,1475,1474,0.0,0.0,0.0,0.0,1677.3,1672.9,1671.1,1676.6,3.91,3.5,3.62,3.24,0,0,0,0,169.68103083506617,9.12074261355423,62.69080629456822,0,592.93317,590.2953,-0.04101329,-0.015527346,-0.97901756,0.97999924,-3.4082763,-11.551559,-10.868629,16.222885,720,352,1299,1526.0,1.8110098,-1.7054783,-0.036693245,2.4879227,2.4876520388351744,-1.1736660671488781,0.19753862792469282,-14.501513365102449,-45.22770556742937,314.7722944325706,-136.652112493832,1.4420361591628896,-13.913329097589997,-43.09111434326136,8.375363929516336,7012428.420248808,-43.44539890968693,-40.93252251238213,47.96,NONE,0.0,0.0,0.0,NONE,-1.6412936596234902E-7,8.009405745662004E-8,-2.4414062E-4,2,47.79,49.09,43.2,45.1,16.896,16.896,6.022,8.594684,0,3463,4.22,12.0,7.54,99,30.2,OK,65,0,0,0,0,0,65,100,0.0,0,0.0,8.059686E-11,9.0E-44,0.0,5.9807744E7,63,0.0113277435,-1.0728912E-6,5.85493E-23,False,False,0,None,-6.9923294E-31,5.2838937E-16,
270762068,15.173,9.120690612874402,62.6908291923686,13,592.3541,591.7965,-0.09630551,-0.020835273,-0.9971635,1.0020199,-3.501416,10.627042,-1.9587531,11.359165,659,386,1329,1532.0,2.909862,-3.2147002,-0.070878595,4.33666,4.336080462873997,-0.8149427600530212,0.5761193011132049,-13.455235195209914,-51.229365984812226,308.7706340151878,-132.95524192067168,8.180349140966408,-15.08383743348016,-48.40344241200602,11.852243439108587,23.249583342638232,-53.87170268635818,-51.358826289053376,48.29,19.491149976562497,,9.1207015,62.6908242,20190821,192716,2019-08-21T19:27:16Z,683.32,0.75,1.51,8.98,8,5,13,2.69,-2.84,-0.22,0,10000,-1194,0,4,4,9.120807935007619,62.69073719188568,120,10260381,48,29,371,957,3503,3798,3803,0,15208,27,212,5,0,false,false,false,false,false,false,false,false,false,false,5115,5268,5332,5317,52,69,68,52,1478,1498,1502,1493,1475,1490,1487,1483,0.0,0.0,0.0,0.0,1677.9,1672.9,1671.7,1677.3,3.64,3.3,3.97,3.29,0,0,0,0,32.27564431457762,9.120693584058209,62.690827306637175,0,592.4537,590.33795,-0.08912501,-0.01981005,-0.9809014,0.9851413,-0.47769585,7.6530766,-2.1704526,7.969231,662,383,1326,1530.0,2.8958259,-3.1377015,0.09928725,4.270929,4.269774936935782,-0.8482232316801239,0.41163645996975656,-13.155484122572123,-51.66962101211062,308.3303789878894,-142.6933346331124,-0.4504027111244744,-12.289400024319088,-47.499876752085605,11.594742660186203,7012431.848132499,-53.560536327458784,-51.04765993015398,48.26,NONE,0.0,0.0,0.0,NONE,-2.784533974684865E-7,1.223169020323585E-7,4.8828125E-4,2,44.21,45.51,46.09,46.54,16.913,16.913,6.03,8.55015,0,3460,4.212,12.0,7.464,99,30.2,OK,66,0,0,0,0,0,65,100,0.0,0,0.0,2.1730122E-15,9.0E-44,0.0,7.379444E-20,64,0.011782408,-1.1006272E-6,2.8087222E-18,False,False,0,None,-1.26941525E-26,5.4020717E-16,
274707172,16.199,9.120615304185437,62.69085854015374,13,591.8346,591.765,-0.17264587,-0.035100255,-1.556828,1.5667648,-1.4862543,103.43993,-5.011563,103.57194,600,379,1347,1522.0,3.6334429,-4.329313,-0.5939848,5.683104,5.651977949030598,-0.7356557733002971,0.49059529816189706,-7.588964640644161,-51.81451954568121,308.1854804543188,-134.1823577275255,8.21520347969421,-1.9867392900813101,-41.42474958623105,16.692573447590554,28.290844980095976,-52.62075088782829,-50.107874490523486,48.48,18.971618726562497,,9.1206144,62.6908588,20190821,192717,2019-08-21T19:27:17Z,683.346,0.75,1.51,8.93,8,5,13,3.59,-4.22,-0.13,0,0,0,6703,4,4,9.120807935007619,62.69073719188568,120,10260381,48,29,372,957,3503,3798,3803,0,15208,27,212,5,0,false,false,false,false,false,false,false,false,false,false,6904,6607,6238,5901,53,67,68,52,1798,1784,1206,1228,1702,1702,1448,1469,0.0,0.0,0.0,0.0,1595.0,1637.3,1616.5,1596.3,12.85,6.42,4.15,4.15,0,0,0,0,178.33004215012582,9.120610631932735,62.690859897342776,0,592.0126,590.22473,-0.3600308,-0.043602366,-1.8451376,1.8804404,-0.4210931,314.0044,8.865917,314.12982,542,373,1368,1517.0,3.6008258,-4.306105,-0.6576433,5.6516356,5.613242173772304,-0.17934083908833554,0.15512413904610856,3.375694102297135,-52.330471569277755,307.66952843072227,-139.79668672101357,2.5932875652311465,15.91373821684229,-30.71184959929789,16.955203868375598,7012437.420263397,-53.139146089206236,-50.626269691901435,48.52,NONE,0.0,0.0,0.0,NONE,-4.1511795731411007E-7,1.6113039949163434E-7,-6.713867E-4,2,10.0,13.81,80.1,79.72,16.907,16.907,5.974,8.427967,0,3458,4.217,12.0,7.071,99,30.2,OK,67,0,0,0,0,0,65,100,0.0,0,0.0,3.3030314E-19,9.0E-44,0.0,7.379444E-20,64,0.010357618,-1.0136649E-6,2.4280694E-11,False,False,0,None,-2.8463285E-20,5.0315456E-16,
278580365,17.205,9.12056029247661,62.69087919989704,13,592.98975,591.7559,0.0013736226,-0.03305944,-0.9539932,0.95456684,19.627224,-79.55046,9.930499,82.53556,-272,309,1443,1500.0,0.8286693,-1.2199502,-0.06555241,1.4762346,1.4747784044007397,2.128123283452687,0.22961328649361193,19.188210537184116,-51.69619883480522,308.3038011651948,-134.37523284453732,7.02468046127134,12.358428042404908,-54.31162693042796,20.2224935149508,31.92096965530359,-57.556619723435624,-55.04374332613082,48.73,20.126770093749997,,9.1205596,62.6908801,20190821,192718,2019-08-21T19:27:18Z,683.905,0.75,1.51,8.77,8,5,13,1.28,-1.53,-0.3,0,6776,0,0,4,4,9.120807935007619,62.69073719188568,120,10260381,48,29,373,957,3503,3798,3803,0,15208,27,212,5,0,false,false,false,false,false,false,false,false,false,false,5117,5478,5797,5697,54,69,69,53,1464,1509,1563,1549,1511,1541,1487,1476,0.0,0.0,0.0,0.0,1674.1,1667.4,1667.4,1671.7,2.56,2.9,5.26,4.36,0,0,0,0,27.148387784377803,9.12055904090128,62.6908793758412,0,592.9804,590.3813,-0.029323678,-0.033894602,-0.9753151,0.97634435,14.81263,-128.4131,1.6999159,129.27579,-240,318,1449,1502.0,0.6971768,-1.0387129,-0.008807482,1.2510226,1.250991571054947,2.135124505278749,0.36383616346430936,14.474702577655096,-52.246514030109985,307.75348596989,-135.3750013947498,5.385360494099932,34.44026027593336,-67.12240621215462,20.27769353192281,7012440.83505998,-60.700734097318495,-58.187857700013694,48.76,NONE,0.0,0.0,0.0,NONE,-1.9968917853552903E-7,7.376362842877586E-8,6.1035156E-4,2,48.93,51.9,44.14,43.36,16.71,16.71,6.0,8.2809,0,3456,4.219,12.0,8.685,99,30.2,OK,68,0,0,0,0,0,65,100,0.0,0,0.0,5.7845774E-21,9.0E-44,0.0,7.379444E-20,64,0.011912823,-1.1085725E-6,1.7611677E-6,False,False,0,None,-8.215813E-16,5.435953E-16,
282437324,18.208,9.120534485109607,62.690888141591834,13,593.4568,592.0297,-0.054747615,-0.024506431,-1.0501753,1.0518869,0.77780783,11.715666,2.9513702,12.106709,749,389,1275,1529.0,1.6741517,-2.21031,-0.065888375,2.773553,2.772770159314377,-1.1269040837835262,0.7622147719502621,-18.130690777916932,-52.21077532741775,307.78922467258224,-134.699986010711,6.547663734399204,-21.35745792681304,-49.88037352870615,21.825154068301778,33.57446563664496,-57.54063050682377,-55.027754109518966,49.08,20.593811109374997,,9.1205343,62.6908882,20190821,192719,2019-08-21T19:27:19Z,683.967,0.75,1.51,8.74,8,5,13,1.45,-1.93,-0.12,0,10000,0,0,4,4,9.120807935007619,62.69073719188568,120,10260381,48,29,374,957,3503,3798,3803,0,15208,27,212,5,0,false,false,false,false,false,false,false,false,false,false,5528,5824,5370,5295,54,70,70,54,1520,1552,1504,1495,1515,1544,1498,1488,0.0,0.0,0.0,0.0,1671.1,1666.2,1666.2,1669.9,4.29,4.0,4.03,3.28,0,0,0,0,151.62966230140884,9.12053351484613,62.690888002269865,0,593.5064,590.3017,-0.055327475,-0.03329216,-1.0438291,1.0458244,3.5242872,10.648239,0.35157737,11.221818,752,389,1278,1533.0,1.5754806,-2.1422508,0.06487527,2.6599972,2.6592061366833275,-1.0457255291339627,0.42829802739067374,-15.954608473469685,-52.33335106086674,307.66664893913327,-136.92053207505515,4.333366799343661,1.2244070690585174,-45.64775003677752,21.844930771451885,7012442.456782681,-56.856044702716254,-54.34316830541145,49.09,NONE,0.0,0.0,0.0,NONE,-1.860778907172556E-7,6.34584784497877E-8,4.8828125E-4,2,49.43,53.41,46.97,45.62,16.833,16.833,6.003,8.155116,0,3454,4.165,12.0,7.116,99,30.2,OK,69,0,0,0,0,0,65,100,0.0,0,0.0,1.1440425E-21,9.0E-44,0.0,7.379444E-20,64,0.011520386,-1.0846492E-6,2.025118E-6,False,False,0,None,-9.297034E-16,5.334038E-16,
286334904,19.221,9.120465746066781,62.69091123411322,13,593.17145,592.3499,-0.10870326,-0.035180815,-1.035267,1.0415527,-9.187692,-12.51372,-11.48381,19.310225,682,416,1308,1532.0,3.0214,-4.0903616,-0.38212895,5.0996017,5.085264662435153,-0.7945507430750149,1.8182454806396495,-14.935187467383688,-52.44880194419869,307.5511980558013,-130.4053963669465,11.315825742995859,-13.11930799797287,-49.59309295729433,26.06273784946044,37.92103636720026,-55.67430240776144,-53.16142601045664,49.5,20.308471753906247,,9.1204726,62.6909089,20190821,192720,2019-08-21T19:27:20Z,684.165,0.75,1.51,8.73,8,5,13,2.79,-3.89,-0.18,0,10000,-464,0,4,4,9.120807935007619,62.69073719188568,120,10260383,16,28,375,957,3503,3798,3803,0,15209,27,1,17518,0,false,false,false,false,false,false,false,false,false,false,5336,5564,5536,5511,54,68,69,54,1504,1526,1515,1517,1498,1516,1514,1515,0.0,0.0,0.0,0.0,1671.1,1666.2,1666.2,1671.1,4.04,3.61,4.1,3.77,0,0,0,0,59.84222705791109,9.120471126073598,62.690909205222404,0,593.28394,589.9868,-0.10490132,-0.03332462,-1.0527034,1.0584419,-8.441399,0.41346294,-6.24107,10.506146,688,419,1305,1533.0,2.8260753,-3.850838,-0.07734545,4.7771997,4.776573537028261,-0.8663768294842615,1.7644202594750253,-13.594612823545942,-52.12570323876175,307.87429676123827,-128.72338826769362,12.880038289792255,12.038460293949086,-46.51601064334848,25.71143775260607,7012446.418787318,-55.80687255613866,-53.293996158833856,49.51,NONE,0.0,0.0,0.0,NONE,-6.678717394896426E-7,2.2344101252658147E-7,-2.4414062E-4,2,45.94,49.03,49.81,49.31,16.845,16.845,6.008,8.038162,0,3452,4.214,12.0,7.897,99,30.3,OK,70,0,0,0,0,0,65,100,0.0,0,0.0,4.692796E-23,9.0E-44,0.0,7.379444E-20,64,0.0077718496,-9.035177E-7,3.2790274E-6,False,False,0,None,-1.4638627E-15,4.3948307E-16,
290211252,20.228,9.120374692376437,62.69094229313897,13,593.02075,592.6034,-0.14115943,-0.029550102,-0.99589056,1.0062789,3.700862,1.2103124,-4.779446,6.1647663,618,416,1338,1531.0,3.7907865,-5.1283045,-0.43953234,6.3923984,6.377269864358224,-0.6317397977092707,1.4919827521970543,-12.928627652183035,-56.386081163925006,303.613918836075,-136.12427297205892,9.376226732546181,-11.976404496856935,-51.72420856064003,31.758812161041256,43.70939607881782,-55.54332771257825,-53.030451315273446,49.74,20.157775953124997,,9.1203832,62.6909391,20190821,192722,2019-08-21T19:27:22Z,684.613,0.75,1.51,8.71,8,5,13,3.67,-4.98,-0.36,0,10000,-4547,0,4,4,9.120807935007619,62.69073719188568,120,10260384,114,28,376,957,3503,3798,3803,0,15209,27,3688,17550,0,false,false,false,false,false,false,false,false,false,false,5029,5244,5389,5480,53,70,69,54,1467,1496,1495,1506,1456,1481,1495,1502,0.0,0.0,0.0,0.0,1674.8,1669.9,1671.1,1676.0,3.49,3.11,3.49,3.34,0,0,0,0,11.752932250664173,9.120380157160781,62.69094017350628,0,593.2322,590.0277,-0.1366265,-0.026090328,-1.0009457,1.0105641,5.8544216,12.196904,0.51860154,13.539117,624,419,1335,1532.0,3.6792157,-4.928704,-0.18852113,6.1533966,6.150508158709455,-0.4143960799554458,1.298140047739371,-11.966765063447335,-55.75199904055547,304.24800095944454,-134.21938428631083,10.838322513421804,13.490295833604339,-49.51700321107171,31.395563749338724,7012452.197955393,-55.40029737510746,-52.88742097780266,49.74,NONE,0.0,0.0,0.0,NONE,-9.492864188062203E-7,3.2484780555034783E-7,-0.0017089844,2,44.1,45.47,45.75,48.59,16.856,16.856,6.01,7.93147,0,3450,4.198,12.0,7.665,99,30.3,OK,71,0,0,0,0,0,65,100,0.0,0,0.0,1.6960636E-24,9.0E-44,0.0,7.379444E-20,64,0.00792861,-9.0954217E-7,5.7958837E-6,False,False,0,None,-2.4517064E-15,4.420445E-16,
294130074,21.246,9.120265680737816,62.690976950986865,13,593.4885,592.74084,-0.14401157,-0.07144676,-0.95444113,0.96788526,-11.899004,6.086662,-46.69403,48.56919,454,416,1401,1530.0,3.7053509,-6.056515,-0.22029187,7.103487,7.100070641394561,-0.4568497025549565,-0.035754036039974374,-13.035402947772988,-84.34500838422545,275.6549916157745,-159.76623948887533,3.18483580158645,-12.06173767503185,-73.13731243638425,38.41888428885414,50.47702941262913,-60.24472259567121,-57.73184619836641,50.01,20.625549390624997,,9.1202764,62.6909737,20190821,192723,2019-08-21T19:27:23Z,685.026,0.75,1.51,8.7,8,5,13,3.83,-5.87,-0.39,0,10000,-9988,0,4,4,9.120807935007619,62.69073719188568,120,10260385,18,28,377,957,3503,3804,3809,1528,15228,27,1,15313,0,false,false,false,false,false,false,false,false,false,false,4786,5333,5023,5402,54,70,69,55,1453,1510,1478,1492,1443,1509,1479,1478,0.0,0.0,0.0,0.0,1674.1,1671.1,1671.1,1674.8,3.5,3.32,3.8,3.22,0,0,0,0,28.767649338843796,9.120271403486102,62.690974952131704,0,593.48456,590.28485,-0.14170386,-0.067539625,-0.9568469,0.9696378,3.08492,2.3146567,-37.603653,37.800915,469,413,1383,1517.0,3.6802626,-5.8831043,-0.095736265,6.9400587,6.939398428489058,-0.2992621415477652,-0.33556985044049675,-12.275267120502019,-81.34629620208557,278.65370379791443,-158.82670581755852,3.9452865743278402,11.403467596872089,-68.63131086134666,38.054459424518136,7012458.962726748,-59.83672500865383,-57.32384861134903,49.97,NONE,0.0,0.0,0.0,NONE,-5.843752557133017E-7,1.6327194982749392E-7,-3.6621094E-4,2,41.42,47.08,42.04,47.33,16.875,16.875,6.015,7.8387837,0,3448,4.199,12.0,7.291,99,30.3,OK,72,0,0,0,0,0,65,100,0.0,0,0.0,8.8226204E-26,9.0E-44,0.0,7.379444E-20,64,0.010982752,-1.05182E-6,1.0496998E-5,False,False,0,None,-4.134388E-15,5.194176E-16,
298017119,22.257,9.120140905809613,62.69100248212268,13,594.5354,592.9777,-0.06259409,-0.15081231,-1.028705,1.0415835,-13.597981,4.200815,-54.00639,55.850178,209,183,1494,1519.0,1.7210768,-6.8040395,-0.1251558,7.019453,7.018337209762823,-0.1191059301485593,-3.580291855434614,-15.784533125420287,-135.83154357226152,224.16845642773848,-210.71412873335484,-14.790773184178207,-16.161723491119464,-126.12164767538853,45.03483646509735,57.47887146350229,-76.87503045517441,-74.36215405786962,50.25,21.672424390624997,,9.1201513,62.6910008,20190821,192724,2019-08-21T19:27:24Z,685.246,0.75,1.51,8.68,8,5,13,2.26,-6.8,-0.26,0,9904,-9387,0,4,4,9.120807935007619,62.69073719188568,120,10260386,19,28,378,957,3503,3799,3805,0,15227,27,1,15211,0,false,false,false,false,false,false,false,false,false,false,4995,5799,5032,4848,54,69,69,54,1474,1564,1474,1456,1456,1548,1469,1451,0.0,0.0,0.0,0.0,1671.7,1668.7,1668.7,1673.5,3.54,4.44,3.77,2.88,0,0,0,0,132.7719504174375,9.120146633345195,62.69100153929845,0,594.5243,590.4564,-0.066026665,-0.14360154,-1.0126474,1.0249076,-10.830729,-0.58248067,-42.61769,43.97626,221,198,1494,1523.0,1.7841362,-6.6888657,0.04088181,6.922842,6.922721173854089,0.02444779351809423,-4.235247627760814,-15.367897149951748,-133.01963710284656,226.98036289715344,-205.95014546940592,-9.683432555131802,14.234037736793223,-120.02436423890526,44.7455242838999,7012466.006700336,-76.09877940549566,-73.58590300819087,50.25,NONE,0.0,0.0,0.0,NONE,-6.534969820326271E-7,9.602720446817778E-8,1.2207031E-4,2,43.49,53.48,43.0,41.67,16.883,16.883,6.017,7.735213,0,3446,4.204,12.0,6.911,99,30.3,OK,73,0,0,0,0,0,65,100,0.0,0,0.0,1.1334206E-27,9.0E-44,0.0,7.379444E-20,64,0.013088703,-1.1803426E-6,1.9555102E-5,False,False,0,None,-7.077997E-15,5.7415625E-16,
301866029,23.257,9.12001377722086,62.691004822965326,13,595.05316,593.34485,3.1120633E-4,-0.100477085,-0.91342854,0.9189382,-4.6563506,22.897806,-15.957405,28.295404,-164,-292,1455,1493.0,-0.54903865,-5.5897307,-0.20584291,5.620401,5.6166300914867735,0.8720177733462888,-6.996197062151049,-4.049705819131496,173.21991260971194,173.21991260971197,-255.27315115794255,-26.044182836158726,3.4109464029022085,157.217022448245,50.26935288266961,64.01682662677959,-100.22163838607504,-97.70876198877025,50.72,22.190185621093747,,9.120024,62.6910051,20190821,192725,2019-08-21T19:27:25Z,685.316,0.75,1.51,8.65,8,5,13,-0.46,-6.06,-0.18,0,3219,-5387,0,4,4,9.120807935007619,62.69073719188568,120,10264035,16,28,379,957,3503,3798,3803,0,15208,29,1,17518,0,false,false,false,false,false,false,false,false,false,false,5309,5712,4680,3346,57,70,70,56,1442,1483,1380,1288,1436,1441,1354,1279,0.0,0.0,0.0,0.0,1694.4,1688.2,1690.1,1695.0,1.77,2.35,1.74,0.3,0,0,0,0,149.88769836312395,9.120018791762178,62.6910044778822,0,594.43353,590.4298,0.005668305,-0.10200067,-1.0246255,1.0297056,-1.3580444,11.575149,-14.371863,18.50348,-143,-273,1452,1484.0,-0.7056697,-5.568565,0.0968929,5.6139355,5.613099458281891,0.9148688048750211,-7.532814517114755,-5.3010123606444255,173.83619818277356,173.83619818277361,-258.4786152374291,-27.750940744501474,26.400068658779325,163.92708800327435,50.04060807942793,7012472.57915942,-99.06154272370738,-96.54866632640258,50.69,NONE,0.0,0.0,0.0,NONE,-5.319839737500911E-7,-3.3562407633250064E-8,8.544922E-4,2,37.26,39.72,29.34,17.68,16.881,16.881,6.018,7.6156697,1628,3444,4.204,12.0,7.183,99,30.3,OK,74,0,0,0,0,0,65,100,0.0,0,0.0,9.301279E-31,9.0E-44,0.0,7.379444E-20,64,0.012968779,-1.1730375E-6,3.2766035E-5,False,False,0,None,-1.2199443E-14,5.710527E-16,
305845603,24.291,9.119927725255229,62.69099376101039,13,595.16766,593.549,-0.04074407,-0.07494853,-1.1080966,1.1113755,-13.908367,1.0864275,-11.322561,17.967287,323,-194,1446,1494.0,-2.6414475,-3.3202968,-0.46854258,4.268624,4.242831074211179,0.1651048930008816,-2.652490301342489,-23.056233280418468,168.4814152251374,168.48141522513743,-263.38233673295355,-26.4054899319494,-13.046170836502142,154.99447795630047,53.20051604974167,68.63975829031762,-128.8063173362781,-126.29344093897332,51.1,22.304687574218747,,9.1199345,62.6909953,20190821,192725,2019-08-21T19:27:25Z,685.135,0.75,1.51,8.54,8,5,13,-1.87,-3.63,-0.05,-1303,10000,-4317,0,4,4,9.120807935007619,62.69073719188568,120,10264036,18,28,380,959,3508,3847,3853,3574,15404,29,1,15485,0,false,false,false,false,false,false,false,false,false,false,5732,6261,5488,5130,56,72,71,55,1531,1589,1522,1475,1524,1585,1518,1464,0.0,0.0,0.0,0.0,1666.2,1661.3,1660.7,1666.2,4.22,4.28,4.43,2.86,0,0,0,0,147.17430567547058,9.119924280074194,62.69099162469771,0,595.17773,589.9545,-0.04456783,-0.06955127,-1.0894719,1.0925992,-16.772728,-8.789218,-16.218338,24.932093,329,-194,1443,1492.0,-2.858809,-3.09665,0.017861897,4.21454,4.214502075035497,0.6477346145266569,-3.391115991009167,-23.160151540559934,168.23647116724558,168.23647116724555,-267.71773167007467,-25.75339196719671,5.8343339581085045,158.03753107927648,53.22229543964561,7012477.70121371,-131.03847499742747,-128.52559860012266,51.16,NONE,0.0,0.0,0.0,NONE,-6.949473519150972E-7,-1.8538991210746304E-7,7.324219E-4,2,51.25,57.25,48.21,44.94,16.84,16.84,5.978,7.5056686,1650,3442,4.205,12.0,7.526,99,30.3,OK,75,0,0,0,0,0,65,100,0.0,0,0.0,5.798831E-34,9.0E-44,0.0,7.379444E-20,64,0.007519841,-8.881363E-7,5.400019E-5,False,False,0,None,-1.9233313E-14,4.3293042E-16,
309758855,25.308,9.119899863187005,62.69095825854722,13,594.56964,593.6868,-0.07077904,-0.0045631896,-0.91007215,0.9128318,1.1548483,3.117361,0.2465233,3.333525,37,-691,1347,1514.0,-3.9798198,0.62228036,0.12885606,4.030236,4.028175541906179,0.09732589197364394,-20.530647263025408,-12.159997981272396,165.35998076893782,165.35998076893782,-262.1897200686688,-45.17994416994395,-3.63503508039972,148.09199666898212,52.44335751090655,73.05135141972818,171.06949261806943,173.58236901537424,51.44,21.706665113281247,,9.1198979,62.6909646,20190821,192727,2019-08-21T19:27:27Z,685.406,0.75,1.51,8.46,8,5,13,-3.87,-0.42,-0.29,-10000,8575,-543,-4964,4,4,9.120807935007619,62.69073719188568,120,10267696,19,99,381,3497,3508,4372,4387,0,17543,32,1,17545,0,false,false,false,false,false,false,false,false,false,false,4818,5044,4953,4925,55,71,71,55,1457,1471,1462,1471,1455,1466,1457,1466,0.0,0.0,0.0,0.0,1677.3,1673.5,1672.9,1677.3,3.23,2.86,3.32,3.07,0,0,0,0,86.39557946082431,9.11989806994663,62.69095928943308,0,594.75946,589.7875,-0.068244405,-0.014015508,-0.8872055,0.8899367,5.835562,0.95512605,3.8991022,7.0830116,37,-697,1341,1511.0,-4.054311,0.51099396,0.4394224,4.1099443,4.086385844561167,-0.31455199905544395,-20.564195190181923,-12.475221619188336,165.69967986106855,165.6996798610685,-264.8414799802963,-45.70317192359233,15.728972069597974,147.77148767868232,52.57792946783976,7012481.697786536,173.53475044266293,176.04762683996773,51.39,NONE,0.0,0.0,0.0,NONE,4.391494326367164E-8,-1.8170644689106932E-7,0.0020751953,2,44.71,45.64,43.34,45.23,16.833,16.833,6.03,7.4488816,1662,3440,4.205,12.0,8.473,99,30.3,OK,76,0,0,0,0,0,65,100,0.0,0,0.0,1.0619398E-36,9.0E-44,0.0,-3.3654391E38,63,0.006468773,-8.2399146E-7,5.276805E-5,False,False,0,None,-1.8708559E-14,4.0560175E-16,
313616022,26.311,9.119944074962152,62.69092057344798,13,593.6397,592.59595,-0.10807079,0.06521409,-1.126294,1.1333448,-0.36416888,3.694042,1.9033321,4.171479,-18,-688,1341,1507.0,-4.3534174,3.8130946,1.1940436,5.909118,5.787221762640557,-1.0400651945667851,-20.36716881434217,-11.077516334441556,164.73589357893852,164.73589357893854,-265.7134444491381,-46.67883568453761,-5.910349920637755,149.7116079347334,48.55893612063745,77.86408527151532,136.67281848617645,139.18569488348126,51.56,20.776733472656247,,9.1199305,62.6909278,20190821,192727,2019-08-21T19:27:27Z,684.882,0.75,1.51,8.4,8,5,13,-4.22,2.68,0.46,-10000,8406,-637,-6468,4,4,9.120807935007619,62.69073719188568,120,10271631,16,99,382,3475,3488,4350,4367,-608,17439,23,0,16715,0,false,false,false,false,false,false,false,false,false,false,5633,5346,5467,5750,55,72,72,55,1516,1474,1488,1525,1519,1470,1468,1507,0.0,0.0,0.0,0.0,1677.3,1671.1,1671.7,1676.0,3.3,1.97,2.75,2.98,0,0,0,0,-67.33732376763811,9.119939439183298,62.690921972122325,0,593.6344,588.7095,-0.10823274,0.06566221,-1.2909595,1.2971516,-10.986087,-6.184869,-9.440507,15.750235,4,-706,1323,1499.0,-4.425325,3.6118093,1.5541815,5.91981,5.712150726659116,-1.0682205211028197,-20.08801670521226,-11.059162477432665,165.3837246513768,165.38372465137684,-269.16972084153565,-46.92649839874841,13.891090914141328,143.39848229950954,48.83889591114656,7012486.406367198,139.7389062843824,142.25178268168722,51.54,NONE,0.0,0.0,0.0,NONE,5.434096056805081E-7,-3.8801509218353816E-7,0.018920898,2,50.76,46.06,46.46,50.62,16.829,16.829,5.947,7.4485006,1661,3437,4.186,12.0,7.118,99,30.3,OK,77,0,0,0,0,0,65,100,0.0,0,0.0,5.345113E-39,9.0E-44,0.0,-3.3654391E38,63,0.0019502044,-4.526465E-7,4.8540776E-5,False,False,0,None,-1.6907482E-14,2.3710996E-16,
317542639,27.331,9.120045742940874,62.6908826702545,13,591.86926,590.3164,-0.11917312,0.121854946,-1.0180669,1.0322359,-11.479531,7.9484124,2.2792265,14.1475,22,-718,1353,1531.0,-4.1367226,6.457693,2.8033457,8.165356,7.6690467236108155,-1.1202393299604703,-21.695619443827876,-11.704278987357046,165.42706428799065,165.42706428799067,-263.87661268856107,-47.70503439075642,-4.199386302558255,149.83922714306834,42.11417854048679,84.57226535217278,120.26820726316835,122.78108366047314,51.8,19.006286695312497,,9.1200213,62.6908896,20190821,192729,2019-08-21T19:27:29Z,683.21,0.75,1.5,8.33,8,5,13,-4.15,5.64,1.49,-1444,2977,0,-10000,4,4,9.120807935007619,62.69073719188568,120,10271631,20,99,383,3475,3488,4350,4367,-608,17439,23,2,16715,0,false,false,false,false,false,false,false,false,false,false,5167,5051,4788,5321,55,72,71,55,1504,1482,1446,1508,1500,1481,1437,1495,0.0,0.0,0.0,0.0,1672.3,1666.2,1666.8,1669.9,4.42,3.16,3.14,3.75,0,0,0,0,-99.53388822066148,9.120037150708646,62.690884469098684,0,591.76544,586.4783,-0.12053652,0.11498979,-1.0273333,1.0407523,-6.225743,2.1739163,-8.326472,10.621484,10,-731,1341,1527.0,-4.2261114,6.2377167,2.998665,8.109323,7.5345289761264995,-1.1660650157072041,-21.01713042529593,-12.44828939373155,165.64273857713673,165.6427385771367,-270.4964433757793,-49.32815504777325,12.06856396205534,147.5336740498451,42.59572098050309,7012492.929284198,119.4935611069347,122.0064375042395,51.81,NONE,0.0,0.0,0.0,NONE,6.057710660611869E-7,-1.894675303127316E-7,0.015014648,2,45.99,44.08,41.03,47.43,16.889,16.889,6.003,7.4316063,1664,3436,4.195,12.0,6.256,99,30.3,OK,78,0,0,0,0,0,65,100,0.0,0,0.0,-1.2683605E36,8.8E-44,0.0,-3.3654391E38,63,1.9238144E-4,-1.4162019E-7,4.660642E-5,False,False,0,None,-1.6083489E-14,8.343487E-17,
321440777,28.344,9.120150132024534,62.69085257627072,13,591.1703,588.4244,-0.04152158,0.049041033,-1.4826808,1.4840726,-20.668036,28.640413,-2.9917355,35.44561,-663,453,1272,1504.0,-2.470512,2.137232,0.3248055,3.2827866,3.2666787815518106,2.94145431487408,22.62644631343635,14.39265363438419,165.26980357686818,165.26980357686818,-257.5460180364627,-4.8142816731453495,20.561085587570453,166.93836649276923,35.92710482078602,90.88563040428359,136.77793158750612,139.29080798481093,52.13,18.307312085937497,,9.1201396,62.6908563,20190821,192729,2019-08-21T19:27:29Z,681.099,0.75,1.5,8.29,8,5,13,-3.03,4.68,1.81,1039,0,0,0,4,4,9.120807935007619,62.69073719188568,120,10271633,114,99,384,3474,3488,4273,4305,-2996,17317,23,3503,17416,0,false,false,false,false,false,false,false,false,false,false,6546,6384,5901,6735,56,73,72,55,1655,1593,1584,1627,1642,1581,1547,1612,0.0,0.0,0.0,0.0,1649.0,1639.2,1641.7,1645.9,5.42,4.12,6.09,5.1,0,0,0,0,-106.44558444349661,9.12014824317266,62.69085280761971,0,590.93646,584.23456,-0.035024393,0.039506394,-1.5821383,1.5830189,-23.579021,12.049584,-0.60753447,26.486446,-655,465,1257,1491.0,-2.614658,2.50644,0.74429506,3.6976552,3.6219715753932338,2.9635918539573085,24.293645802097213,12.358929446692162,165.59710858632388,165.59710858632388,-263.69751218806033,0.49040077949632077,35.3688148380339,165.21776125116727,36.02629942414541,7012499.612333922,129.07132378234667,131.58420017965148,52.13,NONE,0.0,0.0,0.0,NONE,4.2040233762756617E-7,-1.3487508901953724E-7,0.008544922,2,62.92,62.1,51.59,65.74,16.94,16.94,5.883,7.3644886,1678,3434,4.202,12.0,7.294,99,30.3,OK,79,0,0,0,0,0,65,100,0.0,0,0.0,-6.365983E33,8.8E-44,0.0,-3.3654391E38,63,1.9779429E-5,-4.6138904E-8,4.303759E-5,False,False,0,None,-1.4563437E-14,2.7835412E-17,
325290009,29.345,9.120162315270576,62.690837879153285,14,590.7641,588.8288,-0.008749723,0.01083519,-0.9226369,0.922742,8.039884,-17.612045,3.8908377,19.747467,-584,-200,1365,1498.0,-0.49931234,0.08310884,0.061546594,0.5099097,0.5061816805198741,1.2415669467038715,-0.9955299278802192,9.168071044747462,167.41343345372073,167.4134334537207,-260.9353995086097,-28.887620383572383,14.136993198380596,153.8213296339432,34.78741628909732,92.679811305196,171.89596074198008,174.40883713928488,52.48,17.901123121093747,,9.1201609,62.6908389,20190821,192731,2019-08-21T19:27:31Z,681.411,0.69,1.4,8.16,9,5,14,-1.07,0.03,0.31,0,0,0,0,4,4,9.120807935007619,62.69073719188568,120,10272253,48,54,385,1875,3499,3872,3892,-1121,15557,36,212,15552,0,false,false,false,false,false,false,false,false,false,false,5535,5495,4619,4777,56,72,73,57,1529,1522,1421,1448,1522,1520,1432,1441,0.0,0.0,0.0,0.0,1671.7,1665.0,1665.6,1668.0,4.56,3.52,2.77,2.62,0,0,0,0,-173.09086725460867,9.120161485728964,62.69083763029918,0,590.8067,584.7648,-0.011470211,0.008687494,-0.9321039,0.9322149,4.5709925,-11.046767,3.472469,12.44922,-611,-206,1347,1493.0,-0.6017874,0.117033884,0.030614126,0.61382586,0.6130619750454748,1.2040514187811935,-1.3856004985040344,9.842978420307961,167.92115848957772,167.9211584895777,-268.58756072120343,-26.158327906262734,35.01236423062488,154.9506253321131,34.81860128346825,7012501.495777295,-161.8057486259585,-159.2928722286537,52.46,NONE,0.0,0.0,0.0,NONE,2.4048579043974652E-8,-5.735082136924182E-8,2.4414062E-4,2,51.13,49.41,37.5,40.81,16.857,16.857,6.007,7.35669,1677,3429,4.205,12.0,10.369,99,30.3,OK,80,0,0,0,0,0,65,100,0.0,0,0.0,-8.0758566E30,8.8E-44,0.0,-3.3654391E38,63,3.482215E-5,-5.872631E-8,3.1851476E-5,False,False,0,None,-1.2004503E-14,3.8559696E-17,
329254496,30.375,9.12015615706693,62.6908373042409,14,590.90594,589.04004,0.0014187382,0.01349816,-0.7624058,0.76252663,-1.4146066,-56.10068,2.293407,56.165356,-281,-209,1455,1496.0,0.10520947,-0.19892675,0.07686052,0.23779912,0.22503529675774034,0.08612113830752985,-2.2721439508298107,-4.902946482744907,167.2189136031623,167.21891360316226,-261.0652052381468,-29.66305007613149,-1.5733865076978608,159.530979872916,35.064662921280444,93.09011563006753,-55.3939498609748,-52.88107346367,52.85,18.042968824218747,,9.1201557,62.6908375,20190821,192732,2019-08-21T19:27:32Z,681.398,0.69,1.4,8.05,9,5,14,0.17,-0.27,0.1,0,6177,0,-4814,4,4,9.120807935007619,62.69073719188568,120,10272253,17,54,386,1875,3499,3872,3892,-1121,15557,36,0,15552,0,false,false,false,false,false,false,false,false,false,false,4975,5092,3927,4249,56,74,73,57,1451,1472,1345,1378,1442,1448,1352,1378,0.0,0.0,0.0,0.0,1687.0,1679.1,1678.5,1684.6,3.12,2.64,0.59,0.82,0,0,0,0,-173.81282727356242,9.12015557129339,62.69083695508488,0,590.96204,584.19354,-0.002649594,0.0123218475,-0.7281255,0.7282346,-6.81531,-52.13257,-4.45433,52.76452,-225,-209,1458,1489.0,0.02508124,-0.11183464,0.5712894,0.5826729,0.11461262752933794,0.1871557574743753,-2.7254498981745017,-7.429845869419292,167.63549535786566,167.6354953578657,-268.9123270727196,-27.740236960329984,19.90419954448857,161.332697934618,35.08070562387467,7012501.95255631,-89.56252909183169,-87.0496526945269,52.86,NONE,0.0,0.0,0.0,NONE,-1.52357459345541E-8,2.749755734418864E-9,0.0014648438,2,39.45,40.35,27.72,31.72,16.816,16.816,6.007,7.4660277,1652,3427,4.219,12.0,7.088,98,30.3,OK,81,0,0,0,0,0,65,100,0.0,0,0.0,-3.843649E30,8.8E-44,0.0,-3.3654391E38,63,2.0506792E-5,-4.684922E-8,3.9225688E-5,False,False,0,None,-1.35750786E-14,2.844104E-17,
