Tick#,offsetTime,IMU_ATTI(0):Longitude,IMU_ATTI(0):Latitude,IMU_ATTI(0):numSats,IMU_ATTI(0):barometer:Raw,IMU_ATTI(0):barometer:Smooth,IMU_ATTI(0):accel:X,IMU_ATTI(0):accel:Y,IMU_ATTI(0):accel:Z,IMU_ATTI(0):accel:Composite,IMU_ATTI(0):gyro:X,IMU_ATTI(0):gyro:Y,IMU_ATTI(0):gyro:Z,IMU_ATTI(0):gyro:Composite,IMU_ATTI(0):mag:X,IMU_ATTI(0):mag:Y,IMU_ATTI(0):mag:Z,IMU_ATTI(0):mag:Mod,IMU_ATTI(0):velN,IMU_ATTI(0):velE,IMU_ATTI(0):velD,IMU_ATTI(0):velComposite,IMU_ATTI(0):velH,IMU_ATTI(0):GPS-H,IMU_ATTI(0):roll,IMU_ATTI(0):pitch,IMU_ATTI(0):yaw,IMU_ATTI(0):yaw360,IMU_ATTI(0):totalGyro:Z,IMU_ATTI(0):totalGyro:X,IMU_ATTI(0):totalGyro:Y,IMU_ATTI(0):magYaw,IMU_ATTI(0):distanceHP,IMU_ATTI(0):distanceTravelled,IMU_ATTI(0):directionOfTravel[mag],IMU_ATTI(0):directionOfTravel[true],IMU_ATTI(0):temperature,General:relativeHeight,General:absoluteHeight,GPS(0):Long,GPS(0):Lat,GPS(0):Date,GPS(0):Time,GPS:dateTimeStamp,GPS(0):heightMSL,GPS(0):hDOP,GPS(0):pDOP,GPS(0):sAcc,GPS(0):numGPS,GPS(0):numGLNAS,GPS(0):numSV,GPS(0):velN,GPS(0):velE,GPS(0):velD,RC:Aileron,RC:Elevator,RC:Rudder,RC:Throttle,Controller:navHealth,Controller:ctrl_level,HP:Longitude,HP:Latitude,HP:rthHeight,BatBlackBox:tick,BatBlackBox:id,BatBlackBox:rsoc,BatBlackBox:index,BatBlackBox:rm,BatBlackBox:fcc,BatBlackBox:cell_min,BatBlackBox:cell_max,BatBlackBox:current,BatBlackBox:voltage,BatBlackBox:temp,BatBlackBox:flag,BatBlackBox:reserve,BatBlackBox:user_data,OA:avoidObst,OA:emergBrake,OA:radiusLimit,OA:airportLimit,OA:groundForceLanding,OA:horizNearBoundary,OA:vertLowLimit,OA:vertAirportLimit,OA:roofLimit,OA:hitGroundLimit,Motor:Speed:RFront,Motor:Speed:LFront,Motor:Speed:LBack,Motor:Speed:RBack,Motor:EscTemp:RFront,Motor:EscTemp:LFront,Motor:EscTemp:LBack,Motor:EscTemp:RBack,Motor:PPMrecv:RFront,Motor:PPMrecv:LFront,Motor:PPMrecv:LBack,Motor:PPMrecv:RBack,Motor:PPMsend:RFront,Motor:PPMsend:LFront,Motor:PPMsend:LBack,Motor:PPMsend:RBack,Motor:V_out:RFront,Motor:V_out:LFront,Motor:V_out:LBack,Motor:V_out:RBack,Motor:Volts:RFront,Motor:Volts:LFront,Motor:Volts:LBack,Motor:Volts:RBack,Motor:Current:RFront,Motor:Current:LFront,Motor:Current:LBack,Motor:Current:RBack,Motor:Status:RFront,Motor:Status:LFront,Motor:Status:LBack,Motor:Status:RBack,Motor:thrustAngle,IMU_ATTI(1):Longitude,IMU_ATTI(1):Latitude,IMU_ATTI(1):numSats,IMU_ATTI(1):barometer:Raw,IMU_ATTI(1):barometer:Smooth,IMU_ATTI(1):accel:X,IMU_ATTI(1):accel:Y,IMU_ATTI(1):accel:Z,IMU_ATTI(1):accel:Composite,IMU_ATTI(1):gyro:X,IMU_ATTI(1):gyro:Y,IMU_ATTI(1):gyro:Z,IMU_ATTI(1):gyro:Composite,IMU_ATTI(1):mag:X,IMU_ATTI(1):mag:Y,IMU_ATTI(1):mag:Z,IMU_ATTI(1):mag:Mod,IMU_ATTI(1):velN,IMU_ATTI(1):velE,IMU_ATTI(1):velD,IMU_ATTI(1):velComposite,IMU_ATTI(1):velH,IMU_ATTI(1):GPS-H,IMU_ATTI(1):roll,IMU_ATTI(1):pitch,IMU_ATTI(1):yaw,IMU_ATTI(1):yaw360,IMU_ATTI(1):totalGyro:Z,IMU_ATTI(1):totalGyro:X,IMU_ATTI(1):totalGyro:Y,IMU_ATTI(1):magYaw,IMU_ATTI(1):distanceHP,IMU_ATTI(1):distanceTravelled,IMU_ATTI(1):directionOfTravel[mag],IMU_ATTI(1):directionOfTravel[true],IMU_ATTI(1):temperature,IMUEX(0):err,IMUEX(0):rtk_Longitude,IMUEX(0):rtk_Latitude,IMUEX(0):rtk_Alti,IMUEX(1):err,IMUEX(1):rtk_Longitude,IMUEX(1):rtk_Latitude,IMUEX(1):rtk_Alti,MotorCtrl:Status,MotorCtrl:PWM:RFront,MotorCtrl:PWM:LFront,MotorCtrl:PWM:LBack,MotorCtrl:PWM:RBack,BattInfo:Voltage,BattInfo:BatVoltage,BattInfo:AdVoltage,BattInfo:AvgCurrent,BattInfo:R_time,BattInfo:R_CAP_MAH,BattInfo:LowCellVoltage,BattInfo:LowCellVolThreshold,BattInfo:BatCurrent,BattInfo:Remaining%,BattInfo:Temp,BattInfo:status,battery_info:BatDynCnt,battery_info:Vol1Protect,battery_info:Vol2Protect,battery_info:Cap1Protect,battery_info:Cap2Protect,battery_info:Batpresent,battery_info:sopPercentage,battery_info:sopValue,battery_info:sopScale,battery_info:sopFlg,BattInfo:WindHeading:WindDir,battery_info:home_dir,BattInfo:Wind:rangeMin,BattInfo:Wind:rangeMax,battery_info:cap_speed,battery_info:against_wind,battery_info:emergency_land_cap,battery_info:intel_bat_land_cap,battery_info:intel_bat_gh_cap,BattInfo:Smart:SmartGh,BattInfo:Smart:SmartLand,BattInfo:GoHome:CntDown,BattInfo:GoHome:GhCmd,BattInfo:GoHome:CapLevel,BattInfo:GoHome:LandCapLv,Attribute|Value,ConvertDatV3,3.6.6-Tablet
96882302,.000,10.400112906297139,63.42007609697784,19,-100.10164,-100.17803,0.07450583,0.026345637,-0.98438567,0.9875527,0.28976923,-0.04354164,-0.032590114,0.2948291,65,-360,1402,1448.0,-0.0057732277,-0.010321678,-3.426643E-4,0.011831509,0.011826545920469375,-0.011826545920469375,-1.5456471633048345,4.305159022721651,64.74492872444043,64.74492872444046,0.593397905721484,3.3547355385987783,-0.05864078457779214,62.067306291340685,1.1822294015631958,2.373561067572842,-177.06583270471697,-173.91037921924203,62.53,,,10.4001138,63.4200762,20190429,103154,2019-04-29T10:31:54Z,39.384,0.61,1.27,10.33,10,9,19,0.0,0.0,0.01,-9998,-9998,9997,-9998,5,5,10.400127998092433,63.42006788475574,50,7344,48,91,50,3353,3706,4249,4258,-1121,17012,30,212,17021,0,false,false,false,false,false,false,false,false,false,false,0,0,0,0,52,67,66,52,944,945,945,945,940,940,940,940,0.0,0.0,0.0,0.0,1686.4,1681.5,1681.5,1685.8,0.0,0.0,0.0,0.0,0,0,0,0,-45.0,10.400112919850475,63.42007555168252,0,-100.13863,-100.25886,0.07438104,0.02668104,-0.9848015,0.9879668,0.20845343,0.022962036,0.119142376,0.24119493,68,-360,1402,1449.0,-6.813737E-4,-3.2125897E-4,-2.40907E-5,7.5369613E-4,7.533109962195121E-4,-7.533109962195121E-4,-1.6313709025113092,4.607093241217568,63.41274013735575,63.41274013735574,0.47981268086417234,2.8814024792298794,-0.08292055079524027,60.478833663626425,1.1356028063672452,7104252.888435539,-139.70541279945755,-136.5499593139826,62.52,NONE,0.0,0.0,0.0,NONE,-8.376707682890267E-12,2.8646363716551555E-11,-1.5258789E-5,,,,,,16.967,16.967,6.056,1.2871841,0,3311,4.238,12.0,1.305,90,30.6,OK,22,0,0,0,0,0,65,100,0.0,0,0.0,1.3541464E-21,9.0E-44,0.0,-5.9807744E7,62,5.49322E-5,-5.4932443E-5,8.266492E-32,False,False,0,None,6.7899464E30,1.0842106E-19,Firmware Date| Oct 17 2018
100736278,1.002,10.400112735030758,63.42007625306094,19,-100.335754,-100.18493,0.07603029,0.026920654,-0.9843772,0.98767596,0.3674438,-0.31639868,0.09014304,0.49320263,71,-363,1408,1455.0,7.57808E-4,-0.010244228,0.0048552174,0.011361849,0.010272218680990753,0.009030935825049834,-1.5318548560416272,4.260806706643716,64.74475366807043,64.74475366807042,0.915698343587747,3.5703271130331453,0.14647532891652826,61.566555693805654,1.2010552200189109,2.407585036824371,-14.176556123093036,-11.02110263761811,62.84,-0.1407773945312556,,10.4001136,63.4200765,20190429,103155,2019-04-29T10:31:55Z,39.464,0.61,1.27,10.15,10,9,19,0.0,-0.01,0.01,0,0,0,0,5,5,10.400127998092433,63.42006788475574,50,7344,48,91,50,3353,3706,4249,4258,-1121,17012,30,212,17021,0,false,false,false,false,false,false,false,false,false,false,548,534,523,555,56,72,72,57,1330,1340,1336,1334,1322,1322,1322,1322,0.1,0.1,0.1,0.1,1667.4,1663.1,1663.1,1666.8,7.75,7.29,7.8,7.34,0,0,0,0,-94.96974072811031,10.400112843900551,63.42007579591825,0,-100.335754,-100.266426,0.07434318,0.025745712,-0.98471135,0.9878493,0.083428256,0.122883,-0.05697778,0.15908165,76,-363,1417,1464.0,0.0022981192,0.0021834215,0.009874188,0.010370548,0.0031699655141319517,0.024204792171090842,-1.5972678671106575,4.532719766055911,63.318558525239744,63.31855852523972,0.8717892637285423,2.9614295195947684,-0.5719225991037762,59.760212086351714,1.1585855654575057,7104252.941501334,138.7298822590718,141.88533574454672,62.85,NONE,0.0,0.0,0.0,NONE,2.2976112709463947E-10,1.0146702673299298E-10,4.5776367E-5,1,22.5,22.5,22.5,22.5,16.932,16.932,5.99,1.3326869,0,3310,4.238,12.0,3.562,90,30.6,OK,24,0,0,0,0,0,65,100,0.0,0,0.0,2.7225616E-21,9.0E-44,0.0,-5.9807744E7,62,5.49322E-5,-5.4932443E-5,8.819745E-32,False,False,0,None,7.777358E30,1.0842106E-19,ACType|MavicEnterprise
104712887,2.035,10.40011271816762,63.42007661925077,19,-100.335754,-100.18919,0.07531054,0.02621698,-0.9874602,0.99067485,0.919716,0.99989295,-0.4980925,1.4469829,74,-360,1408,1455.0,0.0071478626,0.0014578808,0.008578915,0.011261223,0.007295022579424242,0.03211182892548902,-1.5044824349704158,4.233146287619314,64.77052835697785,64.77052835697782,0.6522452634298919,4.063233955636222,1.0354196929208113,61.08143187241685,1.2333874906183422,2.4555480339139204,,,63.19,-0.1407773945312556,,10.4001135,63.4200766,20190429,103156,2019-04-29T10:31:56Z,39.477,0.61,1.27,9.99,10,9,19,-0.01,0.0,0.03,0,0,0,0,5,5,10.400127998092433,63.42006788475574,50,7401,16,91,52,3358,3711,4261,4271,-628,17036,29,0,16392,0,false,false,false,false,false,false,false,false,false,false,2053,2040,2165,2113,56,73,73,57,1205,1209,1214,1212,1200,1201,1206,1205,0.0,0.0,0.0,0.0,1682.8,1677.3,1676.6,1681.5,0.47,0.16,0.74,0.28,0,0,0,0,11.90426571549176,10.400112713474515,63.42007601890341,0,-100.335754,-100.35515,0.073949814,0.027141578,-0.9861694,0.9893105,-0.29711372,-0.6574582,0.4699832,0.8610529,74,-360,1411,1458.0,0.0072750133,0.0034971049,0.062678315,0.06319594,0.0080718994140625,0.016727172775074992,-1.5678200359933547,4.516917745795425,63.39976108748819,63.39976108748817,0.6920743670772693,3.1321749299730217,2.2253893316495144,59.98049513253864,1.1816877135048973,7104253.001437409,5.637606674424886,8.793060159899811,63.19,NONE,0.0,0.0,0.0,NONE,1.4336137212396195E-9,6.023768123463803E-10,4.272461E-4,2,10.0,10.2,10.93,10.71,16.839,16.839,6.045,1.5018421,0,3309,4.198,12.0,3.862,90,30.6,OK,25,0,0,0,0,0,65,100,0.0,0,0.0,5.253424E-21,9.0E-44,0.0,-5.9807744E7,62,5.49322E-5,-5.4932443E-5,9.124283E-32,False,False,0,None,8.320814E30,1.0842106E-19,dateTime|2019-4-29 10:31:37 GMT
108629395,3.053,10.400112807564263,63.420076442211226,19,-100.335754,-100.18993,0.04385688,0.033715013,-0.9680005,0.9695798,4.192188,0.786098,0.4538339,4.28933,85,-360,1408,1455.0,0.008015282,-0.0027646243,0.0037200106,0.009258854,0.008478673355410023,0.011348865723807992,-1.4460521699508637,3.7921668362001517,64.71593131258923,64.71593131258925,1.022938329140249,4.481523401352872,-0.19592505799209464,61.17398584472271,1.215174942886978,2.478417861535902,,,63.47,-0.1407773945312556,,10.4001135,63.4200766,20190429,103157,2019-04-29T10:31:57Z,39.484,0.61,1.27,9.86,10,9,19,0.0,0.0,0.01,0,0,0,0,5,5,10.400127998092433,63.42006788475574,50,7401,20,91,53,3358,3711,4261,4271,-628,17036,29,2,16392,0,false,false,false,false,false,false,false,false,false,false,3640,3644,3764,3679,54,71,71,55,1367,1377,1375,1370,1371,1378,1376,1372,0.0,0.0,0.0,0.0,1667.4,1663.1,1661.9,1667.4,3.39,3.06,3.27,2.75,0,0,0,0,29.237852236027436,10.400112716967426,63.42007593264384,0,-100.335754,-100.54941,0.051268496,0.025224525,-0.9722092,0.9738868,-1.5707183,5.5444393,1.7241845,6.0150456,82,-363,1408,1456.0,7.451204E-4,-0.039200936,0.1373252,0.14281274,0.03920801596199762,-0.02978335545684673,-1.5460649754062732,4.104506097810825,63.48549545289436,63.485495452894384,3.9005508110346936,3.4001578961664425,1.151037066720267,60.57686143433716,1.1742498784189477,7104253.012488856,,,63.46,NONE,0.0,0.0,0.0,NONE,-6.2490242660652E-9,5.408005332921221E-11,0.0012664795,2,30.22,30.36,30.17,30.15,16.891,16.891,6.006,1.764563,0,3308,4.226,12.0,2.401,90,30.6,OK,26,0,0,0,0,0,65,100,0.0,0,0.0,3.5922386E-21,9.0E-44,0.0,-5.9807744E7,62,5.49322E-5,-5.4932443E-5,9.09088E-32,False,False,0,None,8.2610834E30,1.0842106E-19,geoDeclination|316 degrees
112563188,4.075,10.400112990172454,63.420076629681766,19,-100.335754,-100.03444,-0.0054735737,0.010309181,-1.1812229,1.1812806,1.8099352,7.4098945,-7.40769,10.632792,217,-326,1408,1461.0,0.04503503,0.10963238,-0.87596816,0.88395,0.11852178336949193,-0.0962798088392144,0.67235762973906,0.08431880044642771,64.91823897048519,64.91823897048516,1.2449388262662475,6.993046793506374,-3.6006042142364465,57.39664369622153,0.03646289738543514,2.5099817260782795,51.696382928338934,54.851836413813864,63.77,-0.1407773945312556,,10.4001136,63.4200766,20190429,103158,2019-04-29T10:31:58Z,39.571,0.61,1.27,9.7,10,9,19,-0.07,0.04,-0.19,0,0,0,10000,5,5,10.400112346447466,63.420076472939165,50,7571,48,89,54,3294,3711,4230,4240,-1092,16947,30,212,16943,0,false,false,false,false,false,false,true,false,false,false,6085,6046,4983,5114,54,70,70,54,1567,1547,1446,1477,1553,1508,1431,1469,0.0,0.0,0.0,0.0,1657.6,1650.8,1650.8,1656.4,4.78,4.14,3.38,2.88,0,0,0,0,-175.22237122040372,10.400112857203844,63.420076070381974,0,-100.335754,-100.31371,-9.90413E-4,0.0028941762,-1.210107,1.2101108,0.34062666,22.97557,-6.0742865,23.76741,226,-326,1408,1462.0,0.04697253,0.081975766,-0.82889473,0.8342619,0.09447986392321515,-0.07801800072997661,0.5232621713185094,0.21842547470886037,63.78250729649513,63.78250729649511,4.827057021600291,6.85961862130381,-3.244605749488731,55.67577104607594,0.051472668940622975,7104253.04428403,49.997000532408535,53.152454017883464,63.78,NONE,0.0,0.0,0.0,NONE,-1.4719072691308189E-9,3.587488644994045E-10,-4.196167E-4,2,58.71,60.47,47.59,46.89,16.859,16.859,5.93,2.0637167,0,3307,4.213,12.0,4.9,90,30.6,OK,27,0,0,0,0,0,65,100,0.0,0,0.0,5.6899686E-21,2.69E-43,0.0,-5.9807744E7,62,5.49322E-5,-5.4932443E-5,1.00231604E-32,False,False,0,None,1.657002E29,1.0842106E-19,geoInclination|7479 degrees
116413078,5.076,10.400113542762078,63.42007636672389,18,-99.63593,-99.867714,-7.672043E-4,0.012058084,-0.9578405,0.9579167,-2.6399531,-3.573569,-3.0429876,5.3851204,243,-366,1389,1456.0,-0.03951945,0.012754749,0.23190966,0.23559831,0.041526747476977675,-0.001414320404200274,-0.8291359636304955,-0.04765148210152356,57.49434783652971,57.4943478365297,-5.052545943631724,4.593628966740273,-4.022524505497886,55.03722311480976,0.060681534550935536,2.6177534545089522,-37.515753293990954,-34.360299808516025,64.08,0.5590440776367132,,10.4001148,63.4200768,20190429,103159,2019-04-29T10:31:59Z,39.993,0.72,1.48,9.63,10,8,18,0.15,0.03,-0.27,0,0,0,0,5,5,10.400112346447466,63.420076472939165,50,7571,17,89,55,3294,3711,4230,4240,-1092,16947,30,0,16943,0,false,false,false,false,false,false,true,false,false,false,5696,5242,4582,4402,55,71,71,56,1555,1437,1518,1324,1534,1503,1477,1340,0.0,0.0,0.0,0.0,1652.7,1645.3,1647.2,1652.7,6.79,1.14,6.97,0.9,0,0,0,0,-172.0177361983748,10.400113687467874,63.42007570307364,0,-99.646454,-99.777695,-0.0024304648,0.008046952,-0.94395036,0.9439878,2.942136,0.13299787,1.2061229,3.182544,249,-366,1392,1460.0,-0.018122803,0.022825621,-0.080969654,0.08605539,0.029145239769509414,0.028912553485954753,-1.030930853352844,0.03922181159125088,56.6712121356341,56.67121213563411,-0.9270934264526232,9.96156109494149,-1.6376645047770992,53.749764975629226,0.10853522525670967,7104253.154851232,146.97967415757628,150.13512764305122,64.06,NONE,0.0,0.0,0.0,NONE,2.1001601352094163E-9,-8.243191330594571E-10,-4.5776367E-4,2,52.25,46.26,36.33,41.53,16.749,16.749,5.946,2.0637167,0,3307,4.213,12.0,4.9,90,30.6,OK,27,0,0,0,0,0,65,100,0.0,0,0.0,-1.5444803E-29,2.68E-43,0.0,1.05007105E-23,63,9.2988834E-5,-7.0909526E-5,1.1972412E-32,False,False,0,None,2.5267033E29,1.4245458E-19,geoIntensity|5185114 nanoTesla
120311395,6.089,10.40011542956422,63.42007742749556,18,-99.96929,-100.03858,-0.017097957,0.014464834,-1.0233421,1.0235871,-11.092996,0.9288816,-70.2863,71.16236,479,-161,1383,1472.0,-0.09902829,0.0030354997,0.14909133,0.1790085,0.09907480389843702,0.04971715529011127,-0.6961071416955811,0.1762723279999092,8.898180358429478,8.8981803584295,-51.90218107014284,6.907983562287169,-4.943999362717215,16.613110500836225,0.18653836139696553,2.7788915497272084,48.878226339395326,52.033679824870255,64.27,0.22568531298827565,,10.4001156,63.4200779,20190429,103200,2019-04-29T10:32:00Z,39.823,0.61,1.27,9.6,10,9,19,0.19,0.01,0.0,0,0,-9998,0,5,5,10.400112346447466,63.420076472939165,50,7571,17,89,55,3294,3711,4230,4240,-1092,16947,30,0,16943,0,false,false,false,false,false,false,true,false,false,false,5600,5584,4558,4907,54,70,71,55,1531,1535,1431,1477,1526,1527,1433,1464,0.0,0.0,0.0,0.0,1652.7,1647.8,1647.8,1652.1,4.36,4.02,3.28,3.23,0,0,0,0,-168.01226961131493,10.400115482380741,63.42007709469635,0,-99.74206,-99.85281,-0.014694399,0.018708892,-1.016545,1.0168234,-8.798756,6.4395137,-65.45072,66.35271,476,-167,1386,1474.0,0.029809117,0.018067421,-0.014200385,0.037638623,0.034857067989015625,0.14148488051169994,-0.901650530586485,0.04493546237281488,8.769029747706965,8.769029747706952,-45.754640438695674,10.637083016035987,-0.07253559625617745,16.9240095194672,0.170655776896458,7104253.334163121,33.13308760791898,36.2885410933939,64.26,NONE,0.0,0.0,0.0,NONE,1.4623337855339654E-9,2.020237810727103E-9,1.0681152E-4,2,51.19,51.81,39.24,41.66,16.725,16.725,5.935,2.4727633,0,3305,4.173,12.0,6.868,90,30.7,OK,28,0,0,0,0,0,65,100,0.0,0,0.0,3.7333459E-28,2.69E-43,0.0,1.05007105E-23,63,8.694455E-5,-6.788645E-5,1.5212312E-32,False,False,0,None,3.4877026E29,1.377959E-19,
124160359,7.089,10.400116468931524,63.42007733643949,19,-99.7898,-100.039894,-0.02700306,0.0057591703,-1.0118928,1.0122694,11.366124,1.2255434,-49.364727,50.671165,467,225,1411,1503.0,-0.1937087,0.076258585,-0.027375573,0.20997107,0.20817884836855585,-0.15550190571655192,-0.8431478683416805,0.08669123449237798,-51.05048301352348,308.9495169864765,-113.96300724971402,3.9938420787321336,-3.8734961771407193,-27.646401109048472,0.2264704500143176,2.878329398924778,143.3572934522223,146.51274693769724,64.47,0.40517444873046315,,10.4001154,63.4200778,20190429,103201,2019-04-29T10:32:01Z,39.637,0.67,1.38,9.56,10,8,18,0.01,-0.05,0.03,0,0,-9998,0,5,5,10.400112346447466,63.420076472939165,50,7738,48,89,56,3294,3711,4252,4257,-3,17003,30,212,4,0,false,false,false,false,false,false,true,false,false,false,5526,5553,4614,4889,56,71,71,55,1524,1538,1439,1460,1518,1529,1437,1452,0.0,0.0,0.0,0.0,1652.1,1647.2,1646.6,1652.7,4.34,3.96,3.36,3.0,0,0,0,0,-171.0572460515903,10.400116027257962,63.42007715043771,0,-100.281265,-99.99281,-0.024208669,0.004465989,-0.9828027,0.98311096,1.8758978,-2.6854427,-51.9685,52.07164,490,190,1411,1505.0,-0.0017097435,0.011578038,-0.027316717,0.029718298,0.011703597519651611,0.016096451260040626,-0.7067265370853664,-0.06980973827991668,-45.32173541086702,314.678264589133,-100.87261462673959,9.681549250047256,1.8450250747424457,-23.012461734132437,0.19802350341174538,7104253.404876284,-173.03158375631034,-169.8761302708354,64.41,NONE,0.0,0.0,0.0,NONE,9.824681570909087E-10,-7.817512012762958E-11,-1.5258789E-4,2,48.63,51.43,41.86,42.06,16.673,16.673,5.925,3.0561972,0,3303,4.171,12.0,7.243,90,30.7,OK,29,0,0,0,0,0,65,100,0.0,0,0.0,6.0210348E-30,2.69E-43,0.0,1.05007105E-23,63,7.32746E-5,-6.105241E-5,1.569417E-32,False,False,0,None,3.7025046E29,1.2726092E-19,
128079353,8.108,10.40011713268837,63.42007653615616,19,-99.996216,-99.98243,-0.022255188,-0.0030772625,-1.0037768,1.0040282,-9.477494,-1.7311957,-3.593084,10.282518,338,384,1408,1498.0,-0.23215884,0.09408769,-0.07085224,0.26032722,0.25049994071609494,-0.1573089547527178,-0.1439863825775145,-0.8616295625671925,-78.4020248256142,281.5979751743858,-141.55435318097867,4.852359213449641,-7.137624109281036,-50.73474069350791,0.23823690752956778,2.999472481973966,157.18415432589563,160.33960781137057,64.59,0.1987611796874944,,10.4001162,63.4200772,20190429,103202,2019-04-29T10:32:02Z,39.557,0.61,1.27,9.49,10,9,19,-0.02,-0.01,-0.01,0,0,0,0,5,5,10.400112346447466,63.420076472939165,50,7738,48,89,57,3294,3711,4252,4257,-3,17003,30,212,4,0,false,true,false,false,false,false,true,false,false,false,5564,5494,4882,4803,55,71,71,55,1531,1539,1457,1442,1526,1527,1445,1441,0.0,0.0,0.0,0.0,1651.5,1645.9,1645.3,1650.8,4.48,3.74,3.32,2.72,0,0,0,0,179.6244321703035,10.400116716065344,63.42007645851696,0,-100.08604,-99.96773,-0.019727053,-0.0013061855,-0.99802655,0.99822235,1.7541475,3.0068572,5.9659147,6.907269,338,387,1408,1498.0,-0.031934593,-0.0115333935,-0.04960579,0.060112994,0.033953459560950874,0.04873990309367454,0.1224591576635495,-1.1204424606435774,-79.91226826805126,280.08773173194874,-135.93537806554187,9.57948835008862,1.5274138054058273,-51.050663302478696,0.2174105593322455,7104253.503781554,171.09676628481856,174.2522197702935,64.6,NONE,0.0,0.0,0.0,NONE,-1.601147817234571E-9,-1.191902853984857E-9,-2.593994E-4,2,50.07,49.2,40.86,40.44,16.656,16.656,5.928,3.7636306,0,3301,4.158,12.0,7.464,90,30.7,OK,30,0,0,0,0,0,65,100,0.0,0,0.0,-3.7720033E30,2.68E-43,0.0,1.05007105E-23,63,7.5230375E-5,-6.2030296E-5,1.5733291E-32,False,False,0,None,3.7201065E29,1.2876639E-19,
131976865,9.121,10.400118535359816,63.420076161117365,19,-98.76518,-99.09539,-0.020781703,-0.0072015803,-0.759812,0.7601303,0.79211223,-5.854021,1.703064,6.1479616,332,375,1426,1511.0,-0.24905568,0.1793553,-2.4999154,2.518685,0.30691537878864367,-0.2266557738718935,-0.7517581637975149,-0.33063107559329746,-78.1670079611755,281.8329920388245,-138.71622247602383,5.908779512093084,-6.161766284404039,-50.56311894002758,0.30986727338215025,3.116035674586934,115.22690110500392,118.38235459047884,64.63,1.429794504882807,,10.4001163,63.4200764,20190429,103203,2019-04-29T10:32:03Z,40.173,0.67,1.38,9.4,10,8,18,-0.38,-0.02,-0.84,0,0,0,1861,5,5,10.400112346447466,63.420076472939165,50,7738,48,89,58,3294,3711,4252,4257,-3,17003,30,212,4,0,false,false,false,false,false,false,true,false,false,false,6906,6812,5908,5930,56,71,72,57,1677,1687,1591,1594,1675,1675,1584,1586,0.0,0.0,0.0,0.0,1620.8,1617.1,1616.5,1621.4,6.66,6.62,5.9,4.89,0,0,0,0,-176.46920471689415,10.40011712393743,63.4200760961462,0,-98.78633,-98.91857,-0.020605996,-0.006482294,-0.6876237,0.6879629,-4.472545,1.487103,1.747246,5.026729,338,378,1423,1510.0,-0.033087716,0.013997652,-2.183298,2.1835938,0.03592674674988659,0.008612079766393374,-0.47994427925839717,-0.6911605071697868,-79.86373824464802,280.136261755352,-133.59046002434968,9.8545974510991,5.321321510182931,-50.54948552953141,0.2413620461045336,7104253.623640639,-132.02252087317223,-128.8670673876973,64.65,NONE,0.0,0.0,0.0,NONE,-6.10302925192966E-10,-4.540581920895236E-10,-0.011459351,2,41.15,40.28,33.5,34.8,16.623,16.623,5.823,4.5077386,0,3299,4.155,12.0,7.343,90,30.7,OK,31,0,0,0,0,0,65,100,0.0,0,0.0,-5.9045006E18,2.68E-43,0.0,1.05007105E-23,63,1.3174117E-4,-8.786891E-5,1.9341777E-32,False,False,0,None,5.3301056E29,1.6859348E-19,
135893203,10.139,10.400117845577114,63.42007472677738,18,-98.025856,-98.20593,-0.01947016,-0.0075184926,-0.9826216,0.9828432,-7.2516546,4.0805683,-7.4300685,11.155422,347,387,1420,1512.0,-0.26242188,0.17982776,-0.007532716,0.31821376,0.31812460264169873,-0.1578418933593982,-0.5753128696964385,-0.5458263916256701,-78.09616873248314,281.90383126751686,-140.47333149421257,5.542011246067513,-7.455126573428372,-50.26790480087947,0.3354964434922473,3.44373782719655,-3.2829493910041654,-0.12749590552923987,64.78,2.169120981933588,,10.4001164,63.4200752,20190429,103204,2019-04-29T10:32:04Z,40.922,0.67,1.38,9.3,10,8,18,0.12,0.07,-0.68,0,0,0,0,5,5,10.400112346447466,63.420076472939165,50,7738,48,89,59,3294,3711,4252,4257,-3,17003,30,212,4,0,false,false,false,false,false,false,true,false,false,false,5204,5195,4626,4646,57,72,72,56,1500,1504,1441,1450,1491,1503,1448,1439,0.0,0.0,0.0,0.0,1649.0,1645.3,1645.3,1648.4,4.03,3.68,3.56,2.97,0,0,0,0,-178.52598844669325,10.400116809286448,63.42007445836618,0,-98.15267,-98.22155,-0.019491337,-0.0060430923,-0.9817489,0.98196095,-11.212483,-8.302565,-8.073919,16.11957,347,387,1417,1509.0,0.015888782,-0.020003274,0.018991066,0.03183151,0.02554573083132307,0.1540352467318385,-0.26429503791165365,-0.9452497257763034,-79.74107897109968,280.2589210289003,-134.03872506478524,8.893526323323224,3.610860772702043,-50.56912900781077,0.3154101989599219,7104253.869976569,-143.61219417450607,-140.45674068903114,64.75,NONE,0.0,0.0,0.0,NONE,-1.8883485718957173E-9,8.227125945408151E-10,9.1552734E-5,2,47.41,49.52,42.32,40.63,16.454,16.454,5.923,5.269615,0,3297,4.154,12.0,10.054,90,30.8,OK,32,0,0,0,0,0,65,100,0.0,0,0.0,8.2786036E24,2.68E-43,0.0,1.05007105E-23,63,4.550144E-4,-1.6258382E-4,2.5913735E-32,False,False,0,None,9.623243E29,2.882245E-19,
139807902,11.156,10.400118146129136,63.42007306394553,19,-98.084625,-98.257866,-0.018574508,0.0012777979,-1.0014981,1.0016712,-2.3473349,6.9164467,0.10844398,7.304723,358,387,1420,1514.0,-0.3388529,0.12940635,-0.04614447,0.36564547,0.3627220690363316,-0.1803947260872353,0.007812500966156438,-1.0846712373816805,-77.97594982712666,282.02405017287333,-142.89764391457408,3.9434519829196195,-8.987235429312147,-49.44091477513953,0.4763957927271959,3.6429109694397073,-178.7889882724162,-175.63353478694125,64.77,2.1103517558593694,,10.4001167,63.4200742,20190429,103205,2019-04-29T10:32:05Z,40.761,0.61,1.27,9.23,10,9,19,-0.03,0.01,-0.24,0,0,0,0,5,5,10.400112346447466,63.420076472939165,50,8198,16,89,60,3294,3711,4253,4258,0,17005,28,1,17546,0,false,false,false,false,false,false,true,false,false,false,5446,5452,4798,4903,55,73,73,55,1513,1524,1456,1470,1506,1524,1456,1454,0.0,0.0,0.0,0.0,1648.4,1642.3,1642.9,1647.2,4.1,3.86,3.46,3.25,0,0,0,0,-175.2720121811578,10.400117236586047,63.420073016192774,0,-98.01061,-98.303215,-0.019557927,0.002190751,-1.0002308,1.0004244,1.0164592,-4.6962423,1.7088917,5.0998225,361,387,1420,1515.0,-0.10212396,-0.012626442,-0.0042023645,0.10298733,0.10290155370105113,0.05609533798518675,0.20024168281334162,-1.3676849027982625,-79.65554217985343,280.34445782014654,-133.82543928526732,9.122407215570405,2.795091571495192,-49.4407897493141,0.4549048733480261,7104254.047843651,-171.85256532540112,-168.69711183992618,64.77,NONE,0.0,0.0,0.0,NONE,5.414941104091755E-10,-3.50850916745196E-9,1.373291E-4,2,48.03,49.59,41.96,42.29,16.646,16.646,5.922,5.9978504,0,3295,4.1,12.0,5.558,90,30.8,OK,33,0,0,0,0,0,65,100,0.0,0,0.0,4.4813337E-20,2.68E-43,0.0,1.05007105E-23,63,4.2515248E-4,-1.5511834E-4,3.3473762E-32,False,False,0,None,1.3316366E30,2.7671676E-19,
143735098,12.177,10.40011668056676,63.42007166923902,19,-98.03237,-98.2192,-0.01713627,-0.0022375863,-0.9783831,0.9785358,-2.8776193,7.3285556,1.3723934,7.9919887,352,390,1417,1511.0,-0.19853644,0.11302075,-0.05516268,0.23501772,0.22845220093187676,-0.060550085266073056,-0.030123895221114087,-0.9304484217906286,-78.12257466572935,281.87742533427064,-143.15665236176545,2.826874400881767,-7.065556950419636,-49.9078153747757,0.576032170083603,3.8286180308035354,-158.55278377493462,-155.3973302894597,64.84,2.1626054790039007,,10.4001153,63.4200722,20190429,103206,2019-04-29T10:32:06Z,40.56,0.61,1.27,9.12,10,9,19,-0.03,-0.02,-0.09,0,0,0,0,5,5,10.400112346447466,63.420076472939165,50,8198,18,89,61,3294,3712,4292,4296,3573,17153,28,1,17175,0,false,false,false,false,false,false,true,false,false,false,5438,5433,4799,4731,56,73,72,56,1515,1523,1455,1446,1510,1522,1457,1432,0.0,0.0,0.0,0.0,1646.6,1642.9,1642.9,1647.8,4.33,3.67,3.37,2.86,0,0,0,0,177.3102296768495,10.40011567752669,63.42007149520333,0,-97.947845,-98.257256,-0.014442246,-0.0035671112,-0.9811372,0.98125,3.8815243,-4.5324855,3.4626033,6.8992233,350,387,1420,1512.0,-0.027893959,-0.028874334,-0.031081878,0.05077286,0.04014723111058774,0.14215259987662215,-0.012417575918902813,-1.1077527891919319,-79.79749265189513,280.20250734810486,-133.8613814436419,10.154774673304123,1.8139426876826124,-50.21824693423114,0.577779119223747,7104254.240811053,-153.22453582801916,-150.06908234254422,64.84,NONE,0.0,0.0,0.0,NONE,-2.897142867575299E-9,-1.2542819806359636E-9,-1.5258789E-4,2,48.21,50.1,42.1,40.19,16.622,16.622,5.926,6.551617,0,3293,4.154,12.0,7.139,90,30.8,OK,34,0,0,0,0,0,65,100,0.0,0,0.0,-4.761329E-22,2.66E-43,0.0,1.05007105E-23,63,4.4198334E-4,-1.5932792E-4,4.1367066E-32,False,False,0,None,2.0360245E30,2.8320185E-19,
147584334,13.177,10.400115385029842,63.420070993025206,19,-98.11181,-98.18822,-0.023652634,-0.002363029,-0.9854527,0.98573935,-3.6015446,-10.301631,0.13999748,10.913951,352,387,1417,1510.0,-0.110479645,0.12595929,-0.014999252,0.16821556,0.1675455006051499,-0.06854678731344166,-0.10664245404386169,-1.195867219301237,-78.00945823489737,281.99054176510265,-139.96771345668097,5.338723343302105,-7.01682380910134,-50.39741139165335,0.6278130109989231,3.9630600242957237,160.19966861254528,163.35512209802022,64.9,2.0831682231445257,,10.4001145,63.4200712,20190429,103207,2019-04-29T10:32:07Z,40.352,0.61,1.27,9.05,10,9,19,-0.01,0.01,-0.03,0,0,0,0,5,5,10.400112346447466,63.420076472939165,50,8207,19,89,62,3301,3712,4265,4270,3,17122,28,1,17108,0,false,false,false,false,false,false,true,false,false,false,5361,5327,4726,4879,55,74,75,57,1505,1515,1459,1460,1497,1519,1460,1447,0.0,0.0,0.0,0.0,1647.8,1641.7,1641.1,1647.8,3.89,3.57,3.56,3.01,0,0,0,0,-170.20342049194647,10.400115151513468,63.420070662250026,0,-98.04839,-98.236626,-0.023395162,-0.0015848423,-0.99046963,0.99074715,-2.8245702,6.8622584,-0.7594149,7.459591,350,387,1417,1510.0,0.03163939,0.0098868925,-0.0039187786,0.03337901,0.03314817664241352,0.06306010463905634,0.12504060490068042,-1.3622274517974222,-79.63767065075402,280.362329349246,-134.06473561381475,11.401295108354223,0.699914603776506,-50.524325079497224,0.6610201413803634,7104254.355973,148.5788517054023,151.73430519087722,64.93,NONE,0.0,0.0,0.0,NONE,-3.4344484945314883E-10,6.901897409435802E-10,-6.866455E-5,2,47.54,50.02,42.64,41.11,16.621,16.621,5.916,6.9198613,0,3291,4.147,12.0,7.022,90,30.8,OK,35,0,0,0,0,0,65,100,0.0,0,0.0,1.01758482E18,2.66E-43,0.0,1.05007105E-23,63,4.4961274E-4,-1.6123154E-4,4.6787505E-32,False,False,0,None,2.5197109E30,2.8613338E-19,
151560899,14.211,10.400115271374789,63.42006985802132,19,-97.90126,-98.19094,-0.018888839,0.0035745688,-0.99332255,0.9935086,8.68438,6.9510016,11.154545,15.753056,341,378,1420,1508.0,-0.10073578,0.04570254,-0.017428476,0.11198291,0.11061835320219049,0.011620969295829106,-0.20062039554813593,-0.9724610315897259,-78.18738419728354,281.81261580271644,-142.24761634858308,3.4687057653353213,-5.757045275806273,-50.3952628731472,0.7498031082614115,4.091084013906964,-164.17899668239465,-161.02354319691972,64.94,2.293716624023432,,10.4001144,63.4200704,20190429,103208,2019-04-29T10:32:08Z,40.105,0.61,1.27,8.96,10,9,19,0.0,-0.01,0.0,0,0,0,0,5,5,10.400112346447466,63.420076472939165,50,8228,16,89,63,3301,3712,4257,4262,0,17023,28,1,17546,0,false,false,false,false,false,false,true,false,false,false,5502,5411,4827,4807,57,73,74,57,1522,1524,1455,1462,1514,1517,1454,1453,0.0,0.0,0.0,0.0,1647.2,1641.7,1641.1,1645.9,4.05,3.79,3.56,2.98,0,0,0,0,-176.8226509687547,10.400115100891641,63.42006958464358,0,-98.0757,-98.23679,-0.017828515,-0.0060528684,-0.9944616,0.9946398,-0.09773745,-0.81915396,0.1666451,0.84162724,338,378,1423,1510.0,0.016657768,-0.039158713,0.0014094615,0.04257784,0.042554505822816543,0.07341243238154958,-0.08971972106836404,-0.9531688740279448,-79.73392865049117,280.2660713495088,-132.75271745614617,12.419956896507015,1.1523975418990562,-50.42331677998701,0.7781069865106327,7104254.487139129,-159.58236195873545,-156.4269084732605,64.91,NONE,0.0,0.0,0.0,NONE,-3.867643585369159E-9,7.73987021228307E-10,1.5258789E-5,2,48.38,49.34,42.02,42.11,16.615,16.615,5.911,7.164822,0,3289,4.147,12.0,6.934,90,30.9,OK,36,0,0,0,0,0,65,100,0.0,0,0.0,0.064798355,2.66E-43,0.0,1.05007105E-23,63,4.492402E-4,-1.6114213E-4,5.792424E-32,False,False,0,None,3.7224857E30,2.8600103E-19,
155419730,15.214,10.40011456518128,63.420069346086564,19,-97.92246,-98.1764,-0.015349616,-0.0018041614,-0.9919389,0.9920593,-3.5599082,0.48695704,-2.494872,4.374295,335,384,1414,1503.0,-0.07922588,0.04471316,-0.0035385964,0.09104136,0.09097256255702954,-0.024270645882613573,0.172280318403473,-0.6653602484540843,-78.07049633238601,281.929503667614,-142.45410617878656,4.292721769423935,-9.377076323964694,-50.008957606873565,0.8001215328599063,4.190194312197737,-177.07628902129426,-173.92083553581932,64.98,2.272514536621088,,10.4001137,63.4200697,20190429,103209,2019-04-29T10:32:09Z,39.937,0.61,1.27,8.88,10,9,19,-0.01,-0.02,0.01,0,0,0,0,5,5,10.400112346447466,63.420076472939165,50,8228,18,89,64,3303,3713,4297,4300,3572,17172,28,1,17195,0,false,false,false,false,false,false,true,false,false,false,5388,5418,4732,4919,56,73,73,57,1508,1529,1452,1471,1505,1520,1444,1461,0.0,0.0,0.0,0.0,1645.9,1641.1,1642.9,1647.2,3.94,3.78,3.58,2.98,0,0,0,0,-172.25918595934576,10.400114352715647,63.42006891141512,0,-97.880165,-98.21877,-0.020038107,0.0012240047,-0.99486345,0.995066,4.5433245,-7.5610194,6.6070194,11.021049,329,384,1420,1507.0,0.0131252,-0.01948728,0.00703576,0.024526045,0.023495210684895452,0.05986759890870544,0.2565214432648731,-0.8477731594070669,-79.62043846792237,280.3795615320776,-134.6007927873829,11.17236991409204,1.3825574881909524,-50.80601032261696,0.8467075995848348,7104254.585041304,-167.63470906637696,-164.47925558090202,64.96,NONE,0.0,0.0,0.0,NONE,-3.3913681046649002E-9,1.887446727204413E-10,-2.2888184E-5,2,48.2,48.66,40.38,43.34,16.605,16.605,5.91,7.3078837,0,3287,4.146,12.0,7.07,90,30.9,OK,37,0,0,0,0,0,65,100,0.0,0,0.0,-4.1832702E29,2.65E-43,0.0,-3.3654391E38,63,4.5571476E-4,-1.6275891E-4,6.701523E-32,False,False,0,None,4.5337233E30,2.884892E-19,
159317404,16.227,10.400114140848185,63.42006857258646,18,-98.033485,-98.17386,-0.023400975,-0.0013374481,-0.98785406,0.98813206,-1.3938746,-3.4372005,1.4092978,3.9677896,347,375,1420,1509.0,-0.04245104,0.049394798,0.007968355,0.06561579,0.0651301530791766,0.022296865284575737,-0.40696202079181565,-1.4179220519336797,-78.4144453656445,281.5855546343555,-136.6422167325835,6.030446959331971,-10.630896488170011,-51.00053621287724,0.8830040627259195,4.283500843757768,-176.8529299025132,-173.69747641703827,64.96,2.161491587402338,,10.4001131,63.4200688,20190429,103210,2019-04-29T10:32:10Z,39.764,0.67,1.38,8.82,10,8,18,-0.02,0.01,0.01,0,0,0,0,5,5,10.400112346447466,63.420076472939165,50,9374,114,99,65,3713,3713,4386,4389,326,17562,27,3677,17596,0,false,false,false,false,false,false,true,false,false,false,5381,5300,4803,4793,56,74,74,56,1511,1518,1461,1456,1505,1503,1460,1452,0.0,0.0,0.0,0.0,1645.3,1640.5,1640.5,1644.7,4.02,3.64,3.53,2.89,0,0,0,0,-176.2560288619308,10.40011401736581,63.4200681354858,0,-97.9225,-98.20926,-0.02331304,-0.001513565,-0.98873454,0.9890105,0.019314041,-5.6691327,0.28803343,5.676478,347,375,1420,1509.0,0.02233744,0.006078085,0.016894106,0.028658597,0.023149608455550637,0.06360154311663842,-0.3227861854037329,-1.44723162687881,-79.84958210524434,280.15041789475566,-132.14316720869525,14.73094185703096,2.681474497584086,-50.915438221801644,0.9308025106043307,7104254.678113574,179.84292298644948,-177.00162352807558,64.97,NONE,0.0,0.0,0.0,NONE,5.169622326760581E-10,1.1220268391785103E-9,4.5776367E-5,2,49.29,47.7,41.83,41.69,16.603,16.603,5.912,7.375606,0,3285,4.144,12.0,6.961,90,30.9,OK,38,0,0,0,0,0,65,100,0.0,0,0.0,-5.3184124E-12,2.65E-43,0.0,-3.3654391E38,63,4.594773E-4,-1.637014E-4,7.78531E-32,False,False,0,None,5.9311255E30,2.8994503E-19,
163260734,17.251,10.400113124050828,63.420067530892005,19,-98.108406,-98.17645,-0.026177984,-0.0015796637,-0.99598724,0.99633247,9.276959,9.472152,5.8667746,14.498367,352,381,1414,1506.0,-0.032111146,0.008484283,0.0085450765,0.03429471,0.033213080989176566,0.0901184346649549,0.06000665845678931,-1.640736770577175,-78.42638309099621,281.5736169090038,-135.08375209299473,8.586369175321082,-8.952444136986749,-50.63446972837531,0.9950626818309102,4.4113864126334335,-143.99186372748454,-140.8364102420096,64.99,2.086570933105463,,10.4001121,63.4200679,20190429,103212,2019-04-29T10:32:12Z,39.613,0.61,1.27,8.75,10,9,19,-0.02,-0.01,0.02,0,0,0,0,5,5,10.400112346447466,63.420076472939165,50,9763,48,99,66,3701,3701,4391,4393,161,17547,27,212,17549,0,false,false,false,false,false,false,true,false,false,false,5398,5362,4878,4798,58,75,75,58,1515,1516,1459,1461,1509,1508,1459,1455,0.0,0.0,0.0,0.0,1644.7,1638.6,1640.5,1643.5,4.12,3.61,3.6,3.04,0,0,0,0,177.67561702905184,10.400112814760396,63.420067305281364,0,-98.060814,-98.204926,-0.026391847,-0.0071906317,-0.99226505,0.992642,-2.4687104,-4.7899437,-9.5715885,10.984234,352,381,1417,1508.0,0.010773636,-0.011547844,0.017674606,0.023702651,0.01579316180370899,0.09154848224989055,0.015501789610615867,-1.6993897771292996,-79.77224588579985,280.22775411420014,-133.5917217165716,14.161230561689644,-0.38060882043240635,-50.854571301719325,1.0196632884384438,7104254.810190638,-146.69471199609666,-143.53925851062172,64.99,NONE,0.0,0.0,0.0,NONE,-6.396210774826872E-10,1.9704408333807798E-10,1.8310547E-4,2,48.06,48.6,42.66,41.61,16.601,16.601,5.912,7.387439,0,3283,4.142,12.0,6.937,90,30.9,OK,39,0,0,0,0,0,65,100,0.0,0,0.0,-4.9151734E-19,2.63E-43,0.0,-3.3654391E38,63,4.6104193E-4,-1.6409256E-4,8.9107756E-32,False,False,0,None,7.939838E30,2.9054722E-19,
167159463,18.265,10.400112092111106,63.42006731217884,19,-97.792145,-98.16955,-0.025661703,-0.008954534,-0.9964747,0.9968453,2.0247555,-0.62915164,2.442949,3.2347283,332,381,1414,1501.0,-0.013262111,-0.030721411,0.006895897,0.034164924,0.03346174859340429,0.022606099911719954,-0.08252168953082874,-0.8987506739515433,-78.344519721944,281.655480278056,-130.51670140557414,13.649443123819802,-4.8381971957828185,-51.03507838658905,1.0187086684787554,4.51420587725213,179.07005863207155,-177.7744878824535,64.97,2.4028322246093694,,10.4001119,63.4200674,20190429,103212,2019-04-29T10:32:12Z,39.54,0.61,1.27,8.7,10,9,19,0.01,-0.02,0.02,0,0,0,0,5,5,10.400112346447466,63.420076472939165,50,9763,48,99,67,3701,3701,4391,4393,161,17547,27,212,17549,0,false,false,false,false,false,false,true,false,false,false,5307,5465,4841,4875,57,74,74,58,1503,1520,1466,1473,1494,1509,1465,1469,0.0,0.0,0.0,0.0,1644.7,1638.6,1640.5,1644.1,3.77,3.82,3.63,3.0,0,0,0,0,173.30275567105417,10.400112299858492,63.4200668400099,0,-97.971825,-98.19765,-0.025023585,-0.0113333445,-0.99700063,0.997379,-11.035843,3.336521,-12.859989,17.271408,332,381,1414,1501.0,0.016487587,-0.036038257,0.018718617,0.043829024,0.039630753115488554,0.017344830042866702,-0.016914294778158496,-0.9217641640156033,-79.60898152362526,280.3910184763747,-137.9035523964544,12.869780391349998,-0.012111349186116269,-50.96863004058038,1.0711353704704425,7104254.902959556,-136.20313934124297,-133.04768585576804,64.98,NONE,0.0,0.0,0.0,NONE,-7.661691057340913E-9,1.4772951770063433E-9,2.1362305E-4,2,47.57,51.04,41.5,40.48,16.598,16.598,5.914,7.359926,0,3281,4.142,12.0,6.967,89,30.9,OK,40,0,0,0,0,0,65,100,0.0,0,0.0,-1.7402806E25,8.3E-44,0.0,-3.3654391E38,63,4.6394765E-4,-1.6481527E-4,9.61043E-32,False,False,0,None,9.188455E30,2.9165895E-19,
171008352,19.265,10.400112704501922,63.42006647521614,19,-97.96622,-98.16911,-0.023982063,-0.0013034819,-0.9918191,0.99210984,6.7890387,6.865292,10.439694,14.220075,341,398,1417,1510.0,-0.004405589,-0.017621696,0.014921403,0.023507055,0.018164067883644535,0.07973230832212208,0.8028069789884011,-1.1443977619327348,-78.42127410478155,281.57872589521844,-128.1267527963687,15.831910230153209,-2.6067869782544535,-50.42471260780246,1.1118388055387365,4.6182216228298145,169.83114493982208,172.98659842529702,64.97,2.2287599589843694,,10.400112,63.4200666,20190429,103213,2019-04-29T10:32:13Z,39.499,0.61,1.27,8.66,10,9,19,-0.02,-0.01,0.01,0,0,0,0,5,5,10.400112346447466,63.420076472939165,50,9763,48,99,68,3701,3701,4391,4393,161,17547,27,212,17549,0,false,false,false,false,false,false,true,false,false,false,5316,5331,4753,4912,58,74,74,58,1488,1512,1454,1461,1479,1494,1441,1447,0.0,0.0,0.0,0.0,1647.2,1639.8,1639.2,1645.9,3.76,3.7,3.48,3.06,0,0,0,0,-171.65763155123818,10.400112760173585,63.42006601909518,0,-98.167046,-98.19119,-0.02267838,-0.008006087,-0.98716503,0.98745793,2.0627973,-3.8461554,1.0474312,4.4883356,341,395,1417,1510.0,0.0074587734,-0.013595649,0.016110273,0.022361035,0.015507255348711581,0.07857446365226559,0.7843599730357325,-1.079596466026535,-79.60306253308418,280.3969374669158,-139.65725838994535,13.314034322348098,0.9588366423386595,-50.0891857247341,1.162596658392112,7104255.005709745,163.7857587692045,166.94121225467944,64.96,NONE,0.0,0.0,0.0,NONE,-2.943812512709483E-9,-1.0280560846828584E-10,9.1552734E-5,2,40.0,39.41,31.99,35.38,16.588,16.588,5.91,7.3104343,0,3279,4.139,12.0,6.983,89,30.9,OK,41,0,0,0,0,0,65,100,0.0,0,0.0,-1.11937086E27,2.62E-43,0.0,-3.3654391E38,63,4.6610087E-4,-1.6535544E-4,1.1613436E-31,False,False,0,None,1.2256844E31,2.9249274E-19,
174876774,20.270,10.400112986982197,63.42006597433385,19,-97.559296,-98.426735,-0.009264035,-0.009071339,-0.93998176,0.94007117,2.2912903,-4.061255,5.195618,6.9812784,327,387,1417,1504.0,0.008779721,-0.048650354,0.5845182,0.586605,0.04943622536890867,0.007697559066421514,0.5275288913932629,-1.027442371758535,-78.55816814090429,281.4418318590957,-128.75982782331644,14.85474589543661,-5.34239096224462,-51.12352278704827,1.1678265675310697,4.687671217352094,-145.41437323973318,-142.25891975425824,64.98,2.6356813457031194,,10.4001124,63.4200663,20190429,103214,2019-04-29T10:32:14Z,39.245,0.61,1.27,8.63,10,9,19,0.05,0.01,0.21,0,0,0,-4645,5,5,10.400112346447466,63.420076472939165,50,9763,48,99,69,3701,3701,4391,4393,161,17547,27,212,17549,0,false,false,false,false,false,false,true,false,false,false,5380,5257,4690,4909,58,75,75,58,1535,1530,1463,1494,1528,1549,1487,1487,0.0,0.0,0.0,0.0,1633.7,1633.7,1634.3,1635.5,4.89,4.56,3.92,3.52,0,0,0,0,-161.76399405643866,10.400113129343607,63.4200656683982,0,-97.707275,-98.443436,-0.0103841275,-0.0063309576,-0.9173654,0.917446,1.6792482,-3.092635,-2.0010662,4.048275,327,384,1420,1506.0,0.010420346,-0.02538302,0.59700185,0.5976321,0.027438682288595324,0.015435342396140816,0.5166189235525136,-0.9277382954011534,-79.68809970272899,280.311900297271,-134.2222334038198,16.712708588342114,0.5373677898195568,-50.69055027801945,1.2020414224977707,7104255.089790374,160.2743509382384,163.42980442371334,65.0,NONE,0.0,0.0,0.0,NONE,-5.267749102259493E-9,1.2510693298577942E-9,0.004119873,2,58.92,59.75,49.74,51.48,16.638,16.638,5.925,7.247247,0,3275,4.137,12.0,6.743,89,31.0,OK,42,0,0,0,0,0,65,100,0.0,0,0.0,-6.4539795,2.63E-43,0.0,-3.3654391E38,63,3.9411336E-4,-1.4735856E-4,1.2038946E-31,False,False,0,None,1.301663E31,2.6475242E-19,
178767109,21.281,10.400112246277414,63.42006460522005,19,-98.10844,-98.53978,-0.019243319,0.0112794405,-1.0014609,1.0017093,-25.04713,-4.482181,8.865818,26.945341,352,101,1462,1507.0,-0.44433346,-0.13559388,-0.012032551,0.46471786,0.46456206626569047,-0.3096431251794552,-13.011898775152083,-1.101436653364459,-78.77636319333276,281.22363680666723,-127.7659964590999,3.4998809041050833,-6.496941015286628,-52.762713624384546,1.3196395672108723,4.871356185392629,-162.0178330949809,-158.86237960950595,65.04,2.086540415527338,,10.4001108,63.4200651,20190429,103215,2019-04-29T10:32:15Z,39.091,0.61,1.27,8.61,10,9,19,-0.26,-0.13,0.09,-6917,0,0,0,5,5,10.400112346447466,63.420076472939165,50,9764,19,100,70,3701,3701,4387,4390,83,17563,27,1,17137,0,false,false,false,false,false,false,true,false,false,false,5395,5481,4872,4857,58,75,74,58,1527,1540,1460,1471,1522,1527,1447,1467,0.0,0.0,0.0,0.0,1641.1,1637.3,1636.7,1640.5,4.27,3.95,3.68,3.16,0,0,0,0,174.96775402617908,10.400112104946292,63.42006446718734,0,-98.192924,-98.57853,-0.022276154,0.007166587,-1.0055714,1.0058435,-28.703836,5.816984,6.6641517,30.035954,355,127,1459,1506.0,-0.42142624,-0.08040374,-0.006634489,0.4290791,0.42902777918216706,-0.2876321192194434,-12.513930854546023,-0.9377228056100897,-79.42508903172074,280.57491096827926,-135.94630499524865,-2.1631729125011283,2.0417718904957614,-52.96327903708041,1.3350327660974268,7104255.287172972,-170.88906477370463,-167.7336112882297,65.02,NONE,0.0,0.0,0.0,NONE,-1.1203240733497705E-8,-2.7241011435086264E-8,-7.6293945E-6,2,49.11,50.0,42.76,45.04,16.517,16.517,5.906,7.1816773,0,3273,4.145,12.0,7.273,89,31.0,OK,43,0,0,0,0,0,65,100,0.0,0,0.0,8642304.0,8.4E-44,0.0,-3.3654391E38,63,3.2176077E-4,-1.2927227E-4,1.4042515E-31,False,False,0,None,1.659211E31,2.3687312E-19,
182653056,22.291,10.400093218845969,63.42005212025452,19,-98.0896,-98.497665,-0.040094852,0.057796616,-1.0178729,1.0203006,9.573842,1.9757723,1.5306532,9.894697,370,-17,1432,1479.0,-2.3737414,-1.5792222,0.012417586,2.8510957,2.851068490491869,-1.187281648391261,-14.865691344788384,-2.1568708285259457,-56.56499192567089,303.4350080743291,-126.48803746845564,3.2789964282783526,-7.59897115747035,-47.866609334341724,2.8702560311440526,6.573001793592097,-149.61068047308052,-146.45522698760558,65.02,2.1053773906249944,,10.4000937,63.4200536,20190429,103216,2019-04-29T10:32:16Z,39.055,0.61,1.27,8.58,10,9,19,-2.08,-1.4,0.04,-6777,0,0,0,5,5,10.400112346447466,63.420076472939165,50,9765,114,100,71,3701,3701,4386,4389,0,17530,27,3713,697,0,false,false,false,false,false,false,true,false,false,false,5775,5389,4832,5149,58,74,74,58,1548,1533,1471,1484,1543,1523,1460,1473,0.0,0.0,0.0,0.0,1639.2,1634.9,1635.5,1641.1,4.42,3.8,3.51,3.13,0,0,0,0,-149.27902074169333,10.400097260414888,63.420051701980725,0,-98.07789,-98.55167,-0.04009478,0.05506631,-1.014019,1.0163044,-4.994426,-3.8105898,-9.649408,11.514163,370,-19,1426,1473.0,-2.741702,-0.8260672,0.016414357,2.863492,2.863444949436708,-1.27911306869153,-14.944299720517131,-1.9310992063784176,-72.64273658689993,287.3572634131001,-137.15811974914826,-5.200955317759471,2.569376942403552,-47.229294511984634,2.8548425630065837,7104256.927073536,-161.23938342755474,-158.0839299420798,65.04,NONE,0.0,0.0,0.0,NONE,-6.895339810791291E-8,-1.1237296167572681E-7,7.6293945E-5,2,52.42,50.63,42.76,43.4,16.538,16.538,5.897,7.137681,0,3271,4.109,12.0,7.341,89,31.0,OK,44,0,0,0,0,0,65,100,0.0,0,0.0,-9.2414427E-35,8.7E-44,0.0,-3.3654391E38,63,3.3482164E-4,-1.3253563E-4,1.36705545E-30,False,False,0,None,8.9448595E32,2.41909E-19,
186504943,23.293,10.400071943364072,63.42003794701403,19,-98.49547,-98.481865,-0.026783196,0.013679742,-1.0071362,1.0075852,-13.2998705,11.511188,9.995926,20.231474,456,621,1289,1501.0,-0.39640978,-0.22628121,-0.036322337,0.45788997,0.456447048616515,1.439975168302333,9.289894538761839,-3.916956174592653,-46.066337248729546,313.93366275127045,-118.51933740886464,26.082379326028516,-6.235281672391304,-48.25657973422905,4.732083267167941,8.473141282953494,-159.64841155682277,-156.49295807134783,64.95,1.699508860351557,,10.4000714,63.4200378,20190429,103217,2019-04-29T10:32:17Z,38.971,0.61,1.27,8.57,10,9,19,-0.7,-0.42,0.02,0,0,1332,0,5,5,10.400112346447466,63.420076472939165,50,83169,48,100,72,3697,3698,4374,4377,0,17478,22,212,3,0,false,false,false,false,false,false,true,false,false,false,5403,5481,4654,5083,60,75,75,59,1516,1531,1460,1474,1509,1524,1456,1465,0.0,0.0,0.0,0.0,1639.8,1636.1,1635.5,1639.8,4.16,3.38,3.77,2.89,0,0,0,0,-162.98506713065473,10.400069979251342,63.420037118240444,0,-98.309944,-98.60759,-0.02431027,0.0061685657,-0.99543005,0.99574596,-30.579412,10.098012,-10.02423,33.72767,447,580,1316,1506.0,-0.37636644,-0.21478923,-0.01746249,0.43369463,0.4333429384389711,1.6790881635344808,6.940955139113252,-3.2673099343057994,-48.903783458359065,311.09621654164096,-129.0573521951402,24.93537193912202,6.066275292934259,-48.56600821963543,4.8572732391593005,7104259.11033088,169.50339311410585,172.65884659958078,64.93,NONE,0.0,0.0,0.0,NONE,-2.2674514778973883E-8,-1.8014542270665417E-8,-9.1552734E-5,2,50.38,48.23,40.55,43.86,16.556,16.556,5.894,7.130497,0,3269,4.131,12.0,7.643,89,31.0,OK,45,0,0,0,0,0,65,100,0.0,0,0.0,-2.1526435E26,8.7E-44,0.0,-3.3654391E38,63,3.0956417E-4,-1.2622126E-4,6.3455943E-29,False,False,0,None,6.5270822E35,2.3217473E-19,
190363860,24.295,10.400069362394715,63.42003587169894,19,-98.149,-98.51231,-0.027590005,0.015729066,-1.0201827,1.020677,53.388138,-3.9022985,0.18233232,53.530872,430,34,1438,1501.0,-0.51612425,-0.45915473,0.020300098,0.6911001,0.6908019275068507,-0.42748219249905856,-9.475918748040797,-1.5222202274109282,-46.73885566567189,313.2611443343281,-121.55173227427278,2.3037819641822863,-4.046107305329915,-34.563982329661336,4.995574536188516,8.747146405966085,-138.48292053795865,-135.3274670524837,64.91,2.045974924804682,,10.4000697,63.4200364,20190429,103218,2019-04-29T10:32:18Z,38.911,0.61,1.27,8.56,10,9,19,-0.24,-0.22,0.02,-542,5506,0,0,5,5,10.400112346447466,63.420076472939165,50,83169,48,100,73,3697,3698,4374,4377,0,17478,22,212,3,0,false,false,false,false,false,false,true,false,false,false,5481,5454,4938,4872,57,74,74,58,1527,1527,1468,1471,1516,1507,1458,1469,0.0,0.0,0.0,0.0,1640.5,1635.5,1635.5,1639.8,4.38,3.57,3.64,2.98,0,0,0,0,178.01454141548308,10.400067943619362,63.42003537570757,0,-98.129585,-98.56207,-0.018362954,0.013778535,-0.9669402,0.96721274,49.345425,-20.332195,2.3234472,53.420666,433,127,1456,1524.0,-0.53926486,-0.50109625,-0.010855593,0.7362214,0.7361413126773807,-0.5181425163309261,-5.293207637977019,-1.7312328876204757,-45.95125341648451,314.0487465835155,-130.45011504242166,9.516650031415915,7.379115924632188,-33.81286996935277,5.075795359913455,7104259.519196225,-175.45654981142354,-172.3010963259486,64.94,NONE,0.0,0.0,0.0,NONE,-2.8686586845188412E-8,-1.3713840626103795E-8,3.0517578E-5,2,48.13,45.07,42.44,46.38,16.55,16.55,5.89,7.1638865,1641,3267,4.129,12.0,7.787,89,31.0,OK,46,0,0,0,0,0,65,100,0.0,0,0.0,-3.687519E25,8.7E-44,0.0,-3.3654391E38,63,3.3015758E-4,-1.3136961E-4,1.8990982E-28,False,False,0,None,4.738052E36,2.4011567E-19,
194261190,25.308,10.400046803806658,63.420034788373314,19,-98.35221,-98.49952,-0.058936168,0.026312381,-1.0337167,1.0357296,-16.302158,-18.699642,-14.712033,28.842346,689,338,1310,1518.0,0.39317656,-1.593228,0.00940187,1.641052,1.6410250221497336,-0.5265792892011134,-1.2221226348707364,-14.435580777901066,-46.831532615588024,313.168467384412,-123.53819979824812,9.498243253539169,-16.847108899564894,-46.885128935739345,5.667303438239935,9.944538766724596,-82.70138916826089,-79.54593568278597,65.0,1.8427660014648382,,10.4000509,63.4200344,20190429,103219,2019-04-29T10:32:19Z,38.851,0.61,1.27,8.52,10,9,19,0.11,-1.39,0.03,-2622,6486,0,0,5,5,10.400112346447466,63.420076472939165,50,83169,48,100,74,3697,3698,4374,4377,0,17478,22,212,3,0,false,false,false,false,false,false,true,false,false,false,5468,5176,4934,5157,59,75,75,59,1523,1519,1480,1498,1518,1506,1464,1487,0.0,0.0,0.0,0.0,1638.0,1634.3,1633.7,1638.0,4.32,3.64,3.7,3.52,0,0,0,0,-137.0377542534758,10.400047709114547,63.42003416633561,0,-98.40802,-98.60228,-0.059314568,0.032221097,-1.0375466,1.0397401,-7.4313636,-25.822258,-1.7277497,26.92581,680,338,1316,1519.0,0.3780625,-1.5897471,0.02138662,1.6342229,1.6340829387706275,-0.6313325091214907,-1.2654686719635446,-13.862372126922281,-46.18540851458979,313.81459148541023,-130.4198123022272,14.543352356246444,-5.856997056353787,-46.62293893282406,5.698471117298557,7104260.59613265,-82.86434575038551,-79.70889226491059,65.01,NONE,0.0,0.0,0.0,NONE,-1.5618943156604027E-7,1.5641445968050358E-8,9.1552734E-5,2,50.89,47.64,42.64,46.98,16.542,16.542,5.891,7.224613,1626,3265,4.128,12.0,7.396,89,31.1,OK,47,0,0,0,0,0,65,100,0.0,0,0.0,1.2105271E-22,8.8E-44,0.0,2.0469024E-31,64,3.1545758E-4,-1.2769275E-4,6.39375E-28,False,False,0,None,3.6926317E37,2.3444452E-19,
198252792,26.346,10.400005497450525,63.42003988024249,19,-97.83635,-98.5091,-0.06655342,0.04689082,-0.9918633,0.99519897,-2.752964,-97.52247,13.045373,98.429634,229,453,1426,1513.0,0.49334362,-1.6212314,0.06643934,1.6959343,1.6946324685355574,0.36022950332075077,3.7556000167309866,-0.8297176616234919,-46.59732870322187,313.4026712967781,-121.12530989279261,15.47375205732447,-3.8820768703432087,-59.89349359611862,6.694582161324538,12.07814577956326,-76.46227445092218,-73.30682096544726,64.98,2.358627512695307,,10.4000106,63.4200398,20190429,103220,2019-04-29T10:32:20Z,38.817,0.61,1.27,8.51,10,9,19,0.61,-2.18,-0.01,0,7246,0,0,5,5,10.400112346447466,63.420076472939165,50,83169,48,100,75,3697,3698,4374,4377,0,17478,22,212,3,0,false,false,false,false,false,false,true,false,false,false,5449,4813,5213,5207,58,74,75,58,1550,1471,1496,1512,1543,1499,1482,1484,0.0,0.0,0.0,0.0,1635.5,1631.2,1633.1,1634.9,5.46,4.01,3.53,3.68,0,0,0,0,-75.92096656279728,10.400006769281415,63.42003969690626,0,-98.13148,-98.609985,-0.0681271,0.046069942,-0.97919863,0.9826463,-17.480997,-97.309456,-2.5120971,98.89906,180,462,1426,1509.0,0.522677,-1.7365711,0.060599472,1.8145365,1.8135242856452858,0.23748962681079044,3.8816483990193937,1.013333065800509,-46.309732355720875,313.6902676442791,-128.3949580209439,18.15208406983972,6.662506343917771,-60.55779963769064,6.656947978638021,7104262.725779531,-71.81279823526357,-68.65734474978865,64.98,NONE,0.0,0.0,0.0,NONE,-2.2049375069706344E-7,2.6157603667100512E-8,-9.1552734E-5,2,49.98,43.74,48.12,45.59,16.543,16.543,5.894,7.280822,1613,3263,4.127,12.0,7.179,89,31.1,OK,48,0,0,0,0,0,65,100,0.0,0,0.0,8.664834E25,8.8E-44,0.0,2.0469024E-31,64,3.1269342E-4,-1.2700357E-4,3.945908E-27,False,False,0,None,-1.84783E-39,2.333791E-19,
202103068,27.346,10.399971852252394,63.420047470874295,19,-98.368126,-98.50917,-0.056434397,0.04445878,-0.9556015,0.9582983,12.127429,82.35284,12.119859,84.1187,367,346,1420,1506.0,0.96277523,-1.6087779,-0.057380676,1.8757385,1.874860631213587,-0.0013895616515293696,1.9891165766227894,6.657310572208948,-44.72249404747867,315.2775059525213,-118.99793772715599,13.84822848886727,-1.5899261104697757,-29.20418306209002,7.698148684850767,13.957684033656555,-61.826883082669,-58.67142959719408,64.95,1.8268510844726507,,10.3999766,63.4200463,20190429,103221,2019-04-29T10:32:21Z,38.728,0.61,1.27,8.47,10,9,19,0.91,-1.67,0.02,0,0,7683,0,5,5,10.400112346447466,63.420076472939165,50,83171,114,100,76,3697,3698,4373,4377,0,17479,22,3701,5,0,false,false,false,false,false,false,true,false,false,false,5371,4506,5325,4974,59,76,76,59,1534,1436,1491,1411,1517,1433,1490,1413,0.0,0.0,0.0,0.0,1644.1,1638.6,1638.6,1642.9,4.87,0.96,4.72,2.27,0,0,0,0,-50.613605029523114,10.399972932419177,63.42004686676322,0,-98.463776,-98.628136,-0.066057816,0.045516897,-0.99699205,1.0002142,26.081665,98.60351,21.884045,104.31594,407,343,1414,1510.0,1.0121362,-1.6635283,-0.037481,1.9476014,1.9472407087838284,-0.08574183833797733,1.4020382164438991,5.057385783953985,-45.13775226285826,314.86224773714173,-125.27482289334306,15.767133349365505,7.008401745397416,-30.15047766941353,7.677943898387598,7104264.595733707,-62.60152179464191,-59.44606830916698,64.97,NONE,0.0,0.0,0.0,NONE,-1.6933373528872827E-7,4.59412594184487E-8,-1.296997E-4,2,44.44,28.94,53.34,53.63,16.542,16.542,5.883,7.3116837,1605,3261,4.128,12.0,7.111,89,31.1,OK,49,0,0,0,0,0,65,100,0.0,0,0.0,-1.3660236E-28,8.8E-44,0.0,2.0469024E-31,64,3.0586123E-4,-1.2529739E-4,2.6543798E-26,False,False,0,None,-3.741866E-38,2.3075198E-19,
205952326,28.347,10.399961195783932,63.42005106741662,19,-97.90444,-98.5039,-0.02046263,0.020381667,-1.0000124,1.0004294,-16.765858,4.693584,55.51979,58.18566,508,69,1420,1509.0,0.06517048,0.010815699,-0.041601285,0.07806944,0.0660618730084919,0.5977815259084098,1.3405144681564598,0.08843898065777643,12.655277577889994,12.65527757788999,-66.6176958835593,3.93872770913681,-2.435093975199182,-4.009509447068008,8.033396287663773,14.640254245826883,-128.55102784319544,-125.3955743577205,64.93,2.2905351665039007,,10.3999613,63.4200512,20190429,103222,2019-04-29T10:32:22Z,38.675,0.61,1.27,8.45,10,9,19,0.11,-0.07,0.03,0,0,9998,0,5,5,10.400112346447466,63.420076472939165,50,284828,16,100,77,3655,3705,4347,4356,-623,17397,25,0,17354,0,false,false,false,false,false,false,true,false,false,false,5598,5365,4803,4836,59,76,76,59,1535,1531,1454,1457,1530,1526,1445,1443,0.0,0.0,0.0,0.0,1638.6,1633.7,1634.9,1638.0,4.5,3.73,3.12,2.82,0,0,0,0,-168.64014382715925,10.399961477456262,63.42005049683944,0,-98.10617,-98.65585,-0.01943266,0.0234566,-0.99523824,0.9957043,-11.512056,-9.176828,61.72301,63.454487,505,84,1423,1512.0,0.06451015,-0.0054136426,-0.02782214,0.070462316,0.06473690474076872,0.6333694785833012,1.2821504328462077,0.4365297280815407,11.248786632771003,11.248786632770987,-69.2524242509122,8.231781354655448,8.411166894899798,-5.771538475881194,8.042845101257857,7104265.32750997,92.9034970945309,96.05895058000583,64.93,NONE,0.0,0.0,0.0,NONE,-1.7930920893700394E-8,7.808943247980248E-9,-1.2207031E-4,2,51.59,48.52,41.16,42.98,16.526,16.526,5.89,7.320014,1602,3259,4.129,12.0,7.275,89,31.1,OK,50,0,0,0,0,0,65,100,0.0,0,0.0,-1.0375462E-22,8.8E-44,0.0,2.0469024E-31,64,2.957061E-4,-1.2275674E-4,5.3975854E-26,False,False,0,None,-6.931858E-38,2.2683446E-19,
209928783,29.380,10.399969422888521,63.42004890302565,19,-98.333145,-98.49307,-0.012967345,0.014549742,-0.99844545,0.99863565,-47.683537,1.7245703,13.292215,49.531574,502,-383,1329,1471.0,-0.41664526,0.723373,-0.010680722,0.8348508,0.8347824887547933,-0.37531862611757694,-14.372472452106987,-0.8147976163929093,32.903656062217735,32.90365606221775,-43.918185443778775,-13.48929660640836,-1.4779425511742903,4.873567294132254,7.743651314442026,15.122432735551918,122.27986118002295,125.43531466549787,65.01,1.861831858398432,,10.3999677,63.4200496,20190429,103223,2019-04-29T10:32:23Z,38.591,0.61,1.27,8.44,10,9,19,-0.45,0.71,0.0,-9998,0,0,0,5,5,10.400112346447466,63.420076472939165,50,284829,20,99,78,3655,3705,4323,4341,-1422,17247,25,2,17354,0,false,false,false,false,false,false,true,false,false,false,5521,5645,4817,4572,60,76,76,60,1558,1565,1466,1463,1558,1537,1451,1464,0.0,0.0,0.0,0.0,1634.9,1630.6,1630.0,1633.7,4.76,4.7,4.14,2.9,0,0,0,0,168.26905575974175,10.39997083876214,63.42004776986631,0,-98.22164,-98.64905,-0.011198249,0.0067524128,-1.0463332,1.0464149,-43.55356,-2.3606758,-10.43998,44.84951,499,-528,1262,1456.0,-0.29378003,0.47888356,-0.0012638273,0.5618165,0.5618150567486617,-0.024042661128233722,-18.453099113996654,-0.44548674068301514,32.696883893037516,32.69688389303752,-47.32489487903799,-17.169301336062333,5.218966006470874,11.728683336066457,7.7301785559363765,7104265.890263752,120.895100182277,124.05055366775193,65.01,NONE,0.0,0.0,0.0,NONE,7.421275384769056E-8,-2.0436899696448178E-8,-1.2207031E-4,2,53.05,55.47,44.75,40.72,16.522,16.522,5.878,7.3182654,1602,3257,4.129,12.0,7.266,89,31.1,OK,51,0,0,0,0,0,65,100,0.0,0,0.0,-1.6813387E-26,8.8E-44,0.0,2.0469024E-31,64,2.9926747E-4,-1.2364709E-4,3.3580437E-26,False,False,0,None,-4.2971838E-38,2.2820427E-19,
213787720,30.383,10.39995644144202,63.420051825118584,19,-97.73187,-98.48922,-0.031365417,0.06975863,-1.0192077,1.0220736,78.636246,-11.558067,1.150335,79.48944,510,-511,1274,1464.0,1.1458458,-1.8612337,-0.046115875,2.1861565,2.185670032729981,-1.4647750437603366,-9.713120980806925,-1.4824924715393337,32.760241195741905,32.76024119574191,-43.66110307870301,-9.130395979310373,-1.0601919341443617,31.287642006562727,8.226802891205368,16.10536956983741,-62.13114369466426,-58.97569020918934,65.04,2.4631044414062444,,10.399963,63.4200504,20190429,103224,2019-04-29T10:32:24Z,38.489,0.61,1.27,8.48,10,9,19,0.78,-1.32,0.04,0,0,0,0,5,5,10.400112346447466,63.420076472939165,50,284830,114,99,79,3654,3705,4282,4311,-2893,17315,25,3698,17414,0,false,false,false,false,false,false,true,false,false,false,5573,5355,4727,4643,61,75,76,61,1419,1595,1604,1207,1475,1571,1509,1372,0.0,0.0,0.0,0.0,1630.6,1633.7,1625.1,1625.1,2.77,3.48,4.1,2.94,0,0,0,0,-175.0842190505033,10.39995468010045,63.42005169761211,0,-97.60202,-98.64613,-0.02704369,0.06687576,-1.0004927,1.0030899,136.91382,3.524526,-1.7435987,136.97028,516,-334,1356,1488.0,1.1439953,-1.9016477,-0.048148222,2.219754,2.2192316741341416,-1.3069705098220123,2.8903454433731954,-1.113392219837526,32.787653277312586,32.787653277312586,-46.477428650037275,0.2935203300849114,3.705445432936774,39.36719360494059,8.314168630614466,7104266.94522114,-62.57180695226849,-59.41635346679356,65.05,NONE,0.0,0.0,0.0,NONE,-2.773500682422394E-7,7.49067417110996E-8,3.8146973E-5,2,61.87,33.7,27.33,53.35,16.516,16.516,5.881,7.326963,1599,3255,4.12,12.0,7.955,89,31.1,OK,52,0,0,0,0,0,65,100,0.0,0,0.0,-4.5275214E-22,8.8E-44,0.0,2.0469024E-31,64,2.9877573E-4,-1.2352415E-4,7.192402E-26,False,False,0,None,-8.3481336E-38,2.2801898E-19,
