Tick#,offsetTime,IMU_ATTI(0):Longitude,IMU_ATTI(0):Latitude,IMU_ATTI(0):numSats,IMU_ATTI(0):barometer:Raw,IMU_ATTI(0):barometer:Smooth,IMU_ATTI(0):accel:X,IMU_ATTI(0):accel:Y,IMU_ATTI(0):accel:Z,IMU_ATTI(0):accel:Composite,IMU_ATTI(0):gyro:X,IMU_ATTI(0):gyro:Y,IMU_ATTI(0):gyro:Z,IMU_ATTI(0):gyro:Composite,IMU_ATTI(0):mag:X,IMU_ATTI(0):mag:Y,IMU_ATTI(0):mag:Z,IMU_ATTI(0):mag:Mod,IMU_ATTI(0):velN,IMU_ATTI(0):velE,IMU_ATTI(0):velD,IMU_ATTI(0):velComposite,IMU_ATTI(0):velH,IMU_ATTI(0):GPS-H,IMU_ATTI(0):roll,IMU_ATTI(0):pitch,IMU_ATTI(0):yaw,IMU_ATTI(0):yaw360,IMU_ATTI(0):totalGyro:Z,IMU_ATTI(0):totalGyro:X,IMU_ATTI(0):totalGyro:Y,IMU_ATTI(0):magYaw,IMU_ATTI(0):distanceHP,IMU_ATTI(0):distanceTravelled,IMU_ATTI(0):directionOfTravel[mag],IMU_ATTI(0):directionOfTravel[true],IMU_ATTI(0):temperature,General:relativeHeight,General:absoluteHeight,GPS(0):Long,GPS(0):Lat,GPS(0):Date,GPS(0):Time,GPS:dateTimeStamp,GPS(0):heightMSL,GPS(0):hDOP,GPS(0):pDOP,GPS(0):sAcc,GPS(0):numGPS,GPS(0):numGLNAS,GPS(0):numSV,GPS(0):velN,GPS(0):velE,GPS(0):velD,RC:Aileron,RC:Elevator,RC:Rudder,RC:Throttle,Controller:navHealth,Controller:ctrl_level,HP:Longitude,HP:Latitude,HP:rthHeight,BatBlackBox:tick,BatBlackBox:id,BatBlackBox:rsoc,BatBlackBox:index,BatBlackBox:rm,BatBlackBox:fcc,BatBlackBox:cell_min,BatBlackBox:cell_max,BatBlackBox:current,BatBlackBox:voltage,BatBlackBox:temp,BatBlackBox:flag,BatBlackBox:reserve,BatBlackBox:user_data,OA:avoidObst,OA:emergBrake,OA:radiusLimit,OA:airportLimit,OA:groundForceLanding,OA:horizNearBoundary,OA:vertLowLimit,OA:vertAirportLimit,OA:roofLimit,OA:hitGroundLimit,Motor:Speed:RFront,Motor:Speed:LFront,Motor:Speed:LBack,Motor:Speed:RBack,Motor:EscTemp:RFront,Motor:EscTemp:LFront,Motor:EscTemp:LBack,Motor:EscTemp:RBack,Motor:PPMrecv:RFront,Motor:PPMrecv:LFront,Motor:PPMrecv:LBack,Motor:PPMrecv:RBack,Motor:PPMsend:RFront,Motor:PPMsend:LFront,Motor:PPMsend:LBack,Motor:PPMsend:RBack,Motor:V_out:RFront,Motor:V_out:LFront,Motor:V_out:LBack,Motor:V_out:RBack,Motor:Volts:RFront,Motor:Volts:LFront,Motor:Volts:LBack,Motor:Volts:RBack,Motor:Current:RFront,Motor:Current:LFront,Motor:Current:LBack,Motor:Current:RBack,Motor:Status:RFront,Motor:Status:LFront,Motor:Status:LBack,Motor:Status:RBack,Motor:thrustAngle,IMU_ATTI(1):Longitude,IMU_ATTI(1):Latitude,IMU_ATTI(1):numSats,IMU_ATTI(1):barometer:Raw,IMU_ATTI(1):barometer:Smooth,IMU_ATTI(1):accel:X,IMU_ATTI(1):accel:Y,IMU_ATTI(1):accel:Z,IMU_ATTI(1):accel:Composite,IMU_ATTI(1):gyro:X,IMU_ATTI(1):gyro:Y,IMU_ATTI(1):gyro:Z,IMU_ATTI(1):gyro:Composite,IMU_ATTI(1):mag:X,IMU_ATTI(1):mag:Y,IMU_ATTI(1):mag:Z,IMU_ATTI(1):mag:Mod,IMU_ATTI(1):velN,IMU_ATTI(1):velE,IMU_ATTI(1):velD,IMU_ATTI(1):velComposite,IMU_ATTI(1):velH,IMU_ATTI(1):GPS-H,IMU_ATTI(1):roll,IMU_ATTI(1):pitch,IMU_ATTI(1):yaw,IMU_ATTI(1):yaw360,IMU_ATTI(1):totalGyro:Z,IMU_ATTI(1):totalGyro:X,IMU_ATTI(1):totalGyro:Y,IMU_ATTI(1):magYaw,IMU_ATTI(1):distanceHP,IMU_ATTI(1):distanceTravelled,IMU_ATTI(1):directionOfTravel[mag],IMU_ATTI(1):directionOfTravel[true],IMU_ATTI(1):temperature,IMUEX(0):err,IMUEX(0):rtk_Longitude,IMUEX(0):rtk_Latitude,IMUEX(0):rtk_Alti,IMUEX(1):err,IMUEX(1):rtk_Longitude,IMUEX(1):rtk_Latitude,IMUEX(1):rtk_Alti,BattInfo:Voltage,BattInfo:BatVoltage,BattInfo:AdVoltage,BattInfo:AvgCurrent,BattInfo:R_time,BattInfo:R_CAP_MAH,BattInfo:LowCellVoltage,BattInfo:LowCellVolThreshold,BattInfo:BatCurrent,BattInfo:Remaining%,BattInfo:Temp,BattInfo:status,battery_info:BatDynCnt,battery_info:Vol1Protect,battery_info:Vol2Protect,battery_info:Cap1Protect,battery_info:Cap2Protect,battery_info:Batpresent,battery_info:sopPercentage,battery_info:sopValue,battery_info:sopScale,battery_info:sopFlg,BattInfo:WindHeading:WindDir,battery_info:home_dir,BattInfo:Wind:rangeMin,BattInfo:Wind:rangeMax,battery_info:cap_speed,battery_info:against_wind,battery_info:emergency_land_cap,battery_info:intel_bat_land_cap,battery_info:intel_bat_gh_cap,BattInfo:Smart:SmartGh,BattInfo:Smart:SmartLand,BattInfo:GoHome:CntDown,BattInfo:GoHome:GhCmd,BattInfo:GoHome:CapLevel,BattInfo:GoHome:LandCapLv,Attribute|Value,ConvertDatV3,3.6.6-Tablet
7345912,1.909,,,,,,,,,,,,,,,,,,,,,,,,,,,,,,,,,,,,,,,,,,,,,,,,,,,,,,,,,,,,,,,,,,,,,,,,,,,,,,,,,,,,,,,,,,,,,,,,,,,,,,,,,,,,,,,,,,,,,,,,,,,,,,,,,,,,,,,,,,,,,,,,,,,,,,,,,,,,,,,,,,,,,,,,,,,,,,,OK,,,,,,,,,,,,,,,,,,,,,,,,,,Firmware Date| Oct 17 2018
38826244,10.091,,,,,,,,,,,,,,,,,,,,,,,,,,,,,,,,,,,,,,,13.9926903,66.385106,20190516,112435,2019-05-16T11:24:35Z,62.842,99.99,99.99,20869.19,0,0,0,0.0,0.0,0.0,,,,,,,,,,,,,,,,,,,,,,,,,,,,,,,,,,,,,,,,,,,,,,,,,,,,,,,,,,,,,,,,,,,,,,,,,,,,,,,,,,,,,,,,,,,,,,,,,,,,,,,,,,,,,,,,,,,,,,,,,,OK,,,,,,,,,,,,,,,,,,,,,,,,,,ACType|MavicEnterprise
42706597,11.099,,,0,-110.81889,-111.01441,0.06513324,0.008904004,-0.97930807,0.98151207,0.15832503,-0.100758456,0.022362513,0.18899514,-251,186,1383,1417.0,0.0,0.0,0.16662623,0.16662623,0.0,0.0,-0.5307634376240478,3.7736850084937625,-135.89893239128523,224.10106760871477,0.033356201163625795,0.12277062616214994,-0.07055201047914444,-128.74886517326127,,0.0,,,40.48,,,13.9926903,66.385106,20190516,112435,2019-05-16T11:24:35Z,62.842,99.99,99.99,20885.15,0,0,0,0.0,0.0,0.0,0,0,0,0,0,0,,,,,,,,,,,,,,,,,,false,false,false,false,false,false,false,false,false,false,0,0,0,0,52,65,66,53,944,945,944,945,940,940,940,940,0.0,0.0,0.0,0.0,1487.1,1484.0,1483.4,1486.5,0.0,0.0,0.0,0.0,0,0,0,0,-45.0,,,,,,,,,,,,,,,,,,,,,,,,,,,,,,,,,,,,,NONE,0.0,0.0,0.0,,,,,14.968,14.968,5.337,1.6556126,0,652,3.74,12.0,1.28,19,40.1,OK,9,0,0,0,0,0,65,100,0.0,0,0.0,589232.0,2.69E-43,0.0,-2.1587081E-37,66,5.093148E-12,-5.093177E-12,9.4E-44,False,False,0,None,0.0,1.0842022E-19,dateTime|2019-5-16 11:24:35 GMT
46629009,12.119,,,0,-110.96686,-110.917465,0.06441747,0.008434673,-0.98007005,0.98222095,0.1568844,-0.021872226,-0.01095537,0.15878013,-251,186,1389,1423.0,0.0,0.0,0.10455215,0.10455215,0.0,0.0,-0.523643005162335,3.774410748773227,-135.90441456581416,224.09558543418584,0.05547826644729526,0.2665662986650508,-0.08154539905435486,-128.69260650055227,,0.0,,,40.75,,,13.9926903,66.385106,20190516,112436,2019-05-16T11:24:36Z,62.842,99.99,99.99,20903.02,0,0,0,0.0,0.0,0.0,0,0,0,0,0,0,,,,,,,,,,,,,,,,,,false,false,false,false,false,false,false,false,false,false,0,0,0,0,52,66,66,52,944,946,944,945,940,940,940,940,0.0,0.0,0.0,0.0,1484.6,1482.2,1481.6,1485.9,0.0,0.0,0.0,0.0,0,0,0,0,-45.0,,,,,,,,,,,,,,,,,,,,,,,,,,,,,,,,,,,,,NONE,0.0,0.0,0.0,,,,,14.967,14.967,5.342,1.6549883,0,652,3.741,12.0,1.295,19,40.1,OK,10,0,0,0,0,0,65,100,0.0,0,0.0,589232.0,2.69E-43,0.0,-2.1587081E-37,66,5.093148E-12,-5.093177E-12,9.4E-44,False,False,0,None,0.0,1.0842022E-19,
50490303,13.122,,,0,-110.988,-110.91742,0.06450151,0.009725894,-0.9790738,0.98124444,0.0878786,-0.0775828,0.07810559,0.14086242,-254,186,1383,1418.0,0.0,0.0,0.100672856,0.100672856,0.0,0.0,-0.5377727010708525,3.7860199172423825,-135.9199166623548,224.0800833376452,0.09070681373804684,0.38918651408292426,-0.14253524953000585,-129.19429425938887,,0.0,,,41.04,,,13.9926903,66.385106,20190516,112437,2019-05-16T11:24:37Z,62.842,99.99,99.99,20922.78,0,0,0,0.0,0.0,0.0,0,0,0,0,0,0,,,,,,,,,,,,,,,,,,false,false,false,false,false,false,false,false,false,false,0,0,0,0,53,65,66,53,944,945,945,945,940,940,940,940,0.0,0.0,0.0,0.0,1485.9,1482.8,1482.8,1485.9,0.0,0.0,0.0,0.0,0,0,0,0,-45.0,,,,,,,,,,,,,,,,,,,,,,,,,,,,,,,,,,,,,NONE,0.0,0.0,0.0,,,,,14.964,14.964,5.343,1.6285808,0,652,3.741,12.0,1.455,19,40.1,OK,11,0,0,0,0,0,65,100,0.0,0,0.0,589232.0,2.69E-43,0.0,-2.1587081E-37,66,5.093148E-12,-5.093177E-12,9.4E-44,False,False,0,None,0.0,1.0842022E-19,
54380594,14.133,,,0,-110.845314,-110.957436,0.06460884,0.008632017,-0.979641,0.9818072,0.20466529,0.062136427,0.060300644,0.22222732,-254,184,1377,1412.0,0.008948003,0.009360532,0.10597655,0.10676477,0.012949375181130686,-0.012949375181130686,-0.5254703524003224,3.791885273503212,-135.92300471180798,224.07699528819202,0.12303716847925818,0.5580047204488843,-0.1880118344000847,-129.57160462757798,,0.0,,,41.31,,,13.9926903,66.385106,20190516,112439,2019-05-16T11:24:39Z,62.842,99.99,99.99,20944.44,0,0,0,0.0,0.0,0.0,0,0,0,0,0,0,,,,,,,,,,,,,,,,,,false,false,false,false,false,false,false,false,false,false,0,0,0,0,52,67,66,51,944,945,945,945,940,940,940,940,0.0,0.0,0.0,0.0,1487.1,1482.2,1481.6,1486.5,0.0,0.0,0.0,0.0,0,0,0,0,-45.0,8.344998536045881E-11,2.424564271872615E-11,0,-110.92987,-111.20008,0.06461043,0.009086301,-0.9815647,0.98373085,0.26292747,0.071969956,0.025467167,0.2737866,-251,184,1374,1408.0,5.565672E-4,0.0018678351,0.33859468,0.33860028,0.0019489932992240754,-0.0019489932992240754,-0.5158308309347753,3.804637888030011,-129.36327920596415,230.63672079403585,0.0,0.0,0.0,-129.06654417611793,,0.0,,,41.32,NONE,0.0,0.0,0.0,,,,,14.963,14.963,5.342,1.5950087,0,651,3.741,12.0,1.481,19,40.1,OK,12,0,0,0,0,0,65,100,0.0,0,0.0,589232.0,2.69E-43,0.0,-2.1587081E-37,66,5.093148E-12,-5.093177E-12,9.4E-44,False,False,0,None,0.0,1.0842022E-19,
58378302,15.172,0.0,0.0,0,-110.92458,-110.95147,0.064249255,0.008555425,-0.97930366,0.98144627,0.10194338,-0.115112156,-0.044703156,0.16013005,-256,184,1392,1427.0,0.012949298,0.018763818,0.086881295,0.08982274,0.022798359408332112,-0.022798359408332112,-0.5181965603322597,3.8090819617858105,-135.91195946025826,224.08804053974174,0.16543582108359095,0.723028116035753,-0.16767263709156038,-129.6775569844907,,0.0,,,41.65,,,13.9926903,66.385106,20190516,112440,2019-05-16T11:24:40Z,62.842,99.99,99.99,20967.98,0,0,0,0.0,0.0,0.0,0,0,0,0,0,0,,,,,,,,,,,,,,,,,,false,false,false,false,false,false,false,false,false,false,0,0,0,0,53,66,66,52,944,945,944,945,940,940,940,940,0.0,0.0,0.0,0.0,1487.1,1482.2,1482.8,1486.5,0.0,0.0,0.0,0.0,0,0,0,0,-45.0,3.782891223604779E-10,9.118160429405634E-10,0,-111.14654,-111.56584,0.064122066,0.008612047,-0.9793374,0.98147213,0.116794795,-0.07489398,0.029524267,0.14185138,-256,184,1389,1424.0,0.020365227,0.008434063,0.4745777,0.47508934,0.022042592329860205,-0.021942498459355093,-0.4580855403793843,3.828127453985761,-129.32027011498892,230.67972988501108,0.09752507392079754,0.19182507826376147,-0.012301026183881307,-129.8423830034346,,1.1155795837458251E-4,,,41.68,NONE,0.0,0.0,0.0,NONE,3.369551164736914E-10,8.61400342448945E-10,0.0020980835,14.962,14.962,5.34,1.563254,0,651,3.74,12.0,1.454,19,40.1,OK,13,0,0,0,0,0,65,100,0.0,0,0.0,589232.0,2.69E-43,0.0,-2.1587081E-37,66,5.093148E-12,-5.093177E-12,9.4E-44,False,False,0,None,0.0,1.0842022E-19,
62290635,16.189,0.0,0.0,0,-110.98271,-110.960785,0.064599,0.00788786,-0.9782483,0.98041064,0.16982487,0.00942343,0.017581066,0.17099234,-259,181,1383,1418.0,0.0,0.0,0.089582354,0.089582354,0.0,0.0,-0.5141981150552662,3.80973847041276,-135.90226147264823,224.09773852735177,0.20480457440823246,0.9077033738096367,-0.2195375627190974,-130.75003514160173,,0.0,,,41.98,,,13.9926903,66.385106,20190516,112441,2019-05-16T11:24:41Z,62.842,99.99,99.99,20993.4,0,0,0,0.0,0.0,0.0,0,0,0,0,0,0,,,,,,,,,,,,,,,,,,false,false,false,false,false,false,false,false,false,false,0,0,0,0,52,69,67,54,943,946,944,944,940,940,940,940,0.0,0.0,0.0,0.0,1487.1,1482.2,1482.2,1487.1,0.0,0.0,0.0,0.0,0,0,0,0,-45.0,1.1247475111208439E-11,-6.33018344788981E-11,0,-110.92987,-111.42231,0.064733714,0.007993202,-0.97957224,0.98174137,0.09927187,-0.049673606,0.15011309,0.18669845,-259,181,1389,1424.0,-0.0014378518,2.4386156E-4,0.0029822225,0.0033197196,0.0014583848357957278,-0.00134444379849096,-0.47756764773697746,3.763285704339246,-129.51820672255877,230.48179327744123,0.16363142372404751,0.347854755868384,-0.08126806694440976,-130.99625434294714,,2.6573003210634253E-4,,,41.98,NONE,0.0,0.0,0.0,NONE,1.3479462872534901E-11,-8.397757544950346E-12,0.0,14.962,14.962,5.34,1.534051,0,650,3.74,12.0,1.424,19,40.1,OK,14,0,0,0,0,0,65,100,0.0,0,0.0,589232.0,2.69E-43,0.0,-2.1587081E-37,66,5.093148E-12,-5.093177E-12,9.4E-44,False,False,0,None,0.0,1.0842022E-19,
66166981,17.197,0.0,0.0,0,-110.93515,-110.96536,0.064038806,0.008824241,-0.979626,0.98175657,0.0992079,-0.0556409,0.13580297,0.1771456,-259,178,1371,1406.0,-0.0071168495,-0.0099474965,0.07860072,0.07954668,0.012231199657996166,-0.012231199657996166,-0.5009076269916092,3.7948383474690868,-135.894015657315,224.105984342685,0.2843987019998065,1.0919873142763787,-0.21827704832478223,-131.4527817578137,,0.0,,,42.25,,,13.9926903,66.385106,20190516,112442,2019-05-16T11:24:42Z,62.842,99.99,99.99,21020.69,0,0,0,0.0,0.0,0.0,0,0,0,0,0,0,,,,,,,,,,,,,,,,,,false,false,false,false,false,false,false,false,false,false,0,0,0,0,53,68,68,53,944,946,945,945,940,940,940,940,0.0,0.0,0.0,0.0,1487.7,1482.2,1482.2,1486.5,0.0,0.0,0.0,0.0,0,0,0,0,-45.0,-4.6561403411303347E-11,-3.156470455301619E-11,0,-111.00385,-111.428474,0.06450442,0.009009494,-0.9789435,0.9811078,0.14132439,-0.1088364,0.12360915,0.21701881,-259,178,1371,1406.0,-6.767112E-4,-0.0010472267,0.009579009,0.0096598165,0.0012468447848153245,-0.0012395659153742974,-0.46405062706447475,3.7434795279378763,-129.59609623821243,230.40390376178757,0.24493347425853296,0.46322216670337935,-0.11589797461933446,-131.79314102068375,,3.136934668250191E-4,,,42.22,NONE,0.0,0.0,0.0,NONE,-1.6887443741820556E-10,-6.956157061478796E-11,4.5776367E-5,14.963,14.963,5.342,1.5067016,0,650,3.74,12.0,1.405,19,40.0,OK,15,0,0,0,0,0,65,100,0.0,0,0.0,589232.0,2.69E-43,0.0,-2.1587081E-37,66,5.093148E-12,-5.093177E-12,9.4E-44,False,False,0,None,0.0,1.0842022E-19,
70129808,18.226,0.0,0.0,0,-110.90873,-110.953636,0.06488231,0.008363549,-0.9801287,0.9823095,0.18128568,-0.029730577,-0.018623725,0.18464898,-256,181,1377,1412.0,-0.020661268,-0.027568633,0.06092601,0.06999212,0.03445166956710043,-0.03445166956710043,-0.4926375667755185,3.7812566228730278,-135.8787119458572,224.1212880541428,0.3764293035787822,1.2504233165104415,-0.3098924190670517,-130.50759892512787,,0.0,,,42.57,,,13.9926903,66.385106,20190516,112443,2019-05-16T11:24:43Z,62.842,99.99,99.99,21049.85,0,0,0,0.0,0.0,0.0,0,0,0,0,0,0,,,,,,,,,,,,,,,,,,false,false,false,false,false,false,false,false,false,false,0,0,0,0,53,68,67,53,944,946,945,945,940,940,940,940,0.0,0.0,0.0,0.0,1485.9,1482.2,1481.6,1486.5,0.0,0.0,0.0,0.0,0,0,0,0,-45.0,-8.802664841315082E-11,1.5419200021426314E-11,0,-110.84003,-111.4383,0.06393753,0.0068097357,-0.98224777,0.98435,0.23566096,0.042922195,-0.008369637,0.23968408,-256,181,1380,1415.0,3.2566173E-4,-0.0019086573,0.009790605,0.00998023,0.0019362407159695273,-0.0019294751609426875,-0.4581942751755969,3.719446149963873,-129.73486474897663,230.26513525102337,0.29314171960253754,0.6263184609607667,-0.15342523662199875,-130.8477969328902,,3.7797967336753027E-4,,,42.56,NONE,0.0,0.0,0.0,NONE,-2.354920958603303E-10,-1.0854932756869543E-10,7.6293945E-5,14.962,14.962,5.34,1.4816135,0,650,3.74,12.0,1.417,19,40.0,OK,16,0,0,0,0,0,65,100,0.0,0,0.0,589232.0,2.69E-43,0.0,-2.1587081E-37,66,5.093148E-12,-5.093177E-12,9.4E-44,False,False,0,None,0.0,1.0842022E-19,
74120347,19.264,0.0,0.0,0,-110.94044,-110.92958,0.0651429,0.008071726,-0.98001224,0.98220813,-0.012308114,0.06730946,0.021286411,0.071660064,-259,184,1380,1416.0,0.0,0.0,0.03287793,0.03287793,0.0,0.0,-0.4863811831373143,3.782236520976714,-135.88307587554306,224.11692412445694,0.4033583021350913,1.3755584487290242,-0.34028062651773433,-130.56100656686775,,0.0,,,42.87,,,13.9926903,66.385106,20190516,112443,2019-05-16T11:24:43Z,62.842,99.99,99.99,21080.86,0,0,0,0.0,0.0,0.0,0,0,0,0,0,0,,,,304836,144,0,104,-67,3692,3193,3312,-1763,13027,43,774,13010,0,false,false,false,false,false,false,false,false,false,false,0,0,0,0,52,66,68,52,944,946,945,945,940,940,940,940,0.0,0.0,0.0,0.0,1486.5,1482.2,1482.2,1486.5,0.0,0.0,0.0,0.0,0,0,0,0,-45.0,-1.3281836273475825E-11,-4.465204346526667E-11,0,-111.28922,-111.44157,0.06410093,0.00866391,-0.9785128,0.98064846,0.046825226,-0.022036774,0.25896204,0.2640825,-259,184,1380,1416.0,-9.772483E-4,-2.994801E-4,-0.0024550774,0.0026593434,0.0010221069276558515,-0.0010118258523173656,-0.4591315989009171,3.7122199186910194,-129.84061494991408,230.15938505008592,0.43119161892107616,0.6959563054280713,-0.11566093340633529,-130.9414119015628,,3.988575056221096E-4,,,42.85,NONE,0.0,0.0,0.0,NONE,7.029375793471206E-12,-2.2336087508962092E-11,0.0,14.961,14.961,5.341,1.4602523,0,649,3.74,12.0,1.425,19,40.0,OK,17,0,0,0,0,0,65,100,0.0,0,0.0,589232.0,2.69E-43,0.0,-2.1587081E-37,66,5.093148E-12,-5.093177E-12,9.4E-44,False,False,0,None,0.0,1.0842022E-19,
77977111,20.266,0.0,0.0,0,-110.8506,-110.92609,0.06445045,0.010073992,-0.9802069,0.98237514,0.22463812,-0.096245065,0.11292014,0.26921433,-256,178,1371,1406.0,0.0055992827,-0.0075298194,0.041779608,0.04282039,0.009383503961058097,-0.009383503961058097,-0.4789344008744587,3.7938807725146435,-135.8823512109068,224.1176487890932,0.3991556970687138,1.5141951815938146,-0.3927876725567642,-131.02333319675574,,0.0,,,43.2,,,13.9926903,66.385106,20190516,112444,2019-05-16T11:24:44Z,62.842,99.99,99.99,21113.73,0,0,0,0.0,0.0,0.0,0,0,0,0,0,0,,,,306839,16,0,105,-60,3699,3293,3385,0,13362,34,1,17547,0,false,false,false,false,false,false,false,false,false,false,0,0,0,0,52,66,66,52,944,945,945,945,940,940,940,940,0.0,0.0,0.0,0.0,1485.9,1480.4,1482.2,1486.5,0.0,0.0,0.0,0.0,0,0,0,0,-45.0,5.839888676544403E-11,2.5287320739474125E-12,0,-111.08841,-111.44625,0.06484554,0.008426187,-0.97953635,0.9817166,0.09402505,0.116373934,-0.3169991,0.35053107,-256,178,1368,1403.0,4.1501953E-5,0.0012950123,0.00621676,0.006350345,0.0012956771199685946,-0.0012861573934419151,-0.4629302497279422,3.720236226186202,-129.72616097593033,230.27383902406967,0.5021840693362812,0.8653413296556232,-0.10888695844735818,-131.42165476276182,,4.652312037406612E-4,,,43.22,NONE,0.0,0.0,0.0,NONE,-2.188691860936876E-11,3.340360424478685E-11,3.0517578E-5,14.96,14.96,5.339,1.4433186,0,649,3.739,12.0,1.413,19,40.0,OK,18,0,0,0,0,0,65,100,0.0,0,0.0,589232.0,2.69E-43,0.0,-5.9807744E7,62,5.093148E-12,-5.093177E-12,9.4E-44,False,False,0,None,0.0,1.0842022E-19,
81834267,21.268,0.0,0.0,0,-110.95629,-110.925,0.06432208,0.0076249233,-0.97910386,0.981244,0.15866925,0.09043761,0.11787694,0.21737035,-259,181,1377,1412.0,0.0135414675,0.007992396,0.03885294,0.041914206,0.015724176576216383,-0.015724176576216383,-0.4822661868665798,3.7902877149947956,-135.8955067311638,224.1044932688362,0.47044580203341474,1.6990734651392791,-0.4296747134652297,-131.01704032217674,,0.0,,,43.47,,,13.9926903,66.385106,20190516,112446,2019-05-16T11:24:46Z,62.842,99.99,99.99,21155.59,0,0,0,0.0,0.0,0.0,0,0,0,0,0,0,,,,306839,16,0,105,-60,3699,3293,3385,0,13362,34,1,17547,0,false,false,false,false,false,false,false,false,false,false,0,0,0,0,53,67,66,52,945,946,945,945,940,940,940,940,0.0,0.0,0.0,0.0,1486.5,1481.0,1482.2,1486.5,0.0,0.0,0.0,0.0,0,0,0,0,-45.0,6.416709935691751E-11,-5.627553101336725E-12,0,-110.77661,-111.454506,0.06362796,0.007373647,-0.97841007,0.9805045,0.21966594,-0.05620528,0.12964673,0.2611904,-254,178,1377,1411.0,-1.6883606E-4,0.0014920423,0.0101804165,0.0102905575,0.0015015645267864293,-0.0015004564284820054,-0.47033077803991535,3.7347228090024296,-129.723201984817,230.276798015183,0.5398138474296652,1.0253366615388846,-0.1153408723709901,-130.8810562552208,,5.294809488271591E-4,,,43.49,NONE,0.0,0.0,0.0,NONE,5.172449306828214E-11,-3.6691322043606964E-11,9.1552734E-5,14.96,14.96,5.34,1.4302232,0,648,3.74,12.0,1.411,19,40.0,OK,19,0,0,0,0,0,65,100,0.0,0,0.0,589232.0,2.69E-43,0.0,-5.9807744E7,62,5.093148E-12,-5.093177E-12,9.4E-44,False,False,0,None,0.0,1.0842022E-19,
85714848,22.277,0.0,0.0,0,-111.00914,-110.93063,0.06449663,0.0087904455,-0.97822064,0.980384,0.1734478,0.07947966,0.17692725,0.2602007,-259,178,1380,1415.0,0.03249743,0.038921334,0.027001098,0.057445735,0.0507045680400594,-0.0507045680400594,-0.49554086251103474,3.8180461973876807,-135.90202207087873,224.09797792912127,0.5461811336120744,1.8514471829423285,-0.4591372110115519,-131.2630513492204,,0.0,,,43.77,,,13.9926903,66.385106,20190516,112447,2019-05-16T11:24:47Z,62.842,99.99,99.99,21192.49,0,0,0,0.0,0.0,0.0,0,0,0,0,0,0,,,,306841,114,0,107,-63,3718,3336,3423,3593,13535,34,3692,13541,0,false,false,false,false,false,false,false,false,false,false,0,0,0,0,53,67,68,53,944,945,944,945,940,940,940,940,0.0,0.0,0.0,0.0,1485.9,1482.8,1481.6,1485.3,0.0,0.0,0.0,0.0,0,0,0,0,-45.0,1.6310426517070274E-10,5.351123376370217E-11,0,-111.178246,-111.469955,0.06319774,0.009273215,-0.97972924,0.9818092,0.09886555,0.01756031,0.07386978,0.12465755,-254,178,1374,1408.0,0.0012193553,0.003667109,0.022437077,0.022767453,0.0038645200339816814,-0.003851811780312028,-0.4836708715787087,3.782970282622981,-129.55479848065394,230.44520151934606,0.5909974750733529,1.171872711741075,-0.11364790668344332,-130.66888347034185,,5.915345269009943E-4,,,43.72,NONE,0.0,0.0,0.0,NONE,1.589911537958092E-10,4.822055733031833E-11,1.0681152E-4,14.957,14.957,5.335,1.4207019,0,648,3.739,12.0,1.43,19,40.0,OK,20,0,0,0,0,0,65,100,0.0,0,0.0,589232.0,2.69E-43,0.0,-5.9807744E7,62,5.093148E-12,-5.093177E-12,9.4E-44,False,False,0,None,0.0,1.0842022E-19,
89637352,23.296,0.0,0.0,0,-110.95629,-110.94787,0.06329522,0.0076414654,-0.9790022,0.9810759,0.26928478,-0.025741586,0.05769554,0.27659664,-254,178,1374,1408.0,0.0,0.0,0.04340703,0.04340703,0.0,0.0,-0.4921379969241354,3.822057724110214,-135.92058816114107,224.07941183885893,0.6218619131182213,2.0238659579724296,-0.4588077241790336,-130.4741300304637,,0.0,,,44.07,,,13.9926903,66.385106,20190516,112448,2019-05-16T11:24:48Z,62.842,99.99,99.99,21231.21,0,0,0,0.0,0.0,0.0,0,0,0,0,0,0,,,,311807,114,99,108,3706,3706,4389,4391,202,17605,27,3718,17590,0,false,false,false,false,false,false,false,false,false,false,0,0,0,0,53,67,66,54,945,946,945,945,940,940,940,940,0.0,0.0,0.0,0.0,1487.1,1481.0,1482.2,1486.5,0.0,0.0,0.0,0.0,0,0,0,0,-45.0,6.181510672549745E-11,1.8931240828845993E-11,0,-111.17296,-111.46555,0.0633176,0.008823299,-0.9778965,0.979984,0.14189337,0.022518096,0.0504704,0.15227625,-254,175,1371,1405.0,4.7804377E-4,0.0013863484,-5.153773E-4,0.0015543815,0.001466454130475938,-0.0014547799759677862,-0.4802075864059556,3.8173724030980667,-129.4318110290358,230.5681889709642,0.6417789199371178,1.3338812395234871,-0.07320223202656177,-131.02670209335236,,6.481031855039199E-4,,,44.13,NONE,0.0,0.0,0.0,NONE,5.532791020080032E-11,1.5321941160746252E-11,0.0,14.956,14.956,5.335,1.4149204,0,648,3.738,12.0,1.428,19,40.0,OK,21,0,0,0,0,0,65,100,0.0,0,0.0,589232.0,2.69E-43,0.0,-5.9807744E7,62,5.093148E-12,-5.093177E-12,9.4E-44,False,False,0,None,0.0,1.0842022E-19,
93498212,24.300,0.0,0.0,0,-111.22052,-110.96277,0.06332017,0.0080180345,-0.98142856,0.9835018,0.17954677,-0.07298153,0.122548774,0.22930668,-254,175,1368,1402.0,0.04006519,0.040445425,0.02492213,0.062146313,0.05693023730635873,-0.05693023730635873,-0.48200970113515923,3.83968600457926,-135.93591255599634,224.06408744400366,0.6800624580634208,2.200321171770141,-0.44009352405652563,-130.96492599603667,,0.0,,,44.39,,,13.9926903,66.385106,20190516,112449,2019-05-16T11:24:49Z,62.842,99.99,99.99,21271.74,0,0,0,0.0,0.0,0.0,0,0,0,0,0,0,,,,311929,19,100,109,3690,3690,4389,4392,132,17592,27,1,17605,0,false,false,false,false,false,false,false,false,false,false,0,0,0,0,52,66,67,52,945,945,945,946,940,940,940,940,0.0,0.0,0.0,0.0,1486.5,1481.6,1481.6,1485.9,0.0,0.0,0.0,0.0,0,0,0,0,-45.0,9.278083252475864E-11,5.5225814530886533E-11,0,-111.04085,-111.47208,0.06440911,0.0081358375,-0.9788011,0.9809517,0.011946408,-0.112453125,-0.02944754,0.11685709,-254,178,1364,1398.0,0.0012397064,0.0020552787,0.0061984546,0.006646945,0.002400217231317359,-0.002394930287628236,-0.4635904888647811,3.8346741023684987,-129.35917483569963,230.64082516430037,0.6270623660871277,1.488821080492713,-0.10726607083200489,-130.6507653682796,,6.852021922888554E-4,,,44.35,NONE,0.0,0.0,0.0,NONE,2.0266877817914244E-10,-1.1118630000960286E-11,6.1035156E-5,14.957,14.957,5.334,1.4116808,0,647,3.738,12.0,1.397,19,40.0,OK,22,0,0,0,0,0,65,100,0.0,0,0.0,589232.0,2.69E-43,0.0,-5.9807744E7,62,5.093148E-12,-5.093177E-12,9.4E-44,False,False,0,None,0.0,1.0842022E-19,
97530774,25.348,0.0,0.0,0,-111.20995,-110.941925,0.063314445,0.008658257,-0.9815001,0.9835782,0.26493135,0.16693954,0.08264739,0.3238642,-259,175,1374,1409.0,0.06277835,0.07203246,0.00919808,0.09599167,0.09554996691338422,-0.09554996691338422,-0.49082031790702774,3.8757549960299045,-135.95020751023947,224.04979248976053,0.7458315208386357,2.4060760267339294,-0.48437111313630105,-131.56960061998063,,0.0,,,44.74,,,13.9926903,66.385106,20190516,112450,2019-05-16T11:24:50Z,62.842,99.99,99.99,21314.07,0,0,0,0.0,0.0,0.0,0,0,0,0,0,0,,,,311930,114,100,110,3690,3690,4386,4389,0,17535,27,3706,17551,0,false,false,false,false,false,false,false,false,false,false,0,0,0,0,52,68,69,53,944,946,945,945,940,940,940,940,0.0,0.0,0.0,0.0,1485.9,1481.0,1481.6,1486.5,0.0,0.0,0.0,0.0,0,0,0,0,-45.0,1.283462259129943E-10,8.751420951429352E-11,0,-111.03027,-111.48222,0.0640401,0.008894882,-0.97966725,0.9817984,0.04395637,0.054565378,-0.06794036,0.09759834,-256,175,1371,1405.0,0.0019776851,0.0028281247,0.010144752,0.010715667,0.003451018332245817,-0.003445921854751871,-0.46566588449842544,3.855991777215377,-129.22550657807568,230.77449342192432,0.6468031649751727,1.614140635890621,-0.10172492668900492,-131.26448668091845,,7.178723222415038E-4,,,44.63,NONE,0.0,0.0,0.0,NONE,1.991590909019864E-10,1.9412672579932644E-10,9.1552734E-5,14.956,14.956,5.332,1.4093074,0,647,3.738,12.0,1.41,19,40.0,OK,23,0,0,0,0,0,65,100,0.0,0,0.0,589232.0,2.69E-43,0.0,-5.9807744E7,62,5.093148E-12,-5.093177E-12,9.4E-44,False,False,0,None,0.0,1.0842022E-19,
101385481,26.350,0.0,0.0,0,-110.95629,-110.93108,0.06347094,0.0085657695,-0.9781483,0.98024285,0.09468729,0.055971973,0.029185906,0.11379966,-259,175,1368,1403.0,0.11459949,0.124766864,0.020370517,0.1706305,0.16941018726155346,-0.16941018726155346,-0.4809315798315088,3.9189514869678086,-135.96282474326736,224.03717525673264,0.7768404998802896,2.5455108029357367,-0.5014794838118836,-131.50366647885662,,0.0,,,44.98,,,13.9926903,66.385106,20190516,112451,2019-05-16T11:24:51Z,62.842,99.99,99.99,21358.19,0,0,0,0.0,0.0,0.0,0,0,0,0,0,0,,,,341997,16,100,111,3690,3688,4363,4371,-626,17459,25,0,16146,0,false,false,false,false,false,false,false,false,false,false,0,0,0,0,52,67,67,54,944,946,945,945,940,940,940,940,0.0,0.0,0.0,0.0,1486.5,1481.0,1481.0,1485.9,0.0,0.0,0.0,0.0,0,0,0,0,-45.0,-2.562668135386529E-11,5.5177446655986656E-11,0,-111.03556,-111.488205,0.06450327,0.007972815,-0.9784258,0.9805821,0.23276895,0.055021897,0.023753064,0.24036016,-256,175,1368,1402.0,0.0012168856,-6.0764444E-4,0.0029476662,0.0032463484,0.0013601626354356774,-0.0013426999290184188,-0.48902190098102527,3.9674214424901684,-128.91071295286895,231.08928704713105,0.7318044364876325,1.8097484514373063,-0.1233476579721136,-130.74960332385018,,8.063255723566724E-4,,,45.02,NONE,0.0,0.0,0.0,NONE,4.747214414250038E-12,6.465770822471284E-11,0.0,14.957,14.957,5.335,1.4076399,0,646,3.738,12.0,1.413,19,40.0,OK,24,0,0,0,0,0,65,100,0.0,0,0.0,589232.0,2.69E-43,0.0,-5.9807744E7,62,5.093148E-12,-5.093177E-12,9.4E-44,False,False,0,None,0.0,1.0842022E-19,
105241130,27.352,0.0,0.0,0,-111.22052,-110.94027,0.06394649,0.007875871,-0.97779995,0.9799204,0.15338065,-0.0048093386,-0.026131023,0.15566498,-259,175,1371,1406.0,0.047054917,0.050382957,0.02512859,0.07337611,0.06893915832436615,-0.06893915832436615,-0.47752785552633253,3.9027168136183836,-135.9635252299174,224.0364747700826,0.8345971316013029,2.731002240350522,-0.4750467364871177,-131.54433446441197,,0.0,,,45.33,,,13.9926903,66.385106,20190516,112452,2019-05-16T11:24:52Z,62.842,99.99,99.99,21404.09,0,0,0,0.0,0.0,0.0,0,0,0,0,0,0,,,,341997,20,100,112,3690,3688,4363,4371,-626,17459,25,2,16146,0,false,false,false,false,false,false,false,false,false,false,0,0,0,0,53,66,67,52,945,946,945,946,940,940,940,940,0.0,0.0,0.0,0.0,1486.5,1482.2,1481.0,1485.3,0.0,0.0,0.0,0.0,0,0,0,0,-45.0,5.483547174243719E-11,4.325695340001037E-11,0,-110.988,-111.49074,0.06408846,0.007320429,-0.9798781,0.98199904,0.17886434,-0.15208022,0.014348313,0.23521633,-259,178,1374,1409.0,9.2928455E-4,0.0012197634,0.0061144675,0.0063038166,0.0015334251189090223,-0.0015243991290053193,-0.48812322867853597,3.954787389098116,-128.9397359138522,231.0602640861478,0.7562145351207983,1.903150157082366,-0.1648032363492036,-130.79718553490434,,8.415161482714355E-4,,,45.24,NONE,0.0,0.0,0.0,NONE,5.106978487062408E-11,2.2391906984306373E-11,1.5258789E-5,14.956,14.956,5.334,1.4070408,0,646,3.738,12.0,1.418,19,40.0,OK,25,0,0,0,0,0,65,100,0.0,0,0.0,589232.0,2.69E-43,0.0,-5.9807744E7,62,5.093148E-12,-5.093177E-12,9.4E-44,False,False,0,None,0.0,1.0842022E-19,
109138749,28.365,0.0,0.0,0,-111.17296,-110.95421,0.06451217,0.007890031,-0.9804078,0.9825596,0.2684025,-0.071198694,0.18724819,0.33491945,-256,181,1371,1406.0,0.04559025,0.043730743,0.021621037,0.06677064,0.06317316688572477,-0.06317316688572477,-0.47750679416019276,3.8841929165086535,-135.97750780689537,224.02249219310463,0.8550653188602466,2.9361676886728474,-0.5102108597537086,-130.2067085653568,,0.0,,,45.7,,,13.9926903,66.385106,20190516,112453,2019-05-16T11:24:53Z,62.842,99.99,99.99,21451.75,0,0,0,0.0,0.0,0.0,0,0,0,0,0,0,,,,341999,114,100,113,3689,3688,4305,4329,-2917,17250,25,3690,17375,0,false,false,false,false,false,false,false,false,false,false,0,0,0,0,54,68,67,53,945,946,945,945,940,940,940,940,0.0,0.0,0.0,0.0,1485.9,1480.4,1481.0,1486.5,0.0,0.0,0.0,0.0,0,0,0,0,-45.0,4.534723603213021E-11,7.019636891174568E-11,0,-110.91402,-111.49867,0.06400799,0.008210226,-0.97993714,0.9820597,0.08341818,0.007060328,0.10047869,0.13078383,-259,181,1368,1404.0,0.0015929565,0.0010020641,0.008896174,0.00909305,0.001881925305250761,-0.0018787900878846746,-0.46541569384717346,3.91121413542474,-129.16960287509966,230.83039712490034,0.8041183956930835,2.0912008902575767,-0.2467841414638121,-130.69154394718055,,8.82792549546256E-4,,,45.59,NONE,0.0,0.0,0.0,NONE,6.880807617919987E-11,6.87176149193853E-11,6.1035156E-5,14.957,14.957,5.336,1.4073764,0,646,3.738,12.0,1.415,19,40.0,OK,26,0,0,0,0,0,65,100,0.0,0,0.0,589232.0,2.69E-43,0.0,-5.9807744E7,62,5.093148E-12,-5.093177E-12,9.4E-44,False,False,0,None,0.0,1.0842022E-19,
113015013,29.372,0.0,0.0,0,-111.1254,-110.94087,0.06421685,0.00863406,-0.98010665,0.9822461,0.1495643,-0.027449317,0.16156542,0.22187006,-262,178,1364,1400.0,0.05220066,0.048687384,0.008625288,0.07190108,0.07138186123834009,-0.07138186123834009,-0.47335363815464643,3.8874278511080447,-135.97970623414898,224.02029376585102,0.9153141107298047,3.119876579559493,-0.5503700019680408,-131.76726091722506,,0.0,,,45.99,,,13.9926903,66.385106,20190516,112454,2019-05-16T11:24:54Z,62.842,99.99,99.99,21501.17,0,0,0,0.0,0.0,0.0,0,0,0,0,0,0,,,,342709,48,94,114,3450,3705,4278,4283,-1129,17114,32,212,17113,0,false,false,false,false,false,false,false,false,false,false,0,0,0,0,53,67,69,52,944,946,945,946,940,940,940,940,0.0,0.0,0.0,0.0,1485.9,1481.0,1481.6,1486.5,0.0,0.0,0.0,0.0,0,0,0,0,-45.0,1.7856948143409593E-12,7.191931618285668E-12,0,-110.945724,-111.51244,0.06403703,0.0075643985,-0.9792834,0.98140407,0.21841228,-0.0079746265,0.12681466,0.25268453,-262,181,1368,1404.0,1.6539713E-4,3.1489726E-5,0.0029037553,0.0029086324,1.6836808778947676E-4,-1.5991360483509902E-4,-0.4639416346633279,3.9027360657414785,-129.25735199671368,230.74264800328632,0.8451147820002496,2.2437330811619947,-0.22108723534336,-131.2404445178735,,9.216615737744707E-4,,,45.92,NONE,0.0,0.0,0.0,NONE,1.123026868933326E-11,6.77246328679548E-11,1.2207031E-4,14.955,14.955,5.333,1.4084649,0,645,3.738,12.0,1.425,19,39.9,OK,27,0,0,0,0,0,65,100,0.0,0,0.0,589232.0,2.69E-43,0.0,-5.9807744E7,62,5.093148E-12,-5.093177E-12,9.4E-44,False,False,0,None,0.0,1.0842022E-19,
116914805,30.386,0.0,0.0,0,-111.10954,-110.92897,0.06380806,0.009200958,-0.97952884,0.981648,0.20485151,0.13389903,0.052162148,0.25022787,-256,181,1361,1396.0,0.0,0.0,0.0038082541,0.0038082541,0.0,0.0,-0.454191600665265,3.871482802967305,-135.97938580343438,224.02061419656562,1.0009519262279052,3.2819040435224984,-0.5682802649812982,-130.46965476913712,,0.0,,,46.17,,,13.9926903,66.385106,20190516,112455,2019-05-16T11:24:55Z,62.842,99.99,99.99,21552.33,0,0,0,0.0,0.0,0.0,0,0,0,0,0,0,,,,342709,17,94,115,3450,3705,4278,4284,-1066,17114,32,0,17109,0,false,false,false,false,false,false,false,false,false,false,0,0,0,0,53,67,67,52,944,946,945,945,940,940,940,940,0.0,0.0,0.0,0.0,1485.9,1480.4,1480.4,1485.9,0.0,0.0,0.0,0.0,0,0,0,0,-45.0,-1.3011371794362577E-11,-4.67867728194282E-11,0,-110.90873,-111.51126,0.06379455,0.008332239,-0.9797786,0.9818886,0.15063696,-0.036977645,0.02739136,0.15750912,-259,181,1368,1404.0,-0.0010275998,-3.0199118E-4,-1.392905E-4,0.0010800749,0.0010710555503276884,-0.0010649150900393423,-0.45847272407755096,3.8895262426980532,-129.29510111886174,230.70489888113826,0.9187786552666137,2.3825033298811102,-0.27023110140003526,-130.805221584663,,9.492256848865937E-4,,,46.16,NONE,0.0,0.0,0.0,NONE,2.705595628346189E-11,-3.4678428594167195E-11,1.5258789E-5,14.955,14.955,5.333,1.4108728,0,645,3.738,12.0,1.454,19,40.0,OK,28,0,0,0,0,0,65,100,0.0,0,0.0,589232.0,2.69E-43,0.0,-5.9807744E7,62,5.093148E-12,-5.093177E-12,9.4E-44,False,False,0,None,0.0,1.0842022E-19,
120812627,31.399,0.0,0.0,0,-111.03556,-110.86938,0.22957873,0.19060732,-1.296661,1.3305515,-66.258255,18.876522,15.114182,70.5331,-273,1,1337,1364.0,-0.21397115,-0.099029966,-0.7345652,0.77147686,0.23577656499203528,-0.23577656499203528,-11.9401665475692,7.14237288563111,-133.57871771583896,226.42128228416104,2.877569630418728,-5.687786575538677,2.9322869219542484,-111.30710588395011,,0.0,,,46.5,-0.0721966079101577,,13.9926903,66.385106,20190516,112456,2019-05-16T11:24:56Z,62.842,99.99,99.99,21605.22,0,0,0,0.0,0.0,0.0,0,0,0,0,0,0,,,,345926,16,94,116,3439,3698,4292,4299,-615,17167,28,0,16471,0,false,false,false,false,false,false,false,false,false,false,0,0,0,0,52,66,66,51,944,945,944,945,940,940,940,940,0.0,0.0,0.0,0.0,1486.5,1481.6,1482.2,1485.3,0.0,0.0,0.0,0.0,0,0,0,0,-45.0,-6.836787934186557E-9,-1.3473536220235628E-8,0,-110.660355,-111.42109,0.29900646,0.21314119,-1.3087021,1.3592407,-54.477192,13.210943,33.408047,65.25635,-302,-53,1328,1362.0,-0.30729157,-0.151914,-0.86848986,0.9336919,0.342791434573612,-0.3411382343520005,-14.244990687318023,8.09783948862536,-125.51150041611731,234.48849958388269,3.694864158641423,-13.093438285915997,2.8400150032211817,-112.81151181546464,,0.002858720934630796,,,46.53,NONE,0.0,0.0,0.0,NONE,-2.256833267390153E-9,-5.555733189688553E-10,-7.171631E-4,14.956,14.956,5.334,1.4154596,0,644,3.738,12.0,1.462,19,39.9,OK,29,0,0,0,0,0,65,100,0.0,0,0.0,589232.0,2.69E-43,0.0,-5.9807744E7,62,5.093148E-12,-5.093177E-12,9.4E-44,False,False,0,None,0.0,1.0842022E-19,
124832563,32.443,0.0,0.0,0,-110.14774,-110.132965,0.16906069,0.5514556,-0.6524971,0.87088305,1.9956071,-3.0731766,-64.53597,64.639915,-214,-410,1279,1360.0,-0.15910846,0.16835856,0.33093,0.403949,0.23164651872879027,-0.23164651872879027,-33.85887542074868,10.699007483243898,-77.88850406603474,282.1114959339653,47.9760074047055,-44.12380784038919,-5.747440450305888,-85.49702584496458,,0.0,,,46.83,0.8156207749023423,,13.9926903,66.385106,20190516,112457,2019-05-16T11:24:57Z,62.842,99.99,99.99,21670.96,0,0,0,0.0,0.0,0.0,0,0,0,0,0,0,,,,345926,20,94,117,3439,3698,4292,4299,-615,17167,28,2,16471,0,false,false,false,false,false,false,false,false,false,false,0,0,0,0,53,68,67,52,945,946,945,946,940,940,940,940,0.0,0.0,0.0,0.0,1485.9,1481.6,1479.7,1485.3,0.0,0.0,0.0,0.0,0,0,0,0,-45.0,3.6051643668700472E-9,-3.3789380271993807E-9,0,-109.86237,-111.0625,-0.06831889,0.7093664,-0.86721975,1.1224697,-8.6618185,-12.340943,-44.6063,47.08554,-107,-457,1273,1356.0,-0.07311134,0.0844017,0.5277622,0.5394459,0.1116642937620124,-0.11011853523984864,-34.74301890689497,2.4036004557661452,-80.97282809661017,279.02717190338984,56.5555288127422,-53.08753634731963,-17.526921826122184,-98.47002202281091,,0.005791635431222145,33.22238084460408,33.22238084460408,46.84,NONE,0.0,0.0,0.0,NONE,2.9157094741422537E-9,-3.765263002487124E-9,0.0027389526,14.954,14.954,5.331,1.421437,0,644,3.737,12.0,1.435,19,39.9,OK,30,0,0,0,0,0,65,100,0.0,0,0.0,589232.0,2.69E-43,0.0,-5.9807744E7,62,5.093148E-12,-5.093177E-12,9.4E-44,False,False,0,None,0.0,1.0842022E-19,
128722569,33.454,0.0,0.0,0,-110.142456,-110.18526,0.26549664,0.47308713,-0.9128751,1.0619044,34.558483,-48.386536,111.61294,126.46341,-428,-413,1242,1377.0,-0.15435427,-0.024840355,0.026103225,0.15850446,0.1563402868722619,-0.1563402868722619,-24.613217213458196,16.397070054495146,-101.79498702110999,258.20501297889,35.733950183784984,-38.09203765403384,19.246261903153297,-106.97402030191292,,0.0,,,47.16,0.8209079453124986,,13.9926903,66.385106,20190516,112458,2019-05-16T11:24:58Z,62.842,99.99,99.99,21727.61,0,0,0,0.0,0.0,0.0,0,0,0,0,0,0,,,,346091,48,92,118,3364,3698,4256,4261,-996,17036,29,212,17035,0,false,false,false,false,false,false,false,false,false,false,0,0,0,0,53,67,67,52,944,945,945,945,940,940,940,940,0.0,0.0,0.0,0.0,1485.3,1481.6,1480.4,1487.1,0.0,0.0,0.0,0.0,0,0,0,0,-45.0,9.159355981978407E-9,1.4189344880300934E-11,0,-110.32742,-111.28661,0.44499692,0.66350466,-0.64424926,1.0263127,22.69132,0.83728224,26.27947,34.7305,-406,-702,1065,1338.0,-0.0026106988,0.19559601,0.28128436,0.3426157,0.1956134385053221,-0.19489758201452567,-39.34152827365256,17.031786969996375,-111.06404302349623,248.93595697650377,33.225510637244454,-58.236631350153125,18.237605425144235,-97.15318319943134,,0.014328905431210516,-108.738230581907,-108.738230581907,47.11,NONE,0.0,0.0,0.0,NONE,1.0635583289470894E-8,5.992990281800483E-10,0.0014038086,14.954,14.954,5.332,1.427545,0,643,3.737,12.0,1.467,19,39.9,OK,31,0,0,0,0,0,65,100,0.0,0,0.0,589232.0,2.69E-43,0.0,-5.9807744E7,62,5.093148E-12,-5.093177E-12,9.4E-44,False,False,0,None,0.0,1.0842022E-19,
132695120,34.487,0.0,0.0,0,-109.80424,-110.21329,0.22035079,-1.8257368E-4,-0.972947,0.99758726,-4.848311,9.886075,9.454891,14.513289,-200,366,1368,1430.0,0.4158002,0.034596197,0.2920664,0.509303,0.4172369888327218,-0.4172369888327218,0.3866001726394331,13.187004201707758,-64.9560494190798,295.0439505809202,77.11198456729512,-23.05582608372085,8.545957258765586,-71.71092565912993,,0.0,,,47.47,1.1591266342773423,,13.9926903,66.385106,20190516,112459,2019-05-16T11:24:59Z,62.842,99.99,99.99,21785.95,0,0,0,0.0,0.0,0.0,0,0,0,0,0,0,,,,346091,17,92,119,3364,3698,4256,4261,-996,17036,29,0,17035,0,false,false,false,false,false,false,false,false,false,false,0,0,0,0,52,67,67,53,945,946,945,946,940,940,940,940,0.0,0.0,0.0,0.0,1485.3,1482.2,1482.2,1485.9,0.0,0.0,0.0,0.0,0,0,0,0,-45.0,5.707865180976205E-10,3.7340903542795225E-8,0,-110.03148,-111.74504,0.21897897,-0.014718661,-0.9840248,1.008203,-8.71414,4.3740354,17.191635,19.764128,-206,375,1364,1429.0,0.41488168,0.0062371697,0.5796903,0.7128861,0.41492855620423474,-0.41080341588548996,0.014072062334220738,12.973506734639301,-59.216405028478206,300.7835949715218,94.09770667157298,-35.84635170730922,3.2026548319276156,-74.27390925064716,,0.020326886428051867,5.851608315838649,5.851608315838649,47.48,NONE,0.0,0.0,0.0,NONE,3.0172439259757654E-10,1.873445439685141E-8,0.0029144287,14.953,14.953,5.334,1.4330049,0,643,3.737,12.0,1.418,19,39.9,OK,32,0,0,0,0,0,65,100,0.0,0,0.0,589232.0,2.69E-43,0.0,-5.9807744E7,62,5.093148E-12,-5.093177E-12,9.4E-44,False,False,0,None,0.0,1.0842022E-19,
136713219,35.531,0.0,0.0,0,-110.03148,-110.14902,0.22757798,0.09754138,-0.9508649,0.9825732,-8.920564,-4.7462664,5.217363,11.3720875,-172,293,1386,1427.0,0.0,0.0,0.16875933,0.16875933,0.0,0.0,-3.2445622319176484,13.27782577828178,-59.28049136016226,300.7195086398377,82.14933892795534,-27.81574190384037,8.265292612318582,-68.43654301149256,,0.0,,,47.74,0.931885118164061,,13.9926903,66.385106,20190516,112500,2019-05-16T11:25:00Z,62.842,99.99,99.99,21845.97,0,0,0,0.0,0.0,0.0,0,0,0,0,0,0,,,,346713,16,92,120,3365,3699,4252,4265,-1403,17054,29,0,17077,0,false,false,false,false,false,false,false,false,false,false,0,0,0,0,53,67,66,53,945,946,945,946,940,940,940,940,0.0,0.0,0.0,0.0,1485.9,1481.6,1482.2,1485.3,0.0,0.0,0.0,0.0,0,0,0,0,-45.0,-7.02832813913232E-9,-5.035783265362322E-9,0,-109.9575,-112.12687,0.2573863,-0.08847432,-0.9635787,1.0012789,0.654222,-4.872285,5.014161,7.022035,-178,312,1380,1425.0,-0.11508872,-0.16019443,0.6277202,0.657982,0.19725027119021998,-0.192666052072896,-2.449174543943569,12.944916052434502,-54.99513228957535,305.00486771042466,96.54578695703776,-38.74628628732839,3.1888596369718654,-70.34534415276354,,0.025489079199503398,-161.12060418639393,-161.12060418639393,47.63,NONE,0.0,0.0,0.0,NONE,-9.902256682264984E-9,-7.1680632168315906E-9,0.0033111572,14.953,14.953,5.331,1.4364659,0,642,3.736,12.0,1.427,19,39.9,OK,33,0,0,0,0,0,65,100,0.0,0,0.0,589232.0,2.69E-43,0.0,-5.9807744E7,62,5.093148E-12,-5.093177E-12,9.4E-44,False,False,0,None,0.0,1.0842022E-19,
140626840,36.548,0.0,0.0,0,-110.036766,-109.836876,0.28155994,0.10017474,-0.91116506,0.95892274,-4.6424575,30.064812,-1.899672,30.480389,-271,197,1395,1434.0,0.0,0.0,-0.19715732,0.19715732,0.0,0.0,-6.203828642743873,21.868326313373746,-54.41657084123758,305.58342915876244,86.3133350103358,-31.64265526856893,16.06604297463946,-53.42942708540924,,0.0,,,48.09,0.9265979477539048,,13.9926903,66.385106,20190516,112501,2019-05-16T11:25:01Z,62.842,99.99,99.99,21907.65,0,0,0,0.0,0.0,0.0,0,0,0,0,0,0,,,,346713,20,92,121,3365,3699,4252,4265,-1403,17054,29,2,17077,0,false,false,false,false,false,false,false,false,false,false,0,0,0,0,52,67,68,53,945,946,945,946,940,940,940,940,0.0,0.0,0.0,0.0,1484.6,1481.0,1481.6,1485.9,0.0,0.0,0.0,0.0,0,0,0,0,-45.0,-1.7095989440573486E-9,3.684203419297149E-9,0,-110.20587,-112.82111,0.31503853,0.17301981,-0.9852876,1.0487977,-20.01852,10.441664,11.040201,25.132757,-113,233,1407,1430.0,0.08581257,-0.03956661,0.59320706,0.6006862,0.09449504797502165,-0.09337842677308954,-6.6089135241155805,12.442175172181093,-49.39656330798387,310.60343669201615,101.7517782215795,-41.92539361512039,2.260953432139967,-64.81280931414673,,0.02827263738789266,,,48.05,NONE,0.0,0.0,0.0,NONE,-4.253282270114374E-9,7.012516514577638E-9,0.0027389526,14.953,14.953,5.333,1.4376838,0,642,3.737,12.0,1.424,19,39.8,OK,34,0,0,0,0,0,65,100,0.0,0,0.0,589232.0,2.69E-43,0.0,-5.9807744E7,62,5.093148E-12,-5.093177E-12,9.4E-44,False,False,0,None,0.0,1.0842022E-19,
144493444,37.553,0.0,0.0,0,-109.751396,-109.7459,0.19036339,0.0558911,-0.95586705,0.9762396,20.387627,-2.9561653,10.810624,23.265078,-56,290,1407,1437.0,0.053345732,-0.14694855,-0.11060171,0.19150034,0.15633183362909292,-0.15633183362909292,-1.627006127441171,11.307757545682847,-51.96483417356497,308.03516582643505,90.46215883851144,-27.49022167626228,5.30982042786201,-56.38738602063665,,0.0,,,48.37,1.2119678208007798,,13.9926903,66.385106,20190516,112502,2019-05-16T11:25:02Z,62.842,99.99,99.99,21970.97,0,0,0,0.0,0.0,0.0,0,0,0,0,0,0,,,,346815,48,91,122,3328,3699,4245,4251,-1083,16993,30,212,16991,0,false,false,false,false,false,false,false,false,false,false,0,0,0,0,53,68,67,53,945,947,945,947,940,940,940,940,0.0,0.0,0.0,0.0,1487.7,1481.6,1480.4,1485.3,0.0,0.0,0.0,0.0,0,0,0,0,-45.0,-3.319905783351745E-9,1.4537200090903256E-9,0,-109.783104,-112.56724,0.16681594,0.062743545,-0.93975204,0.9565031,-7.0974274,-8.20631,-3.7582278,11.482216,-76,274,1404,1432.0,0.03143308,-0.07458359,0.05488267,0.09778987,0.08093670795855841,-0.08063230337755939,-5.050204806935922,10.6672989418324,-46.89327588768579,313.1067241123142,105.22582669256421,-44.442715611810186,-6.812026584074728,-65.61738323198595,,0.033178346065344554,,,48.26,NONE,0.0,0.0,0.0,NONE,-3.1886375315774614E-9,7.26626780264359E-10,-3.0517578E-5,14.954,14.954,5.333,1.4376267,0,642,3.737,12.0,1.434,19,39.8,OK,35,0,0,0,0,0,65,100,0.0,0,0.0,589232.0,2.69E-43,0.0,-5.9807744E7,62,5.093148E-12,-5.093177E-12,9.4E-44,False,False,0,None,0.0,1.0842022E-19,
148410597,38.571,0.0,0.0,0,-109.8518,-109.705414,0.2619879,-0.12659475,-0.9383037,0.98238367,10.803629,10.800095,-10.147282,18.339241,-149,492,1340,1435.0,0.015870718,-0.15696679,-0.0060720597,0.15788388,0.15776708345965995,-0.15776708345965995,6.884050823774185,15.844636410169606,-51.081033885650164,308.9189661143498,93.56645984341706,-19.655322871703333,9.035074157148133,-54.25306090506077,,0.0,,,48.73,1.1115649887695298,,13.9926903,66.385106,20190516,112503,2019-05-16T11:25:03Z,62.842,99.99,99.99,22035.93,0,0,0,0.0,0.0,0.0,0,0,0,0,0,0,,,,346815,17,91,123,3328,3699,4246,4250,-1009,16996,30,0,16991,0,false,false,false,false,false,false,false,false,false,false,0,0,0,0,53,67,68,53,945,946,945,946,940,940,940,940,0.0,0.0,0.0,0.0,1485.9,1481.6,1481.0,1485.3,0.0,0.0,0.0,0.0,0,0,0,0,-45.0,-7.418351452687236E-9,2.6126470547082744E-10,0,-109.650986,-112.41735,0.24336216,-0.13309784,-0.9422491,0.9822289,11.051178,16.066961,-4.0403867,19.914831,-127,478,1349,1436.0,0.004960104,-0.16508715,0.036219597,0.16908646,0.165161645949103,-0.16469543725220967,5.844626553142017,15.31255712226777,-43.419144910848125,316.5808550891519,109.65598208351994,-34.80435282832173,-5.891059101447397,-54.10168833370205,,0.036000716496796877,,,48.66,NONE,0.0,0.0,0.0,NONE,-7.51366102122961E-9,9.854903338373844E-10,1.8310547E-4,14.954,14.954,5.333,1.4371177,0,641,3.738,12.0,1.435,19,39.8,OK,36,0,0,0,0,0,65,100,0.0,0,0.0,589232.0,2.69E-43,0.0,-5.9807744E7,62,5.093148E-12,-5.093177E-12,9.4E-44,False,False,0,None,0.0,1.0842022E-19,
152269367,39.574,0.0,0.0,0,-109.53472,-109.69141,0.3228482,-0.13700989,-0.88180476,0.94899017,2.9457111,-4.3544936,-1.750312,5.5409765,-290,533,1291,1426.0,0.056381825,-0.034075473,0.036954798,0.07553612,0.0658790402788506,-0.0658790402788506,7.391739985247413,18.740042012999798,-59.89230227026474,300.10769772973526,85.5205784572653,-16.015481813541914,10.46661848151642,-66.35224949157792,,0.0,,,49.02,1.4286426254882798,,13.9926903,66.385106,20190516,112504,2019-05-16T11:25:04Z,62.842,99.99,99.99,22102.51,0,0,0,0.0,0.0,0.0,0,0,0,0,0,0,,,,346819,16,91,124,3328,3700,4234,4246,-1416,16897,30,0,16325,0,false,false,false,false,false,false,false,false,false,false,0,0,0,0,52,68,67,52,945,946,945,945,940,940,940,940,0.0,0.0,0.0,0.0,1485.3,1481.6,1481.0,1485.3,0.0,0.0,0.0,0.0,0,0,0,0,-45.0,-5.216593143925494E-10,-1.1264467874296388E-9,0,-109.703835,-112.477776,0.31549257,-0.08898748,-0.93820524,0.99382263,3.7652023,2.0016637,0.6186172,4.308839,-254,525,1309,1433.0,-0.023783915,-0.011417521,0.07368191,0.078262754,0.02638246393947772,-0.025602460580417482,6.907683187045443,17.335795751742484,-52.193579932173904,307.8064200678261,103.43366023353181,-31.524555303442295,-5.205978329762175,-65.78856196031599,,0.03832029056711647,,,48.94,NONE,0.0,0.0,0.0,NONE,-2.131614817454895E-9,1.994439969163831E-9,5.0354004E-4,14.953,14.953,5.33,1.4365203,0,641,3.738,12.0,1.431,19,39.8,OK,37,0,0,0,0,0,65,100,0.0,0,0.0,589232.0,2.69E-43,0.0,-5.9807744E7,62,5.093148E-12,-5.093177E-12,9.4E-44,False,False,0,None,0.0,1.0842022E-19,
156146429,40.582,0.0,0.0,0,-109.76725,-109.673485,0.27223724,-0.14459467,-0.93298155,0.982586,2.0912483,-1.4407737,1.4743524,2.9364712,-245,566,1276,1417.0,-0.041131116,-0.058223136,0.0072066914,0.07164942,0.0712860609755222,-0.0712860609755222,9.221658440151959,16.96877893833483,-57.44950599001226,302.55049400998774,88.31580688693238,-15.082206120798082,9.365797971759655,-65.72700678831553,,0.0,,,49.33,1.1961139389648423,,13.9926903,66.385106,20190516,112505,2019-05-16T11:25:05Z,62.842,99.99,99.99,22170.69,0,0,0,0.0,0.0,0.0,0,0,0,0,0,0,,,,346819,20,91,125,3328,3700,4234,4246,-1416,16897,30,2,16325,0,false,false,false,false,false,false,false,false,false,false,0,0,0,0,53,68,68,53,945,945,944,946,940,940,940,940,0.0,0.0,0.0,0.0,1485.9,1482.2,1481.0,1485.3,0.0,0.0,0.0,0.0,0,0,0,0,-45.0,-5.538664606675107E-9,2.9114935033638724E-9,0,-109.835945,-112.53094,0.30761847,-0.15693,-0.9203085,0.98296684,5.4727025,-10.5497875,8.517338,14.62168,-293,538,1282,1420.0,0.06386058,-0.123659596,0.090474226,0.16599835,0.13917567517934118,-0.1384649884296954,7.592001007673909,18.52519283061094,-50.880607114534406,309.1193928854656,107.55635149511545,-28.40843792815176,-7.430118769426476,-67.79922467674442,,0.039094061211069314,,,49.16,NONE,0.0,0.0,0.0,NONE,-5.159568093379565E-9,4.056011654976152E-10,2.593994E-4,14.953,14.953,5.33,1.4359747,0,641,3.738,12.0,1.441,19,39.8,OK,38,0,0,0,0,0,65,100,0.0,0,0.0,589232.0,2.69E-43,0.0,-5.9807744E7,62,5.093148E-12,-5.093177E-12,9.4E-44,False,False,0,None,0.0,1.0842022E-19,
160136270,41.619,0.0,0.0,0,-109.74082,-109.68524,0.24197672,-0.16659817,-0.93883634,0.9837283,1.199253,-1.7524558,0.88092566,2.2989864,-186,585,1279,1418.0,-0.018600421,-0.006891521,0.048430815,0.052335575,0.019836045775074806,-0.019836045775074806,9.778912297075376,14.3057374182283,-57.40798740378662,302.5920125962134,88.52240389947096,-14.312332681290243,6.678997257862814,-66.56040257200434,,0.0,,,49.61,1.2225421616210923,,13.9926903,66.385106,20190516,112506,2019-05-16T11:25:06Z,62.842,99.99,99.99,22240.46,0,0,0,0.0,0.0,0.0,0,0,0,0,0,0,,,,347055,48,79,126,2904,3700,4102,4107,-1046,16412,33,212,16409,0,false,false,false,false,false,false,false,false,false,false,0,0,0,0,53,68,67,53,944,946,945,946,940,940,940,940,0.0,0.0,0.0,0.0,1485.3,1481.6,1481.6,1485.3,0.0,0.0,0.0,0.0,0,0,0,0,-45.0,-8.987479405950434E-10,4.3418065911826376E-10,0,-109.783104,-112.63742,0.2475777,-0.16929065,-0.9345832,0.9815293,-1.3938937,-3.4599283,-0.19936252,3.735477,-192,585,1276,1416.0,0.009743772,-0.020116476,0.08732329,0.09013862,0.022352040164227583,-0.02178800908845262,9.567943321119403,14.468557096780062,-50.462322311451935,309.53767768854806,111.8464083963061,-24.842122012323586,-16.14626038675577,-67.27733150857014,,0.040185401231450306,,,49.58,NONE,0.0,0.0,0.0,NONE,-1.0101209365500312E-9,6.241974459492174E-10,4.4250488E-4,14.952,14.952,5.331,1.4359747,0,641,3.738,12.0,1.441,19,39.8,OK,38,0,0,0,0,0,65,100,0.0,0,0.0,589232.0,2.69E-43,0.0,-5.9807744E7,62,5.093148E-12,-5.093177E-12,9.4E-44,False,False,0,None,0.0,1.0842022E-19,
163993016,42.621,0.0,0.0,0,-109.81481,-109.68257,0.26239213,-0.2350921,-0.9592097,1.0218616,7.7903943,14.827023,-5.689862,17.68913,-178,626,1254,1412.0,-0.04175893,-0.037581068,-0.050973706,0.075858176,0.056179574914861086,-0.056179574914861086,12.026697072978155,14.823344134620571,-58.39536378846684,301.60463621153315,88.11821400064173,-11.589163663115725,7.439850319439806,-63.48815531648808,,0.0,,,49.89,1.1485522934570298,,13.9926903,66.385106,20190516,112507,2019-05-16T11:25:07Z,62.842,99.99,99.99,22311.81,0,0,0,0.0,0.0,0.0,0,0,0,0,0,0,,,,347055,17,79,127,2904,3700,4103,4108,-985,16412,33,0,16409,0,false,false,false,false,false,false,false,false,false,false,0,0,0,0,54,68,67,52,945,945,945,945,940,940,940,940,0.0,0.0,0.0,0.0,1485.3,1481.6,1479.7,1485.3,0.0,0.0,0.0,0.0,0,0,0,0,-45.0,-2.719000347907715E-9,-2.1953330890944524E-11,0,-109.703835,-112.69559,0.2772232,-0.2513124,-0.94468254,1.0160885,7.309799,12.819609,-9.480983,17.540369,-189,628,1251,1412.0,-9.3823543E-4,-0.061348226,-0.029042078,0.06788172,0.0613554010812842,-0.06114722951850594,12.079324161749602,15.578637946194998,-51.738560893907135,308.2614391060929,110.92591456084466,-22.443533857802844,-15.916428877074287,-62.70894789851906,,0.04086813680089842,,,49.94,NONE,0.0,0.0,0.0,NONE,-2.8563425283546087E-9,-7.417280883687735E-10,2.975464E-4,14.951,14.951,5.331,1.4335947,0,640,3.737,12.0,1.41,19,39.8,OK,40,0,0,0,0,0,65,100,0.0,0,0.0,589232.0,2.69E-43,0.0,-5.9807744E7,62,5.093148E-12,-5.093177E-12,9.4E-44,False,False,0,None,0.0,1.0842022E-19,
167890687,43.634,0.0,0.0,0,-109.497734,-109.35917,0.467466,-0.36102685,-0.7460375,0.9515444,13.152641,13.444555,-1.352744,18.856775,-496,806,1025,1395.0,-0.030747045,0.20422167,-0.17492716,0.2706499,0.2065232901070294,-0.2065232901070294,21.10070835610056,30.179291218153505,-66.59793763728777,293.40206236271223,84.51518083053116,-0.456243347718307,20.09222983715127,-62.679957033379,,0.0,,,50.22,1.4656299301757798,,13.9926903,66.385106,20190516,112508,2019-05-16T11:25:08Z,62.842,99.99,99.99,22399.48,0,0,0,0.0,0.0,0.0,0,0,0,0,0,0,,,,350235,16,79,128,2899,3700,4138,4144,-616,16559,28,0,15888,0,false,false,false,false,false,false,false,false,false,false,0,0,0,0,53,67,67,52,944,946,945,945,940,940,940,940,0.0,0.0,0.0,0.0,1485.3,1481.0,1480.4,1485.9,0.0,0.0,0.0,0.0,0,0,0,0,-45.0,6.164869871760144E-9,8.226474963499797E-10,0,-109.40261,-112.43137,0.44274387,-0.35669026,-0.7921802,0.9750895,12.414562,13.704834,-0.63364637,18.502577,-482,795,1043,1397.0,0.017972829,0.13683042,-0.14488721,0.2000947,0.13800574541095986,-0.13702617178814502,20.244589739656917,29.058809980128423,-59.11278913602522,300.88721086397476,107.70734113407151,-12.221985244829913,-4.279422208439136,-64.0219354726831,,0.04572241083281867,,,50.23,NONE,0.0,0.0,0.0,NONE,6.271959288464842E-9,8.72778728834054E-10,-7.4768066E-4,14.949,14.949,5.327,1.4335947,0,640,3.736,12.0,1.41,19,39.8,OK,40,0,0,0,0,0,65,100,0.0,0,0.0,589232.0,2.69E-43,0.0,-5.9807744E7,62,5.093148E-12,-5.093177E-12,9.4E-44,False,False,0,None,0.0,1.0842022E-19,
171863117,44.666,0.0,0.0,0,-109.45017,-109.43807,0.4905726,-0.414741,-0.80391425,1.0290529,-2.1618903,0.031576738,-4.668584,5.144943,-482,819,1022,1395.0,-0.28005913,0.05759224,0.04295884,0.28912878,0.2859195396119082,-0.2859195396119082,20.78584760546803,28.236997634427464,-69.02419328983976,290.9758067101602,82.63231563747802,0.49985842153072324,18.58196131270966,-67.74401078688139,,0.0,,,50.54,1.5131915756835923,,13.9926903,66.385106,20190516,112509,2019-05-16T11:25:09Z,62.842,99.99,99.99,22474.24,0,0,0,0.0,0.0,0.0,0,0,0,0,0,0,,,,350236,20,79,129,2899,3700,4123,4134,-1373,16468,28,2,15888,0,false,false,false,false,false,false,false,false,false,false,0,0,0,0,52,68,68,52,944,946,945,945,940,940,940,940,0.0,0.0,0.0,0.0,1486.5,1479.7,1480.4,1485.9,0.0,0.0,0.0,0.0,0,0,0,0,-45.0,-1.1402345454106044E-9,-8.266499661573899E-9,0,-109.51887,-112.45405,0.48151955,-0.40961838,-0.8109032,1.0282083,-2.589315,-1.4909338,-10.359628,10.781898,-473,836,1010,1393.0,-0.1849835,-0.027614819,0.10134133,0.21272409,0.1870333507168103,-0.18577742809021158,20.73989448292369,27.930793147789018,-61.67589838641259,298.3241016135874,106.23196440370423,-10.642800503217474,-7.373156552570334,-68.95511384003832,,0.048424627766091334,,,50.53,NONE,0.0,0.0,0.0,NONE,1.1196198295527707E-9,-5.401121555799854E-9,8.544922E-4,14.95,14.95,5.33,1.4314183,0,639,3.736,12.0,1.446,19,39.8,OK,41,0,0,0,0,0,65,100,0.0,0,0.0,589232.0,2.69E-43,0.0,-5.9807744E7,62,5.093148E-12,-5.093177E-12,9.4E-44,False,False,0,None,0.0,1.0842022E-19,
175722244,45.669,0.0,0.0,0,-109.36033,-109.33259,0.50196666,-0.2606268,-0.7608328,0.94803137,12.194997,-3.235065,-10.272543,16.269873,-547,696,1065,1384.0,-0.06637609,-0.22660127,-0.03175102,0.23824787,0.23612268834777292,-0.23612268834777292,16.407402815548927,30.12605402157752,-71.0848983957244,288.9151016042756,78.40684758544538,-1.3593054241783187,20.79558252384262,-69.3402288308363,,0.0,,,50.88,1.6030353256835923,,13.9926903,66.385106,20190516,112510,2019-05-16T11:25:10Z,62.842,99.99,99.99,22550.53,0,0,0,0.0,0.0,0.0,0,0,0,0,0,0,,,,351132,48,19,130,627,3520,3706,3712,-1122,14861,43,212,14858,0,false,false,false,false,false,false,false,false,false,false,0,0,0,0,53,68,68,53,943,946,945,944,940,940,940,940,0.0,0.0,0.0,0.0,1485.3,1480.4,1480.4,1485.3,0.0,0.0,0.0,0.0,0,0,0,0,-45.0,-1.3238393313111875E-8,1.7909031157761235E-9,0,-109.53472,-112.37702,0.48942292,-0.2214564,-0.7884224,0.95403755,5.8190393,-2.0884836,-10.779212,12.426359,-541,710,1059,1385.0,0.04136584,-0.2948778,0.0035094488,0.29778576,0.29776508764464793,-0.29602087495217416,15.980792746642079,30.01706646696375,-63.080917936376956,296.919082063623,102.72051990436334,-14.722603175851681,-6.42208714240086,-70.4757352097316,,0.05100826049797359,,,50.81,NONE,0.0,0.0,0.0,NONE,-1.318752584162119E-8,1.5064970589785933E-9,-1.5258789E-5,14.948,14.948,5.328,1.4311335,0,639,3.736,12.0,1.479,19,39.8,OK,42,0,0,0,0,0,65,100,0.0,0,0.0,589232.0,2.69E-43,0.0,-5.9807744E7,62,5.093148E-12,-5.093177E-12,9.4E-44,False,False,0,None,0.0,1.0842022E-19,
179721503,46.709,0.0,0.0,0,-109.444885,-109.30872,0.5374785,-0.2958316,-0.7275952,0.9517322,-0.6320539,-11.985076,1.712824,12.123337,-764,661,933,1375.0,-0.06639229,0.026478522,0.045723274,0.08485084,0.07147760476430173,-0.07147760476430173,16.074577004622803,36.90432002755577,-86.52369188849788,273.47630811150214,65.69101918734296,7.2956051378396465,23.358654603990384,-84.34372776516426,,0.0,,,51.14,1.5184787460937486,,13.9926903,66.385106,20190516,112511,2019-05-16T11:25:11Z,62.842,99.99,99.99,22628.32,0,0,0,0.0,0.0,0.0,0,0,0,0,0,0,,,,351132,17,19,131,627,3520,3706,3712,-1122,14861,43,0,14858,0,false,false,false,false,false,false,false,false,false,false,0,0,0,0,54,68,68,54,944,946,945,944,940,940,940,940,0.0,0.0,0.0,0.0,1486.5,1481.0,1480.4,1485.3,0.0,0.0,0.0,0.0,0,0,0,0,-45.0,-2.921399205017407E-9,1.3309206193129387E-9,0,-109.577,-112.37954,0.52128214,-0.29332885,-0.74189514,0.95298755,-6.4592414,-13.07417,4.0317335,15.129792,-761,664,939,1379.0,0.028521696,-0.06435907,0.09882299,0.12133244,0.07039585735506534,-0.06929103857458595,16.00262843254948,36.1107802320212,-79.1750112570391,280.8249887429609,89.83397103621193,-7.148616385393349,-4.578860672241776,-86.22418403362377,,0.053270638889081824,,,51.15,NONE,0.0,0.0,0.0,NONE,-3.7722245852023165E-9,4.691587198799531E-9,-9.1552734E-5,14.949,14.949,5.33,1.437531,0,638,3.736,12.0,1.494,19,39.8,OK,44,0,0,0,0,0,65,100,0.0,0,0.0,589232.0,2.69E-43,0.0,-5.9807744E7,62,5.093148E-12,-5.093177E-12,9.4E-44,False,False,0,None,0.0,1.0842022E-19,
183634504,47.726,0.0,0.0,0,-109.835945,-109.79622,0.7670049,0.556208,0.3845371,1.0225129,-10.37453,22.753876,34.017025,42.21999,-1026,-855,-54,1336.0,-0.5056391,0.30192494,0.16654515,0.61201864,0.5889223493610727,-0.5889223493610727,-37.0752415933357,112.85278611567895,15.538119789131866,15.538119789131883,76.20390546309733,-109.64091653695382,47.31329854586044,40.60406101019423,,0.0,,,51.48,2.0832438706054717,,13.9926903,66.385106,20190516,112512,2019-05-16T11:25:12Z,62.842,99.99,99.99,22707.61,0,0,0,0.0,0.0,0.0,0,0,0,0,0,0,,,,369787,16,19,132,597,3482,3766,3769,0,15072,26,1,16862,0,false,false,false,false,false,false,false,false,false,false,0,0,0,0,53,67,67,53,944,946,945,945,940,940,940,940,0.0,0.0,0.0,0.0,1483.4,1479.1,1479.7,1484.0,0.0,0.0,0.0,0.0,0,0,0,0,-45.0,1.0675476802509282E-8,-1.4017821341419042E-8,0,-109.66155,-112.90345,0.82680875,0.51163715,0.30949113,1.0203774,-69.063866,51.642963,68.21544,109.95526,-930,-934,128,1324.0,-0.3102572,0.23164873,0.2614077,0.46717733,0.3871958900570966,-0.38495387770607536,-40.32335622357478,109.21649620693712,21.477366009278796,21.477366009278796,98.03722383888261,-118.04500286888171,13.400636955561858,33.00014573387803,,0.05873833883183608,,,51.4,NONE,0.0,0.0,0.0,NONE,1.5675749572079247E-8,-1.0433069795796735E-8,0.0017089844,14.946,14.946,5.325,1.4428767,0,638,3.735,12.0,1.453,19,39.8,OK,45,0,0,0,0,0,65,100,0.0,0,0.0,589232.0,2.69E-43,0.0,-5.9807744E7,62,5.093148E-12,-5.093177E-12,9.4E-44,False,False,0,None,0.0,1.0842022E-19,
