Tick#,offsetTime,IMU_ATTI(0):Longitude,IMU_ATTI(0):Latitude,IMU_ATTI(0):numSats,IMU_ATTI(0):barometer:Raw,IMU_ATTI(0):barometer:Smooth,IMU_ATTI(0):accel:X,IMU_ATTI(0):accel:Y,IMU_ATTI(0):accel:Z,IMU_ATTI(0):accel:Composite,IMU_ATTI(0):gyro:X,IMU_ATTI(0):gyro:Y,IMU_ATTI(0):gyro:Z,IMU_ATTI(0):gyro:Composite,IMU_ATTI(0):mag:X,IMU_ATTI(0):mag:Y,IMU_ATTI(0):mag:Z,IMU_ATTI(0):mag:Mod,IMU_ATTI(0):velN,IMU_ATTI(0):velE,IMU_ATTI(0):velD,IMU_ATTI(0):velComposite,IMU_ATTI(0):velH,IMU_ATTI(0):GPS-H,IMU_ATTI(0):roll,IMU_ATTI(0):pitch,IMU_ATTI(0):yaw,IMU_ATTI(0):yaw360,IMU_ATTI(0):totalGyro:Z,IMU_ATTI(0):totalGyro:X,IMU_ATTI(0):totalGyro:Y,IMU_ATTI(0):magYaw,IMU_ATTI(0):distanceHP,IMU_ATTI(0):distanceTravelled,IMU_ATTI(0):directionOfTravel[mag],IMU_ATTI(0):directionOfTravel[true],IMU_ATTI(0):temperature,General:relativeHeight,General:absoluteHeight,GPS(0):Long,GPS(0):Lat,GPS(0):Date,GPS(0):Time,GPS:dateTimeStamp,GPS(0):heightMSL,GPS(0):hDOP,GPS(0):pDOP,GPS(0):sAcc,GPS(0):numGPS,GPS(0):numGLNAS,GPS(0):numSV,GPS(0):velN,GPS(0):velE,GPS(0):velD,RC:Aileron,RC:Elevator,RC:Rudder,RC:Throttle,Controller:navHealth,Controller:ctrl_level,HP:Longitude,HP:Latitude,HP:rthHeight,BatBlackBox:tick,BatBlackBox:id,BatBlackBox:rsoc,BatBlackBox:index,BatBlackBox:rm,BatBlackBox:fcc,BatBlackBox:cell_min,BatBlackBox:cell_max,BatBlackBox:current,BatBlackBox:voltage,BatBlackBox:temp,BatBlackBox:flag,BatBlackBox:reserve,BatBlackBox:user_data,OA:avoidObst,OA:emergBrake,OA:radiusLimit,OA:airportLimit,OA:groundForceLanding,OA:horizNearBoundary,OA:vertLowLimit,OA:vertAirportLimit,OA:roofLimit,OA:hitGroundLimit,Motor:Speed:RFront,Motor:Speed:LFront,Motor:Speed:LBack,Motor:Speed:RBack,Motor:EscTemp:RFront,Motor:EscTemp:LFront,Motor:EscTemp:LBack,Motor:EscTemp:RBack,Motor:PPMrecv:RFront,Motor:PPMrecv:LFront,Motor:PPMrecv:LBack,Motor:PPMrecv:RBack,Motor:PPMsend:RFront,Motor:PPMsend:LFront,Motor:PPMsend:LBack,Motor:PPMsend:RBack,Motor:V_out:RFront,Motor:V_out:LFront,Motor:V_out:LBack,Motor:V_out:RBack,Motor:Volts:RFront,Motor:Volts:LFront,Motor:Volts:LBack,Motor:Volts:RBack,Motor:Current:RFront,Motor:Current:LFront,Motor:Current:LBack,Motor:Current:RBack,Motor:Status:RFront,Motor:Status:LFront,Motor:Status:LBack,Motor:Status:RBack,Motor:thrustAngle,IMU_ATTI(1):Longitude,IMU_ATTI(1):Latitude,IMU_ATTI(1):numSats,IMU_ATTI(1):barometer:Raw,IMU_ATTI(1):barometer:Smooth,IMU_ATTI(1):accel:X,IMU_ATTI(1):accel:Y,IMU_ATTI(1):accel:Z,IMU_ATTI(1):accel:Composite,IMU_ATTI(1):gyro:X,IMU_ATTI(1):gyro:Y,IMU_ATTI(1):gyro:Z,IMU_ATTI(1):gyro:Composite,IMU_ATTI(1):mag:X,IMU_ATTI(1):mag:Y,IMU_ATTI(1):mag:Z,IMU_ATTI(1):mag:Mod,IMU_ATTI(1):velN,IMU_ATTI(1):velE,IMU_ATTI(1):velD,IMU_ATTI(1):velComposite,IMU_ATTI(1):velH,IMU_ATTI(1):GPS-H,IMU_ATTI(1):roll,IMU_ATTI(1):pitch,IMU_ATTI(1):yaw,IMU_ATTI(1):yaw360,IMU_ATTI(1):totalGyro:Z,IMU_ATTI(1):totalGyro:X,IMU_ATTI(1):totalGyro:Y,IMU_ATTI(1):magYaw,IMU_ATTI(1):distanceHP,IMU_ATTI(1):distanceTravelled,IMU_ATTI(1):directionOfTravel[mag],IMU_ATTI(1):directionOfTravel[true],IMU_ATTI(1):temperature,IMUEX(0):err,IMUEX(0):rtk_Longitude,IMUEX(0):rtk_Latitude,IMUEX(0):rtk_Alti,IMUEX(1):err,IMUEX(1):rtk_Longitude,IMUEX(1):rtk_Latitude,IMUEX(1):rtk_Alti,MotorCtrl:Status,MotorCtrl:PWM:RFront,MotorCtrl:PWM:LFront,MotorCtrl:PWM:LBack,MotorCtrl:PWM:RBack,BattInfo:Voltage,BattInfo:BatVoltage,BattInfo:AdVoltage,BattInfo:AvgCurrent,BattInfo:R_time,BattInfo:R_CAP_MAH,BattInfo:LowCellVoltage,BattInfo:LowCellVolThreshold,BattInfo:BatCurrent,BattInfo:Remaining%,BattInfo:Temp,BattInfo:status,battery_info:BatDynCnt,battery_info:Vol1Protect,battery_info:Vol2Protect,battery_info:Cap1Protect,battery_info:Cap2Protect,battery_info:Batpresent,battery_info:sopPercentage,battery_info:sopValue,battery_info:sopScale,battery_info:sopFlg,BattInfo:WindHeading:WindDir,battery_info:home_dir,BattInfo:Wind:rangeMin,BattInfo:Wind:rangeMax,battery_info:cap_speed,battery_info:against_wind,battery_info:emergency_land_cap,battery_info:intel_bat_land_cap,battery_info:intel_bat_gh_cap,BattInfo:Smart:SmartGh,BattInfo:Smart:SmartLand,BattInfo:GoHome:CntDown,BattInfo:GoHome:GhCmd,BattInfo:GoHome:CapLevel,BattInfo:GoHome:LandCapLv,Attribute|Value,ConvertDatV3,3.6.6-Tablet
403442142,.000,10.465325277657838,63.40469456005617,19,111.49797,111.42284,0.06461568,-0.034706675,-0.9994735,1.0021611,-0.07768703,-0.028359223,-0.27447802,0.28666654,321,-190,1441,1488.0,-0.13115764,0.09854442,-0.013230162,0.16458543,0.16405282105550809,-0.16405282105550809,2.784981301436332,3.50123688494787,60.94839820887423,60.94839820887421,-15.483849120418622,82.37911350083812,-210.40750860203815,32.50348980104372,1.0204475554087786,10.831758406442072,-103.1349748646707,-99.94880356573076,65.01,-0.48683141894531445,,10.4653245,63.4046951,20190425,165647,2019-04-25T16:56:47Z,157.53,0.58,1.08,8.22,11,8,19,0.0,0.0,0.02,-9998,-9998,9994,-9998,5,5,10.465324701212745,63.404685386580056,30,24843,20,62,58,2238,3652,3973,3981,-613,15894,32,2,15910,0,false,false,false,false,false,false,false,false,false,false,0,0,0,0,52,68,68,52,944,946,945,945,940,940,940,940,0.0,0.0,0.0,0.0,1571.7,1567.5,1566.8,1570.5,0.0,0.0,0.0,0.0,0,0,0,0,-45.0,10.465324913885217,63.404694543601956,0,111.32093,111.45856,0.06503699,-0.034717906,-0.99878067,1.0014979,0.09183735,-0.08975968,0.007918044,0.12866077,324,-190,1444,1492.0,-5.162763E-4,0.0015381599,0.0024190168,0.0029127512,0.0016224910361781998,-0.0016224910361781998,2.2371707796868416,3.734719032754539,46.72088404521371,46.72088404521372,-16.12840585687134,71.55863604751582,-216.7001619698567,30.57143530719131,1.0182694168366104,10.707786235584305,49.15137710202144,52.33754840096138,65.0,NONE,0.0,0.0,0.0,NONE,5.21452134817708E-10,1.2850278657475799E-11,3.0517578E-5,,,,,,15.814,15.814,5.642,1.3697107,0,2250,3.949,12.0,1.356,61,32.4,OK,100,0,0,0,0,0,65,100,0.0,0,0.0,122086.0,2.69E-43,0.0,-5.9807744E7,62,0.0013671815,-0.0013671893,4.1718365E-31,False,False,0,None,1.8268126E30,1.0842106E-19,Firmware Date| Oct 17 2018
407295974,1.002,10.465324928045504,63.40469450329839,19,111.199905,111.41189,0.06706471,-0.038568396,-0.9944504,0.9974552,0.64681756,-1.1475021,-0.9718945,1.6369829,312,-193,1447,1492.0,-0.22592576,0.19919391,0.005708337,0.30125278,0.30119870681082966,-0.28271534121360503,2.7059989028662024,3.435011293087165,60.67083592944108,60.67083592944107,-15.621816029463771,82.28399451405588,-210.0960239849567,33.29931746998337,1.0137957140368072,10.934877741587938,59.901486304044646,63.087657602984585,64.99,-0.2100066044921931,,10.4653246,63.4046953,20190425,165648,2019-04-25T16:56:48Z,157.589,0.58,1.08,8.2,11,8,19,0.0,-0.01,0.02,0,0,0,0,5,5,10.465324701212745,63.404685386580056,30,24843,20,62,58,2238,3652,3973,3981,-613,15894,32,2,15910,0,false,false,false,false,false,false,false,false,false,false,527,542,543,533,58,73,74,57,1342,1352,1348,1345,1332,1332,1332,1332,0.1,0.1,0.1,0.1,1557.6,1554.6,1554.6,1557.0,7.08,6.56,7.27,6.78,0,0,0,0,74.35775354279127,10.465324395150224,63.404694851191636,0,111.39574,111.45712,0.06658917,-0.025890704,-0.9972653,0.9998212,0.56545055,-0.82064664,-1.1446029,1.5176663,315,-193,1438,1484.0,0.006985639,0.0017727745,0.006471452,0.009686153,0.007207071967206987,0.03558058447088072,2.169048062406216,3.757124246626551,45.63750440544516,45.637504405445156,-16.361224831533047,71.62724348749498,-216.82036643643374,31.219573398832672,1.0525270706571455,10.877579459603865,17.911382371788456,21.0975536707284,65.03,NONE,0.0,0.0,0.0,NONE,-1.913585833132456E-11,4.3369690483246995E-10,4.5776367E-5,1,22.5,22.5,22.5,22.5,15.811,15.811,5.597,1.3697107,0,2250,3.949,12.0,1.356,61,32.4,OK,100,0,0,0,0,0,65,100,0.0,0,0.0,337256.0,9.0E-44,0.0,-5.9807744E7,62,0.0013671815,-0.0013671893,6.098007E-31,False,False,0,None,3.2403854E30,1.0842106E-19,ACType|MavicEnterprise
411157354,2.005,10.465324398531068,63.40469512046563,19,111.199905,111.411934,0.0644107,-0.03445285,-0.9975148,1.0001857,1.4906905,-0.94333655,0.31572053,1.7921276,324,-190,1438,1486.0,-0.27553993,0.2773627,0.014884943,0.3912466,0.39096333156901814,-0.3177096309998573,2.6812915772450836,3.296213028652077,60.64820020742918,60.64820020742917,-13.087072012295671,84.25347277607196,-208.99936367182266,32.36933317861099,1.0824635675032144,11.054068363394231,-107.16598817667595,-103.97981687773601,64.93,-0.2100066044921931,,10.4653244,63.4046956,20190425,165650,2019-04-25T16:56:50Z,157.644,0.58,1.08,8.19,11,8,19,0.01,0.01,0.01,0,0,0,0,5,5,10.465324701212745,63.404685386580056,30,24843,20,62,58,2238,3652,3973,3981,-613,15894,32,2,15910,0,false,false,false,false,false,false,false,false,false,false,1951,1887,1967,1998,58,74,74,57,1210,1207,1213,1215,1202,1200,1204,1207,0.0,0.0,0.0,0.0,1567.5,1563.8,1562.6,1568.1,0.54,0.12,0.74,0.28,0,0,0,0,-36.79764575537439,10.465323547396554,63.404695019306395,0,111.199905,111.44419,0.06614407,-0.033386234,-0.99613255,0.99888426,-1.251822,2.0204017,-1.768959,2.962819,327,-190,1444,1492.0,0.03161514,-0.0030680685,0.024724796,0.040252276,0.03176366084725553,0.014229232593707938,2.106519064810864,3.637339657661975,44.623953611851604,44.62395361185162,-16.16115789748543,70.76644825468145,-215.39855756427505,30.19902685553672,1.0726492113713233,10.998510600780406,-56.00550933020616,-52.81933803126622,64.93,NONE,0.0,0.0,0.0,NONE,-1.8418263777970993E-10,1.2111387656792797E-9,1.0681152E-4,2,10.27,10.0,10.44,10.8,15.715,15.715,5.632,1.4248103,0,2249,3.949,12.0,4.264,61,32.3,OK,101,0,0,0,0,0,65,100,0.0,0,0.0,20874.5,9.0E-44,0.0,-5.9807744E7,62,0.0013671815,-0.0013671893,6.235711E-31,False,False,0,None,3.3921105E30,1.0842106E-19,geoDeclination|319 degrees
415037613,3.014,10.465324724764036,63.4046954856731,19,111.199905,111.41384,0.009285727,-0.025596872,-1.0393019,1.0396585,9.385219,-47.14585,10.255356,49.15268,387,-187,1429,1492.0,-0.26781255,0.33994734,-0.053731315,0.43609038,0.43276756204816924,-0.3893984500362298,2.6435549476080715,-1.3606009816807825,60.309212947345834,60.30921294734583,-13.229032959244917,83.69913266633354,-212.7653490744818,35.583168279772316,1.1229685237232234,11.14746658191895,68.3690347780826,71.55520607702253,64.94,-0.2100066044921931,,10.4653247,63.404696,20190425,165651,2019-04-25T16:56:51Z,157.619,0.58,1.08,8.19,11,8,19,-0.01,0.0,0.01,0,0,0,8001,5,5,10.465324701212745,63.404685386580056,30,24843,20,62,58,2238,3652,3973,3981,-613,15894,32,2,15910,0,false,false,false,false,false,false,false,false,false,false,5500,5197,4188,4328,55,72,71,56,1591,1574,1422,1442,1590,1582,1403,1425,0.0,0.0,0.0,0.0,1546.0,1541.7,1542.3,1546.0,5.59,4.98,2.61,2.36,0,0,0,0,-168.51840285604646,10.465324117999831,63.40469544350941,0,111.199905,111.44277,-0.023420867,-0.025047105,-1.1152,1.1157272,-13.987237,-32.47069,4.863432,35.688114,447,-187,1414,1494.0,0.078755476,0.025914542,-0.08557322,0.11915018,0.0829095202400247,-0.02831001397431404,1.2822807688568112,-4.3015025362547386,43.85647911252471,43.85647911252471,-18.372219931000608,69.3803953153826,-222.78248786251916,32.736270417610925,1.118656328206575,11.111444649186414,55.00927794959145,58.19544924853139,64.9,NONE,0.0,0.0,0.0,NONE,1.896842007879331E-9,3.2082862473830995E-9,-3.5095215E-4,2,58.03,60.38,41.68,42.32,15.766,15.766,5.576,1.6036594,0,2248,3.918,12.0,2.961,61,32.4,OK,102,0,0,0,0,0,65,100,0.0,0,0.0,59487.0,9.0E-44,0.0,-5.9807744E7,62,0.0013671815,-0.0013671893,6.640999E-31,False,False,0,None,3.8386973E30,1.0842106E-19,geoInclination|7478 degrees
418894493,4.016,10.465326347334537,63.40469663358119,19,112.1011,111.655525,-0.011337031,-0.019604169,-1.2257959,1.2260051,0.97453415,-2.1742132,3.131177,3.9346142,418,-210,1420,1495.0,-0.2549738,0.28553832,-0.41974592,0.56809366,0.3828103590924868,-0.23211852480575265,1.8578472696871193,-0.7369058092399026,60.912103506927785,60.91210350692779,-10.246749329047569,87.37109457471261,-210.65951128647282,32.62472439112502,0.11856921898512633,11.342580215392715,39.38896436384056,42.5751356627805,64.98,0.6911851069335881,,10.4653261,63.404697,20190425,165652,2019-04-25T16:56:52Z,157.889,0.58,1.08,8.09,11,8,19,-0.03,-0.04,-0.28,0,0,0,9979,5,5,10.465324328408192,63.404696067807194,30,24843,20,62,58,2238,3652,3973,3981,-613,15894,32,2,15910,0,false,false,false,false,false,false,true,false,false,false,6523,6640,5401,5408,55,73,73,56,1688,1705,1555,1555,1682,1698,1551,1551,0.0,0.0,0.0,0.0,1528.2,1525.2,1524.5,1528.8,6.48,6.12,4.69,4.06,0,0,0,0,177.32457334397083,10.46532514404718,63.404696539554635,0,111.87647,111.85328,-0.012682836,-0.021676179,-1.2782009,1.2784475,-1.9551827,-4.903725,-4.118608,6.6956844,427,-210,1417,1494.0,0.02083728,-0.058043472,-0.6939602,0.696695,0.06167039085747481,0.07016007293326365,1.2830259023206958,-0.5585703282885425,43.540195633776754,43.54019563377676,-20.04548218687671,67.23232698369411,-219.52242346409577,30.321932522545257,0.06633410327589317,11.279277647309414,-20.496871722161934,-17.31070042322199,64.99,NONE,0.0,0.0,0.0,NONE,-4.865292019952042E-9,1.9521714111565587E-9,-0.0014572144,2,71.14,73.67,56.14,55.39,15.705,15.705,5.526,1.8596382,0,2247,3.94,12.0,3.263,61,32.4,OK,103,0,0,0,0,0,65,100,0.0,0,0.0,1.2007539E-15,2.69E-43,0.0,-5.9807744E7,62,0.0019631982,-0.0016626794,1.4224576E-31,False,False,0,None,2.6506424E29,1.3653527E-19,geoIntensity|5185038 nanoTesla
422792776,5.029,10.465327697492636,63.40469736554722,19,113.32341,113.04536,-0.0044304426,-0.0070707765,-0.73574185,0.7357892,-4.3872867,-0.071532145,1.3952482,4.6043587,430,-490,1350,1499.0,0.22272684,0.0712026,-0.34962714,0.42061406,0.23383125173082214,-0.12964593283857562,-9.385338377905137,-0.2520045020004671,60.65427078106569,60.65427078106569,-8.339668227182887,77.23201989912998,-211.22212568863173,31.852025516153084,0.2212491712682497,11.522426099991348,-23.944529295174195,-20.758357996234253,64.99,1.913498034179682,,10.4653276,63.4046972,20190425,165652,2019-04-25T16:56:52Z,159.188,0.58,1.08,8.01,11,8,19,-0.05,0.02,-1.21,-6368,0,0,0,5,5,10.465324328408192,63.404696067807194,30,24843,20,62,58,2238,3652,3973,3981,-613,15894,32,2,15910,0,false,false,false,false,false,false,true,false,false,false,4823,4903,3876,3900,56,72,72,56,1490,1509,1395,1394,1482,1502,1396,1394,0.0,0.0,0.0,0.0,1549.7,1546.0,1544.7,1550.3,3.41,2.99,2.36,1.88,0,0,0,0,178.35503485498037,10.465325706198271,63.40469689292319,0,113.262825,113.244255,-0.0021043487,-0.0062094457,-0.7112967,0.7113269,6.1713,-0.14670457,3.839122,7.269479,430,-485,1353,1500.0,0.3357221,-0.35165873,-0.4919751,0.6916738,0.4861822560639685,-0.4385688629163549,-9.71645067527172,0.24470148389141458,42.81924026742991,42.819240267429905,-21.89453827306253,56.43049343140572,-219.2681809676216,29.797081469785798,0.11455126667129172,11.552392649661812,-47.52570815410512,-44.33953685516518,64.99,NONE,0.0,0.0,0.0,NONE,-3.420294776474497E-8,1.4667518149641848E-8,-0.0027313232,2,50.3,48.35,34.07,38.99,15.616,15.616,5.569,2.2340322,0,2245,3.917,12.0,8.419,61,32.4,OK,104,0,0,0,0,0,65,100,0.0,0,0.0,8.358896E-25,2.69E-43,0.0,-5.9807744E7,62,0.011523485,-0.0037841953,2.3127567E-31,False,False,0,None,6.0983054E29,2.8571648E-19,dateTime|2019-4-25 16:56:8 GMT
426735786,6.054,10.465312275494371,63.404705921137946,19,113.11612,113.16111,-0.0038652152,0.020027459,-1.018729,1.0189332,0.30513933,1.6559083,0.10957758,1.6873499,441,-459,1362,1503.0,1.3506024,-1.0557231,-0.02474072,1.7144358,1.7142572812152033,-0.521338775257616,-8.030269336239037,-0.6435761777649942,58.19967533074572,58.19967533074572,-9.575998812395774,77.93266291212045,-212.24904046518026,31.863971925441554,1.2491702198745809,12.769700946764576,-44.2982090277623,-41.11203772882236,64.95,1.7062073847656194,,10.4653153,63.4047031,20190425,165654,2019-04-25T16:56:54Z,159.483,0.58,1.08,7.88,11,8,19,1.06,-1.05,-0.35,-10000,0,0,0,5,5,10.465324328408192,63.404696067807194,30,24843,20,62,58,2238,3652,3973,3981,-613,15894,32,2,15910,0,false,false,false,false,false,false,true,false,false,false,5969,5913,4525,5113,57,73,72,57,1605,1609,1458,1518,1604,1599,1445,1508,0.0,0.0,0.0,0.0,1538.0,1534.9,1535.5,1539.9,4.84,4.38,2.94,3.1,0,0,0,0,-163.9871814666147,10.465310326169705,63.404704471308484,0,113.485016,113.302185,-0.005065808,0.022504978,-1.0207365,1.020997,-7.368364,1.1676904,-6.0694985,9.617437,444,-459,1359,1501.0,1.3058501,-1.452231,0.0164776,1.9530722,1.953002681716664,-0.8419779819294875,-8.376072971709815,-0.17491465047107624,42.98095230072076,42.98095230072079,-20.454214023364237,60.46809866210176,-218.9705694052364,30.222705305485388,1.1657673682696121,12.700261909663896,-41.69765353356591,-38.51148223462597,64.95,NONE,0.0,0.0,0.0,NONE,-1.2327080206311046E-7,5.000470318790254E-8,1.8310547E-4,2,59.95,60.22,41.63,48.11,15.631,15.631,5.528,2.856696,0,2242,3.86,12.0,7.883,61,32.4,OK,105,0,0,0,0,0,65,100,0.0,0,0.0,8.877117E-18,9.0E-44,0.0,-1.9916523E-31,63,0.013273954,-0.004099758,8.506896E-31,False,False,0,None,6.0369693E30,3.0653496E-19,
430633269,7.067,10.465282489282588,63.404717654886284,19,113.38156,113.1338,-2.7932762E-4,-0.0037503033,-1.0817121,1.0817187,-68.2886,1.146182,-11.002535,69.17877,237,306,1429,1480.0,0.08026719,-0.5920244,0.022104993,0.5978497,0.597440942614889,1.3524086627687955,17.9894913049767,5.937996535792972,45.825494313448836,45.825494313448814,-11.37922777802201,115.38878074306304,-206.37827237362845,21.268678601737175,3.178004556663326,14.763054512078186,-71.3304070545624,-68.14423575562246,64.95,1.9716492792968694,,10.4652858,63.404717,20190425,165654,2019-04-25T16:56:54Z,159.413,0.58,1.08,7.78,11,8,19,1.43,-1.48,-0.06,0,-10000,0,0,5,5,10.465324328408192,63.404696067807194,30,24843,20,62,58,2238,3652,3973,3981,-613,15894,32,2,15910,0,false,false,false,false,false,false,true,false,false,false,6199,6092,4900,4770,56,73,72,56,1625,1613,1492,1485,1616,1600,1475,1473,0.0,0.0,0.0,0.0,1538.6,1533.7,1534.3,1537.4,4.85,4.6,3.66,2.37,0,0,0,0,179.4972265912445,10.4652821735299,63.404717576635214,0,113.25733,113.32055,-0.004342757,-0.002809171,-1.0965012,1.0965134,-50.865982,5.2380147,4.4223967,51.325848,237,352,1417,1479.0,0.35783574,-0.8294635,-0.012895109,0.9034503,0.9033582524760536,1.0926044956811922,18.407763862692153,6.105387060626612,43.523506855848986,43.52350685584901,-21.389176162020906,79.578415071216,-213.5500191562361,16.203255586362502,3.1817823494226594,14.728163579517076,-42.77989969464784,-39.5937283957079,64.95,NONE,0.0,0.0,0.0,NONE,-8.685292058412029E-8,1.9024832004648417E-8,-2.2888184E-5,2,61.54,62.61,47.36,42.73,15.541,15.541,5.505,3.6758292,0,2240,3.898,12.0,8.144,60,32.4,OK,106,0,0,0,0,0,65,100,0.0,0,0.0,3.657754E-22,9.0E-44,0.0,-1.9916523E-31,63,0.013862133,-0.004246862,2.0298632E-29,False,False,0,None,1.26864095E33,3.135296E-19,
434549988,8.085,10.46526646113476,63.40471406047721,18,113.339195,113.08921,0.018536776,-0.02708619,-1.0033451,1.0038818,-1.1043876,-2.3526661,2.972087,3.9481654,249,-199,1447,1481.0,-0.9491604,-0.9070349,0.059187282,1.3141997,1.3128662052624507,-0.4361973240695106,1.9657498963568893,6.012126755989296,46.76960948145059,46.76960948145057,-11.861329597276866,99.04021732150574,-207.2260174414075,31.956570808702903,3.507270366300295,15.699527513766212,-136.6048811442878,-133.41870984534785,64.98,1.9292832514648381,,10.4652679,63.4047142,20190425,165656,2019-04-25T16:56:56Z,159.324,0.58,1.08,7.6,11,8,19,-0.9,-0.82,0.06,0,-10000,0,0,5,5,10.465324328408192,63.404696067807194,30,24843,20,62,58,2238,3652,3973,3981,-613,15894,32,2,15910,0,false,false,false,false,false,false,true,false,false,false,5967,6028,4686,4433,57,73,73,57,1606,1623,1476,1451,1595,1622,1475,1440,0.0,0.0,0.0,0.0,1536.2,1534.3,1533.1,1536.8,4.74,4.68,3.27,2.21,0,0,0,0,173.76915955943008,10.465266862303391,63.40471378798099,0,113.38191,113.3398,0.017897276,-0.024714261,-1.0014935,1.0019583,0.6443371,5.594298,2.6406908,6.2196937,249,-199,1447,1481.0,-0.930968,-0.9061637,0.024854474,1.2994044,1.2991666653779728,-0.44363842230811046,1.8224481979965694,6.223522285267899,46.055056722997705,46.05505672299773,-22.081090393851873,62.18368926550021,-212.26116803290822,31.24865063182658,3.4736097038785414,15.66382272177936,-146.61596695124086,-143.42979565230092,65.0,NONE,0.0,0.0,0.0,NONE,-7.658413009349146E-8,-3.420957338444333E-8,1.5258789E-4,2,59.57,61.78,43.99,40.48,15.486,15.486,5.518,4.57818,0,2237,3.874,12.0,9.304,60,32.4,OK,107,0,0,0,0,0,65,100,0.0,0,0.0,4.3743647E-30,9.0E-44,0.0,-1.9916523E-31,63,0.013875723,-0.0042502,3.6835538E-29,False,False,0,None,3.6688185E33,3.1368842E-19,
438400110,9.085,10.46524381532799,63.404702655387965,19,113.58875,113.303856,0.04064613,-0.029627413,-0.9863768,0.98765844,-8.804587,2.9579225,1.3615346,9.38743,252,-213,1444,1481.0,-1.5968148,-1.4847031,0.025749177,2.1805558,2.180403725048488,-0.484667173318551,1.4453440949775302,6.160539524323524,46.853668307180584,46.853668307180556,-9.535622016920804,102.80444517763083,-206.20754959160854,31.627724710166742,4.0743593749157565,17.399844134072072,-137.67629432702697,-134.49012302808703,64.98,2.1788407465820256,,10.4652441,63.4047028,20190425,165657,2019-04-25T16:56:57Z,159.509,0.58,1.08,7.49,11,8,19,-1.54,-1.41,-0.09,0,-9748,0,0,5,5,10.465324328408192,63.404696067807194,30,24843,20,62,58,2238,3652,3973,3981,-613,15894,32,2,15910,0,false,false,false,false,false,false,true,false,false,false,5921,6178,4367,4167,57,73,74,58,1601,1639,1442,1429,1601,1635,1433,1417,0.0,0.0,0.0,0.0,1536.2,1533.1,1533.1,1536.2,4.69,5.0,3.08,1.92,0,0,0,0,172.6950513325186,10.465243721820958,63.40470243019942,0,113.43644,113.538574,0.04099212,-0.029406346,-0.9893095,0.9905949,-9.69349,3.673894,1.5473938,10.481205,252,-210,1444,1480.0,-1.5190351,-1.5497074,-0.02046306,2.1701336,2.1700370201785297,-0.4617393129031879,1.3408616690612096,6.297121421895558,47.24074201033106,47.240742010331076,-22.911190811478672,60.52341997225396,-212.40739243132938,30.836016229765047,4.074516195545694,17.38033916311461,-146.66052928030678,-143.47435798136684,65.0,NONE,0.0,0.0,0.0,NONE,-1.5445028903510642E-7,-6.771345045557832E-8,-1.0681152E-4,2,59.73,63.84,40.55,37.37,15.526,15.526,5.524,5.4874415,0,2235,3.863,12.0,8.019,60,32.4,OK,108,0,0,0,0,0,65,100,0.0,0,0.0,-1.735027E24,8.8E-44,0.0,-1.9916523E-31,63,0.01748705,-0.0049202754,7.856448E-29,False,False,0,None,1.3430441E34,3.4556465E-19,
442261088,10.089,10.465207830028458,63.40468705496236,19,113.85246,113.31897,0.09888196,-0.03431274,-0.914609,0.9205784,13.920542,-112.32648,5.689491,113.328674,295,-204,1438,1482.0,-1.9234816,-1.9250664,-0.049762517,2.7217894,2.7213345224258587,-0.2362938804799013,1.9391148871354689,0.6968689924723874,46.846240316461895,46.84624031646189,-8.05017316755213,104.51790411055764,-212.97814105748571,38.95413633197419,5.885292175046356,19.894377914839644,-133.91005570200645,-130.7238844030665,64.96,2.442550768554682,,10.4652089,63.4046876,20190425,165658,2019-04-25T16:56:58Z,159.436,0.58,1.08,7.4,11,8,19,-1.96,-1.96,0.01,0,-2243,0,0,5,5,10.465324328408192,63.404696067807194,30,24843,20,62,58,2238,3652,3973,3981,-613,15894,32,2,15910,0,false,false,false,false,false,false,true,false,false,false,5414,5764,5017,4820,58,74,75,60,1582,1491,1583,1506,1651,1650,1386,1342,0.0,0.0,0.0,0.0,1537.4,1527.0,1530.0,1534.9,2.89,2.9,8.55,6.62,0,0,0,0,157.80922911234438,10.465204785973768,63.404685493850295,0,114.131714,113.47722,0.007542177,-0.03314592,-1.0845822,1.0851147,1.4551344,-132.7629,0.5651719,132.77208,418,-199,1417,1490.0,-1.825959,-1.9864761,-0.026816353,2.6983204,2.698187049857379,-0.00500808532689323,1.8055128497991175,-9.99235729843822,48.06823128632839,48.0682312863284,-22.095760686800624,61.6727382459201,-221.84174598589516,55.56218449927911,6.065912170981717,20.085494084420557,-136.69124280588593,-133.505071506946,64.97,NONE,0.0,0.0,0.0,NONE,-1.986875265286047E-7,-8.18958874773132E-8,9.918213E-5,2,62.26,64.78,39.94,34.08,15.519,15.519,5.511,6.2891493,0,2233,3.869,12.0,7.49,60,32.4,OK,109,0,0,0,0,0,65,100,0.0,0,0.0,-2.5992282E-5,8.8E-44,0.0,-1.9916523E-31,63,0.015847206,-0.0047152354,1.6700807E-27,False,False,0,None,2.6156601E36,3.3581054E-19,
446142819,11.098,10.465190051631804,63.40467925434809,19,113.55986,113.30171,0.010727626,-0.026150804,-1.0387437,1.0391282,0.2094104,15.702523,5.1428857,16.5246,516,66,1395,1488.0,-0.5396069,0.069090284,-0.00889067,0.54408467,0.5440120416388401,0.684323828916169,13.853032604634098,-3.496489765607332,47.817181028429005,47.81718102842899,-8.590015458229198,120.33284557179367,-216.0965631004369,32.029926900517694,6.940883338351269,21.141124958256395,-169.6380636000266,-166.45189230108667,65.01,2.149948229492182,,10.46519,63.4046792,20190425,165659,2019-04-25T16:56:59Z,159.296,0.58,1.08,7.39,11,8,19,-0.36,-0.1,0.02,9645,0,0,0,5,5,10.465324328408192,63.404696067807194,30,24843,20,62,58,2238,3652,3973,3981,-613,15894,32,2,15910,0,false,false,false,false,false,false,true,false,false,false,6308,5889,4433,4971,58,74,73,59,1642,1588,1423,1501,1604,1637,1489,1446,0.0,0.0,0.0,0.0,1533.1,1529.4,1529.4,1531.9,6.13,3.49,1.51,3.98,0,0,0,0,-161.08637006920543,10.465189622514803,63.404677812624534,0,113.475006,113.463104,0.0115075465,-0.042656243,-1.0396329,1.0405713,-124.26423,8.134652,5.9688287,124.673164,499,104,1411,1500.0,-0.5081889,0.2510056,-0.034134965,0.5678248,0.5667978182889317,0.5630765221572205,8.56541372870382,-2.527079949988927,49.119356090087386,49.119356090087365,-22.923066695162827,66.57703368860021,-214.4657281877565,13.817772521528997,7.006213530771559,21.265332688967487,161.3534254093044,164.53959670824435,65.01,NONE,0.0,0.0,0.0,NONE,-1.8179049349671135E-10,-1.6646459944178683E-8,-7.6293945E-5,2,37.8,77.06,64.16,12.41,15.479,15.479,5.509,6.930422,0,2230,3.867,12.0,8.486,60,32.5,OK,110,0,0,0,0,0,65,100,0.0,0,0.0,-5.329616E-17,8.8E-44,0.0,-1.9916523E-31,63,0.015575886,-0.004675181,1.5289016E-26,False,False,0,None,1.1616207E38,3.3391133E-19,
449996614,12.099,10.465195510747156,63.40467590891915,19,113.38823,113.28749,0.005456635,-0.027240783,-1.0501046,1.050472,-39.14634,3.9385717,1.8304945,39.38653,416,164,1438,1505.0,-0.72278494,0.79704964,0.010642365,1.0760202,1.075967592765299,-0.616009774872041,14.31672461962636,-0.17125021844742916,47.27097100824184,47.270971008241816,-9.686407230060466,125.88531211051513,-213.4468155470673,25.534887673055277,6.793084793084702,21.66182814486865,125.12674834616195,128.31291964510189,65.06,1.978317370117182,,10.465197,63.4046763,20190425,165700,2019-04-25T16:57:00Z,159.226,0.58,1.08,7.34,11,8,19,-0.41,0.53,0.01,2363,0,0,0,5,5,10.465324328408192,63.404696067807194,30,24843,20,62,58,2238,3652,3973,3981,-613,15894,32,2,15910,0,false,false,false,false,false,false,true,false,false,false,6048,6135,4686,4850,57,75,75,58,1616,1645,1477,1486,1607,1632,1468,1473,0.0,0.0,0.0,0.0,1533.1,1528.2,1528.2,1532.5,4.76,5.08,3.12,2.71,0,0,0,0,-178.33376228269734,10.46519731351512,63.40467475246182,0,113.429565,113.47698,0.0061334884,-0.030080236,-1.0332417,1.0336977,-51.055027,-1.2058581,-0.07131182,51.069317,407,124,1432,1493.0,-0.7869948,0.82090956,-0.019628018,1.1373824,1.1372130063376198,-0.6258029216881856,10.447354416775825,0.2147387208024384,48.997800734693904,48.9978007346939,-23.862423593613073,60.92142796346407,-212.55673922566837,18.468701019248886,6.752490136638752,21.82800497391044,130.17266716860897,133.3588384675489,65.04,NONE,0.0,0.0,0.0,NONE,3.336333692376145E-8,-1.2562214250191206E-8,-4.5776367E-5,2,58.12,64.36,44.91,41.72,15.459,15.459,5.504,7.4540353,0,2228,3.856,12.0,8.853,60,32.4,OK,111,0,0,0,0,0,65,100,0.0,0,0.0,-5.4643034E-22,8.8E-44,0.0,-1.9916523E-31,63,0.015925884,-0.00472513,1.0241044E-26,False,False,0,None,5.700493E37,3.3628038E-19,
453896289,13.113,10.46521038613038,63.40467126140431,19,113.343636,113.31791,0.0023869008,-0.016360357,-1.0025883,1.0027245,-1.8258424,0.19354488,-3.5928805,4.034842,401,-317,1386,1477.0,-0.09390433,0.2643797,-0.039461754,0.28332293,0.2805613192327156,0.6104019733885113,-2.659080157362846,0.5029359730189787,47.30462849600845,47.304628496008434,-10.337666795395643,105.7833072990366,-212.6487861686223,31.409992513744804,6.307227400858054,22.56904106196619,113.87446792976284,117.06063922870278,64.98,1.9337235590820256,,10.4652101,63.4046714,20190425,165701,2019-04-25T16:57:01Z,159.217,0.58,1.08,7.29,11,8,19,-0.22,0.35,0.03,0,0,0,0,5,5,10.465324328408192,63.404696067807194,30,24843,20,62,58,2238,3652,3973,3981,-613,15894,32,2,15910,0,false,false,false,false,false,false,true,false,false,false,5899,6006,4669,4655,58,74,75,58,1603,1625,1480,1479,1602,1611,1463,1472,0.0,0.0,0.0,0.0,1531.3,1527.0,1527.0,1531.3,4.67,4.52,3.34,2.48,0,0,0,0,177.31587874075564,10.465210116909407,63.40467076059414,0,113.60711,113.47064,0.00402575,-0.012213283,-1.0018759,1.0019584,6.4856973,1.4066763,2.777748,7.1943655,401,-326,1383,1476.0,-0.11099833,0.2314195,-0.019551575,0.2574061,0.256662462486993,0.509678244401933,-2.646751876938317,0.7108185979535134,49.06095469472542,49.06095469472541,-25.577708175761124,45.77636971989499,-212.6432732212654,32.040203188595896,6.343787815419703,22.608938390148342,101.05899834670326,104.2451696456432,64.99,NONE,0.0,0.0,0.0,NONE,3.011980641386201E-8,-7.806541820360878E-9,-1.373291E-4,2,59.75,62.03,43.84,43.36,15.469,15.469,5.494,7.8848863,0,2225,3.837,12.0,8.356,60,32.5,OK,112,0,0,0,0,0,65,100,0.0,0,0.0,-1.0223221E-29,8.8E-44,0.0,-1.9916523E-31,63,0.015741825,-0.0047021224,5.2399358E-27,False,False,0,None,1.7966321E37,3.351885E-19,
457935627,14.163,10.465211545248044,63.40467118856727,19,113.372505,113.312,0.0037024717,-0.008717237,-1.0004957,1.0005405,10.206735,-2.3742375,0.72346896,10.504182,407,-233,1411,1486.0,0.017526574,0.07599074,-0.01570967,0.07955229,0.07798572284830747,-0.02248306794673481,0.407030598556811,0.3487946413183222,47.20920838297228,47.20920838297229,-9.043659023611347,113.676263660574,-212.62197749240593,30.31821881447968,6.258963010023049,22.6941393230978,-15.087613282116095,-11.901441983176154,64.96,1.9625931879882756,,10.4652114,63.4046714,20190425,165702,2019-04-25T16:57:02Z,159.343,0.58,1.08,7.23,11,8,19,0.03,0.04,0.01,0,0,0,0,5,5,10.465324328408192,63.404696067807194,30,24843,20,62,58,2238,3652,3973,3981,-613,15894,32,2,15910,0,false,false,false,false,false,false,true,false,false,false,5921,5934,4679,4609,59,75,75,59,1611,1617,1474,1476,1597,1609,1477,1461,0.0,0.0,0.0,0.0,1530.7,1526.4,1526.4,1530.7,4.84,4.41,3.38,2.58,0,0,0,0,178.1480742095712,10.465210969195134,63.40467081882377,0,113.40677,113.48395,0.003547259,-0.0093160095,-1.0018374,1.001887,9.407469,4.172807,1.6201327,10.4181385,407,-233,1411,1486.0,0.040176176,0.038053066,-0.025583912,0.060964722,0.05533679533989205,-0.01445459440257809,0.2907108509356035,0.5486488990472403,49.10095717922797,49.100957179227976,-24.62185475069219,52.314638785071786,-212.30895838282734,29.73269042046612,6.302904599211854,22.749812176537223,19.89968794225351,23.085859241193454,64.98,NONE,0.0,0.0,0.0,NONE,6.90803685430562E-9,1.5870089113102553E-9,-1.2207031E-4,2,59.32,60.86,45.07,42.61,15.467,15.467,5.484,8.211491,0,2223,3.857,12.0,8.478,60,32.4,OK,113,0,0,0,0,0,65,100,0.0,0,0.0,-7.2093336E-30,8.8E-44,0.0,-1.9916523E-31,63,0.016117096,-0.0047489717,4.946381E-27,False,False,0,None,1.6310303E37,3.3741858E-19,
461814985,15.171,10.465211022785423,63.40467159029626,19,113.65443,113.34068,7.4617774E-4,-0.008561522,-1.0040416,1.0040784,-1.1614145,1.2401977,2.3508651,2.9006104,416,-225,1408,1485.0,0.007529982,0.024705382,-0.021730008,0.033752773,0.02582743762821479,0.02544084151839655,0.6405023709282679,0.07462083530285255,47.14389540775874,47.14389540775875,-8.325118889945493,114.1279112878911,-212.8684708903047,29.94764506969082,6.2627611059748896,22.77334755320681,34.028158809139974,37.21433010807991,64.95,2.2445145747070256,,10.4652113,63.4046717,20190425,165703,2019-04-25T16:57:03Z,159.361,0.58,1.08,7.08,11,8,19,-0.02,0.01,0.02,0,0,0,0,5,5,10.465324328408192,63.404696067807194,30,24843,20,62,58,2238,3652,3973,3981,-613,15894,32,2,15910,0,false,false,false,false,false,false,true,false,false,false,5915,5941,4723,4627,58,75,75,59,1610,1614,1477,1477,1596,1613,1480,1459,0.0,0.0,0.0,0.0,1530.0,1526.4,1525.8,1530.0,4.83,4.52,3.22,2.69,0,0,0,0,177.21286087142943,10.465210737882527,63.40467113387295,0,113.29505,113.48224,0.0015071051,-0.008614924,-1.0044574,1.0044955,-6.738613,-2.0270758,-2.6079917,7.504636,413,-225,1408,1484.0,0.016621614,0.004821107,-0.010271829,0.020125397,0.017306678211576876,0.01926817756882408,0.5720638461377358,0.28710213980956695,49.14575236937745,49.14575236937742,-22.418177851766295,54.80861589151356,-211.88847861639283,29.644480127988174,6.297715125402811,22.8255053323753,-28.142830742384778,-24.956659443444835,64.95,NONE,0.0,0.0,0.0,NONE,8.802484780263842E-10,6.853479774256707E-10,-6.1035156E-5,2,59.78,62.05,44.99,41.95,15.452,15.452,5.487,8.444979,0,2221,3.852,12.0,8.73,60,32.5,OK,114,0,0,0,0,0,65,100,0.0,0,0.0,-2.063788E-29,8.8E-44,0.0,-1.9916523E-31,63,0.016076565,-0.004743965,4.9185736E-27,False,False,0,None,1.615356E37,3.3718035E-19,
465664029,16.171,10.465210256122285,63.40467159484939,19,113.11591,113.33354,-0.0010389796,-0.01145881,-1.0043759,1.0044419,0.043814383,-1.8538406,-2.5770044,3.174838,418,-225,1414,1491.0,-0.009207423,0.023018397,-0.01283442,0.027916763,0.024791597494294666,0.013363255367757267,0.5555036652869835,-0.02827280815947243,47.072709914487646,47.07270991448763,-10.194112027735194,111.43648303425296,-212.88216841115468,29.769656251662273,6.296936323840237,22.840787317365677,-139.25391867775943,-136.0677473788195,64.97,1.7060013911132756,,10.4652108,63.4046718,20190425,165704,2019-04-25T16:57:04Z,159.285,0.58,1.08,6.93,11,8,19,-0.01,0.0,0.02,0,0,0,0,5,5,10.465324328408192,63.404696067807194,30,24843,20,62,58,2238,3652,3973,3981,-613,15894,32,2,15910,0,false,false,false,false,false,false,true,false,false,false,5909,5946,4692,4627,59,75,76,59,1608,1623,1474,1471,1596,1616,1473,1456,0.0,0.0,0.0,0.0,1530.0,1526.4,1524.5,1530.0,4.77,4.48,3.26,2.54,0,0,0,0,177.69675821505118,10.465209727736559,63.404670974288585,0,113.63115,113.47916,5.0969888E-5,-0.011127966,-1.0037597,1.0038215,-0.1374202,-3.0980303,-1.7426869,3.5571947,418,-227,1411,1489.0,0.005990808,0.002930407,-0.017326368,0.018565562,0.0066691126138750416,0.04663689542967708,0.5747621247010182,0.1789467333489671,49.21723040794249,49.21723040794251,-25.048378977448202,50.131979471834256,-212.4673487117802,29.721642896875135,6.350680530009136,22.92105269225026,-86.85556375395176,-83.66939245501182,65.0,NONE,0.0,0.0,0.0,NONE,5.7407509531676473E-11,2.934146030441925E-10,-9.1552734E-5,2,59.69,61.08,44.61,42.5,15.449,15.449,5.482,8.608145,0,2218,3.85,12.0,8.51,60,32.5,OK,115,0,0,0,0,0,65,100,0.0,0,0.0,-2.3530627E-29,8.8E-44,0.0,3.1061704E-35,64,0.015993118,-0.0047335937,5.3191177E-27,False,False,0,None,1.8412534E37,3.3668404E-19,
469525270,17.175,10.465210012074852,63.404671540039224,19,113.1321,113.32075,8.6069084E-4,-0.007186341,-1.0066217,1.0066477,3.6488364,1.0537608,2.745414,4.6863327,416,-227,1408,1485.0,-0.017773626,0.01303522,-0.008968551,0.023796085,0.022041297033184228,-0.008497151431000154,0.46771764274466565,-0.019239567112109147,47.01428637445043,47.01428637445042,-11.120170856896785,110.27371875311661,-213.530806530392,29.853038663714898,6.310525914696924,22.87811986192046,,,65.0,1.7221909663085881,,10.4652106,63.4046718,20190425,165705,2019-04-25T16:57:05Z,159.212,0.58,1.08,6.8,11,8,19,-0.01,-0.01,0.03,0,0,0,0,5,5,10.465324328408192,63.404696067807194,30,24843,20,62,58,2238,3652,3973,3981,-613,15894,32,2,15910,0,false,false,false,false,false,false,true,false,false,false,5921,5919,4654,4672,59,75,77,59,1612,1615,1470,1477,1596,1613,1474,1460,0.0,0.0,0.0,0.0,1528.2,1523.3,1524.5,1528.2,4.84,4.46,3.26,2.7,0,0,0,0,-179.54419593615953,10.465209904971596,63.40467106118586,0,113.65267,113.4704,0.002154343,-0.009204098,-1.0064907,1.006535,-7.8243318,-3.906128,-5.065927,10.106514,416,-227,1411,1488.0,-0.003141551,-1.7283823E-4,-0.017627766,0.01790635,0.0031463019421204934,0.009892422657641283,0.37115516064486914,0.08025631709250931,49.262558506081234,49.262558506081234,-26.428617109280008,47.96393168140012,-212.31004924531646,29.46438989310982,6.33851133084553,22.98920116483302,89.23682332749003,92.42299462642997,64.98,NONE,0.0,0.0,0.0,NONE,-6.697542773263259E-11,-5.140109839785988E-11,-9.1552734E-5,2,59.42,62.06,44.23,42.12,15.439,15.439,5.474,8.71495,0,2216,3.849,12.0,8.79,60,32.5,OK,116,0,0,0,0,0,65,100,0.0,0,0.0,-3.2934943E-29,8.8E-44,0.0,3.1061704E-35,64,0.015778065,-0.0047066524,5.3138915E-27,False,False,0,None,1.8383327E37,3.3540687E-19,
473405649,18.183,10.465210510876153,63.40467181003198,19,113.57377,113.33098,6.7788525E-4,-0.008339856,-1.0075736,1.0076083,0.36753505,-4.6783485,-2.1200402,5.149427,413,-227,1408,1484.0,-0.01915563,0.0068489527,-0.02485213,0.03211658,0.020343213634078424,0.018288480982108873,0.4431360191010675,-0.08882911316816192,46.8563135553674,46.85631355536742,-10.892564034101426,115.68729946301212,-213.479041232446,30.072763993670733,6.275180244315774,22.926474133646302,29.190697563660333,32.376868862600276,65.03,2.1638566157226506,,10.4652108,63.4046721,20190425,165706,2019-04-25T16:57:06Z,159.252,0.58,1.08,6.69,11,8,19,-0.01,-0.01,0.01,0,0,0,0,5,5,10.465324328408192,63.404696067807194,30,24843,20,62,58,2238,3652,3973,3981,-613,15894,32,2,15910,0,false,false,false,false,false,false,true,false,false,false,5925,5909,4681,4668,60,76,76,60,1608,1624,1481,1475,1603,1605,1468,1473,0.0,0.0,0.0,0.0,1528.2,1523.3,1523.9,1528.2,4.75,4.51,3.37,2.51,0,0,0,0,-179.930830078457,10.465210313576627,63.40467135998385,0,113.26463,113.46265,5.9610466E-5,-0.006308995,-1.0044986,1.0045184,10.8166275,3.9462805,7.410436,13.692594,413,-227,1408,1484.0,0.0028282267,-0.00581204,-0.022163533,0.02308681,0.0064636423409653995,0.032165001071974196,0.4297426734305165,0.06227866790502209,49.21209780911943,49.21209780911943,-25.453930073953586,53.98561631071528,-213.03849358615318,29.81576695312214,6.305691995282329,23.05615183945855,-169.7806449767283,-166.59447367778836,65.02,NONE,0.0,0.0,0.0,NONE,-1.205557713114199E-9,3.598076893105215E-10,-2.1362305E-4,2,59.69,60.7,44.37,43.98,15.435,15.435,5.474,8.783854,0,2213,3.846,12.0,8.79,60,32.4,OK,117,0,0,0,0,0,65,100,0.0,0,0.0,-5.7731676E-29,8.8E-44,0.0,3.1061704E-35,64,0.015588522,-0.0046784,4.9474656E-27,False,False,0,None,1.6316468E37,3.3405692E-19,
477262449,19.186,10.465210066793448,63.40467203267284,19,113.684975,113.572556,-0.0024365792,-0.009744058,-1.3620005,1.3620375,-1.9651203,-5.04275,-2.4338007,5.934173,410,-225,1408,1483.0,0.0037899837,-0.0031170668,-0.3752058,0.3752379,0.004907145999192569,0.028204737521910724,0.7397294593618322,-0.468733533596753,46.68591474170304,46.685914741703016,-9.63200107442139,117.11106709824415,-215.67396218893163,31.39143591172337,6.284579686692148,22.98754478916102,-15.054996846661798,-11.868825547721856,65.0,2.2750626704101506,,10.4652107,63.4046722,20190425,165707,2019-04-25T16:57:07Z,159.468,0.58,1.08,6.63,11,8,19,-0.05,-0.01,-0.23,0,0,0,6987,5,5,10.465324328408192,63.404696067807194,30,24843,20,62,58,2238,3652,3973,3981,-613,15894,32,2,15910,0,false,false,false,false,false,false,true,false,false,false,6980,6935,5566,5472,59,77,77,60,1742,1746,1602,1587,1735,1737,1591,1579,0.0,0.0,0.0,0.0,1504.9,1499.4,1500.6,1503.1,7.66,7.32,5.51,4.64,0,0,0,0,179.02425381270518,10.465209920729858,63.404671564912256,0,113.766884,113.75511,-0.0027106702,-0.0071916636,-1.4387866,1.4388071,0.62191504,-3.6167464,4.3653574,5.70298,424,-225,1405,1484.0,0.004535666,-0.006097061,-0.70938677,0.7094275,0.007599106750690445,0.022358157408632787,0.7327239507590473,-0.6829526248826328,49.1583892397991,49.15838923979908,-25.680920355125483,56.13949780353259,-213.1594343021775,30.818056860105834,6.313432720132076,23.129007856601042,-168.01734802874483,-164.8311767298049,65.01,NONE,0.0,0.0,0.0,NONE,-1.798768607869668E-9,5.696954891212604E-10,-9.613037E-4,2,77.8,78.13,59.02,58.62,15.431,15.431,5.448,8.829703,0,2211,3.845,12.0,8.848,60,32.4,OK,118,0,0,0,0,0,65,100,0.0,0,0.0,-1.453014E-28,8.8E-44,0.0,3.1061704E-35,64,0.022293568,-0.0055210902,5.1186484E-27,False,False,0,None,1.7281911E37,3.7415201E-19,
481160665,20.199,10.465210453995219,63.40467216825383,19,115.542786,115.36922,2.7320557E-4,-0.008019964,-0.61592543,0.6159777,1.3442818,-0.33529234,0.44248036,1.4544082,427,-225,1411,1491.0,-0.19076653,-0.11220834,-0.6258141,0.66379654,0.22132008327547803,-0.19716656311757122,0.58955021774059,-0.1534242659741266,46.69346413187359,46.69346413187361,-6.93685732123547,119.01706947025423,-214.89984341904622,29.505781911056523,6.260725550312848,23.07181533003928,-61.5136879264192,-58.32751662747926,65.04,4.132873644531244,,10.46521,63.4046725,20190425,165708,2019-04-25T16:57:08Z,161.05,0.58,1.08,6.68,11,8,19,-0.13,-0.2,-1.48,0,0,0,0,5,5,10.465324328408192,63.404696067807194,30,24843,20,62,58,2238,3652,3973,3981,-613,15894,32,2,15910,0,false,false,false,false,false,false,true,false,false,false,4501,4653,3631,3624,60,76,76,60,1449,1466,1364,1357,1449,1472,1361,1348,0.0,0.0,0.0,0.0,1540.5,1537.4,1536.2,1539.9,2.44,2.27,1.97,1.24,0,0,0,0,175.21388643978426,10.465209562518728,63.404671732283845,0,115.344604,115.51736,0.0012828137,-0.011164404,-0.59103805,0.5911449,0.9381541,-2.4902577,-1.8825126,3.2596579,424,-225,1411,1490.0,-0.014829433,-0.034144595,-0.79104006,0.7919155,0.03722586980877738,-0.01178505879154143,0.5160886425393681,-0.3458018561727029,49.23308204149694,49.233082041496914,-27.12149352204876,54.29377533668536,-212.536975313379,29.773765263616372,6.321534403698093,23.25054451650893,-99.20757268438123,-96.0214013854413,65.04,NONE,0.0,0.0,0.0,NONE,-3.721919100272586E-9,-9.466365943289561E-10,-0.0043182373,2,44.97,46.19,32.82,32.32,15.298,15.298,5.515,8.923558,0,2205,3.81,12.0,12.042,60,32.5,OK,119,0,0,0,0,0,65,100,0.0,0,0.0,-1.6283507E-28,8.8E-44,0.0,3.1061704E-35,64,0.18867874,-0.015271249,5.9718015E-27,False,False,0,None,2.2920745E37,9.075761E-19,
485190053,21.246,10.465208192267678,63.40467270797554,20,115.613914,115.46438,-0.007724098,-0.01161808,-0.999222,0.9993194,3.5576413,3.6775613,3.4173648,6.1530194,404,-199,1420,1489.0,0.10304791,-0.023764346,0.046781607,0.11563794,0.10575261151666028,0.016080396320063944,1.699658892611429,0.530956398509163,46.63734258604858,46.63734258604859,-5.770404242012091,123.0615068186565,-214.8997814091091,30.02350779535023,6.338017269220066,23.24934611367505,-49.48504391607696,-46.29887261713702,64.99,4.204002489746088,,10.4652098,63.4046731,20190425,165709,2019-04-25T16:57:09Z,161.526,0.57,1.06,6.74,12,8,20,0.15,0.01,-0.51,0,0,0,0,5,5,10.465324328408192,63.404696067807194,30,24843,20,62,58,2238,3652,3973,3981,-613,15894,32,2,15910,0,false,false,false,false,false,false,true,false,false,false,5853,5917,4709,4628,60,77,77,60,1600,1613,1481,1470,1588,1606,1482,1463,0.0,0.0,0.0,0.0,1527.0,1522.0,1522.0,1527.0,4.66,4.3,3.4,2.46,0,0,0,0,176.58936585367258,10.465208227773553,63.40467243306153,0,115.44218,115.64955,-0.006334042,-0.013149032,-1.0005771,1.0006835,-0.08031064,3.89842,0.08079132,3.900084,404,-199,1420,1489.0,0.08348037,-0.011576162,-0.003338202,0.084345266,0.08427918057523084,0.013508436458438383,1.6938494097440797,0.4751609254815974,49.15817653491805,49.15817653491803,-26.846787684220285,56.973303546263345,-211.69043749185153,30.09061997807946,6.348997542943017,23.430982614848865,29.04878713719376,32.2349584361337,65.02,NONE,0.0,0.0,0.0,NONE,-8.419765531904243E-10,3.94931638270053E-9,4.5776367E-5,2,59.95,60.66,43.95,42.88,15.371,15.371,5.469,9.057956,0,2203,3.779,12.0,6.457,59,32.5,OK,120,0,0,0,0,0,65,100,0.0,0,0.0,-2.761802E-27,8.8E-44,0.0,3.1061704E-35,64,0.24024963,-0.01814044,6.794708E-27,False,False,0,None,3.0330153E37,1.060889E-18,
489068411,22.254,10.465210446580127,63.40467192439109,20,115.292885,115.29576,-0.0054222,-0.01414247,-1.0233068,1.0234189,-5.084496,-3.1791396,-4.7645535,7.658982,418,-227,1402,1480.0,-0.10896619,0.041080236,0.1042961,0.15632944,0.11645263093500373,0.024498973461345122,0.434685936853459,-0.2370404604340211,46.51755645082545,46.51755645082545,-6.903316777665012,121.41234873477701,-215.6343283367042,29.962887823925364,6.27261737166585,23.43395077318018,162.58648040346898,165.77265170240892,65.02,3.8829728266601506,,10.4652109,63.4046724,20190425,165710,2019-04-25T16:57:10Z,161.385,0.57,1.06,6.78,12,8,20,-0.12,0.02,0.05,0,0,0,0,5,5,10.465324328408192,63.404696067807194,30,24843,20,62,58,2238,3652,3973,3981,-613,15894,32,2,15910,0,false,false,false,false,false,false,true,false,false,false,5913,5922,4848,4645,60,77,77,60,1608,1619,1493,1474,1602,1604,1481,1469,0.0,0.0,0.0,0.0,1526.4,1522.0,1522.0,1527.0,4.79,4.44,3.51,2.36,0,0,0,0,174.82762998834673,10.465210187175643,63.404671616861286,0,115.3933,115.58098,-0.006538883,-0.012233455,-1.0227022,1.0227963,7.4551873,1.4464756,5.833985,9.576403,418,-227,1402,1480.0,-0.05242496,0.015072198,0.016429977,0.056969218,0.05454858097347002,0.07763081074383257,0.42259949542537806,-0.19570815616916518,49.111251375979286,49.11125137597929,-26.772236745869698,56.60327652921995,-213.44613845819055,29.87140256296345,6.298974793817333,23.605706158087834,135.86447461087815,139.0506459098181,64.98,NONE,0.0,0.0,0.0,NONE,1.5595701892883923E-9,-2.3580246090409636E-9,1.0681152E-4,2,60.29,60.96,45.61,43.33,15.425,15.425,5.468,9.091417,0,2200,3.848,12.0,8.65,59,32.4,OK,121,0,0,0,0,0,65,100,0.0,0,0.0,-2.0428416E-28,8.8E-44,0.0,3.1061704E-35,64,0.22627258,-0.017266875,6.133025E-27,False,False,0,None,2.4740645E37,1.0193315E-18,
492919039,23.255,10.465210253280627,63.40467174578986,20,115.325485,115.29157,-0.009400584,-0.014819818,-1.0058538,1.0060068,8.36083,0.57935274,-48.29447,49.016273,470,-181,1399,1486.0,-0.027774833,-0.013179293,-0.07093315,0.077308774,0.030743050208704447,-0.00869187064966628,0.18344548350678572,-0.6518190134320617,32.931106941301785,32.93110694130178,-19.657566077105542,120.57310944382539,-215.11637429812276,22.219403633935997,6.2898289831223675,23.525454675785287,-34.94264813350519,-31.756476834565248,64.99,3.915573229492182,,10.4652109,63.4046722,20190425,165711,2019-04-25T16:57:11Z,161.427,0.57,1.06,6.75,12,8,20,-0.02,-0.04,0.02,0,0,-9862,0,5,5,10.465324328408192,63.404696067807194,30,24843,20,62,58,2238,3652,3973,3981,-613,15894,32,2,15910,0,false,false,false,false,false,false,true,false,false,false,5696,6097,4399,4924,61,78,78,60,1591,1634,1463,1489,1576,1627,1467,1479,0.0,0.0,0.0,0.0,1526.4,1522.0,1521.4,1525.8,4.7,4.4,3.34,2.54,0,0,0,0,-177.1260254784488,10.465210250744484,63.40467142774719,0,115.46287,115.46653,-0.009043464,-0.017508961,-1.0054423,1.0056354,2.6374264,-1.3972945,-57.295036,57.372726,464,-196,1399,1486.0,0.009254329,-0.019262856,-0.06337707,0.066883124,0.021370545568845708,-1.2141566762896572E-4,0.07643238610978252,-0.7202251873582515,37.10115848125475,37.10115848125474,-37.99425826191625,56.043315972635405,-214.74530617844349,23.906130299207373,6.305229601302098,23.70145743682399,-22.0465515808711,-18.860380281931157,64.97,NONE,0.0,0.0,0.0,NONE,-6.601861589905176E-10,-1.0601473245270137E-9,-2.4414062E-4,2,58.28,62.98,40.71,46.35,15.408,15.408,5.468,9.035481,875,2198,3.84,12.0,8.755,59,32.5,OK,122,0,0,0,0,0,65,100,0.0,0,0.0,-4.4812538E-29,8.8E-44,0.0,3.1061704E-35,64,0.19777298,-0.015555444,6.0787907E-27,False,False,0,None,2.4127954E37,9.346282E-19,
496768045,24.255,10.465210786487958,63.404672461904624,19,115.127716,115.32864,0.0057204952,0.0017289296,-1.0040126,1.0040303,7.4900846,7.8501515,-2.7551327,11.194508,479,170,1414,1502.0,0.047951493,0.029997673,-0.052782957,0.07736438,0.056561525788268695,0.027345784814718894,0.6437201369701732,0.3341700490651165,-14.141492557911569,345.8585074420884,-66.16168788789857,118.90990095572266,-213.70261460413056,-17.550696523977777,6.231919674097168,23.61868778815718,13.024111522115556,16.210282821055497,64.97,3.7178040644531194,,10.4652102,63.404673,20190425,165712,2019-04-25T16:57:12Z,161.481,0.57,1.06,6.76,12,8,20,0.06,0.02,-0.01,0,0,-1249,0,5,5,10.465324328408192,63.404696067807194,30,24843,20,62,58,2238,3652,3973,3981,-613,15894,32,2,15910,0,false,false,false,false,false,false,true,false,false,false,6078,5771,4778,4421,60,78,78,60,1620,1608,1480,1458,1618,1603,1470,1451,0.0,0.0,0.0,0.0,1525.8,1521.4,1521.4,1525.8,4.84,4.42,3.06,2.62,0,0,0,0,178.9190758133393,10.46520982865835,63.404671894138446,0,115.283615,115.511566,0.004162182,-4.578908E-4,-1.0043932,1.0044019,8.658888,1.9663864,-4.846798,10.11605,476,170,1414,1501.0,0.055282675,0.012455738,-0.0583641,0.08134917,0.056668504890844976,-7.322977119744584E-4,0.6207396029676019,0.19503609889298062,-11.299738456790642,348.70026154320936,-85.83837318788908,55.36544239801387,-214.41085161290928,-17.832167647032296,6.301865967760242,23.79886142735119,-90.5792071805617,-87.39303588162176,64.96,NONE,0.0,0.0,0.0,NONE,9.567915460962477E-10,2.499377610671711E-9,-3.0517578E-4,2,61.61,60.74,43.62,41.6,15.402,15.402,5.464,8.976512,880,2195,3.836,12.0,8.832,59,32.5,OK,123,0,0,0,0,0,65,100,0.0,0,0.0,-2.4376418E-28,8.8E-44,0.0,3.1061704E-35,64,0.20814133,-0.01613391,5.9579964E-27,False,False,0,None,2.2765626E37,9.65439E-19,
500629265,25.258,10.465212219141202,63.40467371629504,19,115.55597,115.34567,-0.0050141057,-0.0066371,-1.0071577,1.007192,-4.449905,1.5031362,58.051014,58.24072,482,-80,1405,1487.0,0.023374882,0.053108234,-0.02912589,0.06492447,0.058024733015050824,0.09808386625793694,0.04588827741105031,0.5342888532527122,23.691687265764244,23.691687265764244,-28.020491438905204,115.53873050435331,-212.24231599065726,9.30594850786728,6.109248766138455,23.816142223075357,46.64376207625054,49.82993337519048,65.01,4.146057238281244,,10.4652126,63.4046739,20190425,165713,2019-04-25T16:57:13Z,161.504,0.58,1.08,6.8,11,8,19,0.04,0.11,0.0,0,0,9998,0,5,5,10.465324328408192,63.404696067807194,30,24843,20,62,58,2238,3652,3973,3981,-613,15894,32,2,15910,0,false,false,false,false,false,false,true,false,false,false,5961,5929,4706,4629,60,78,77,61,1615,1623,1477,1470,1609,1612,1468,1458,0.0,0.0,0.0,0.0,1525.2,1520.8,1520.8,1524.5,4.79,4.43,3.21,2.55,0,0,0,0,178.99098100604297,10.465212076005177,63.40467326871691,0,115.76211,115.54008,-0.007454356,-0.008859355,-1.0061526,1.0062193,-3.7662048,-1.3709993,60.30153,60.434578,476,-103,1408,1489.0,0.041177303,0.016626798,-0.036754113,0.057644475,0.04440743860792214,0.14434346446279211,0.040849994032740866,0.4975199784096347,30.590845693685946,30.590845693685935,-44.56499950817674,50.92399676350262,-214.2033972204428,12.026063371756859,6.1361523893949705,23.99713496657979,16.609409815900396,19.79558111484034,64.97,NONE,0.0,0.0,0.0,NONE,2.9756218129161476E-9,2.015350747654714E-9,-1.9073486E-4,2,60.65,61.31,44.32,42.5,15.402,15.402,5.466,8.923868,884,2193,3.836,12.0,8.749,59,32.5,OK,124,0,0,0,0,0,65,100,0.0,0,0.0,-3.1534715E-27,8.8E-44,0.0,3.1061704E-35,64,0.21471024,-0.016544467,5.042129E-27,False,False,0,None,1.6850301E37,9.849737E-19,
504495950,26.263,10.46521306087378,63.40467376182796,18,115.18906,115.34997,7.9745986E-4,-0.009431554,-1.0062308,1.0062754,-3.8070724,-1.7176058,-4.1204395,5.8670254,427,-196,1402,1478.0,-0.001452948,-0.014447357,-0.010540146,0.017942458,0.014520233125401965,0.027479122153847742,0.5170545434171676,0.3859046628925941,40.40162286867489,40.401622868674906,-11.036010584610082,113.57797631105812,-211.67964008783457,25.551513934622893,6.068924118052492,23.886501995434422,122.48764583748729,125.67381713642723,65.04,3.7791443964843694,,10.4652136,63.4046742,20190425,165714,2019-04-25T16:57:14Z,161.446,0.6,1.1,6.81,10,8,18,0.0,-0.01,0.0,0,0,0,0,5,5,10.465324328408192,63.404696067807194,30,24843,20,62,58,2238,3652,3973,3981,-613,15894,32,2,15910,0,false,false,false,false,false,false,true,false,false,false,5926,5965,4663,4642,60,78,77,61,1617,1629,1477,1476,1604,1611,1467,1470,0.0,0.0,0.0,0.0,1526.4,1522.7,1523.3,1526.4,4.89,4.65,3.27,2.5,0,0,0,0,178.67087003339012,10.465212866214717,63.4046735090551,0,115.67261,115.55449,-6.021806E-4,-0.009919124,-1.004907,1.0049561,6.100438,2.740123,5.057372,8.384547,433,-199,1405,1483.0,0.01987302,-0.029679613,-0.029263604,0.04617548,0.03571857150340682,0.011604110588769471,0.5091827824837768,0.4161413478197717,43.14055704718733,43.140557047187315,-31.36207054679971,51.20272657242453,-214.1498462382762,25.50970665432357,6.089293858553066,24.077264282528986,0.256483461379037,3.4426547603189785,65.02,NONE,0.0,0.0,0.0,NONE,-2.3919789816797568E-9,1.1436740660991366E-9,-1.5258789E-4,2,60.54,61.56,43.33,43.39,15.4,15.4,5.466,8.878366,888,2190,3.835,12.0,8.781,59,32.5,OK,125,0,0,0,0,0,65,100,0.0,0,0.0,-4.1214038E-27,8.8E-44,0.0,2.5102509E-8,64,0.2182846,-0.016767627,4.6079596E-27,False,False,0,None,1.440116E37,9.955881E-19,
508350936,27.265,10.465212973021679,63.40467403252583,18,115.270775,115.345634,-0.0036389867,-0.013955004,-1.0132017,1.0133044,-0.3795867,0.7556168,-1.2790456,1.5332972,453,-190,1402,1485.0,-0.034938015,-0.031102577,-0.009525838,0.047736537,0.04677643944298225,-0.016417652427339717,0.9012906726182411,-0.40922200413619225,40.28999728412392,40.2899972841239,-9.340356138953045,115.17082493077632,-211.65457182129606,25.576939963992924,6.060684447700681,23.92527085627946,,,65.0,3.860862841308588,,10.465213,63.4046744,20190425,165715,2019-04-25T16:57:15Z,161.386,0.6,1.1,6.8,10,8,18,-0.03,-0.04,0.01,0,0,0,0,5,5,10.465324328408192,63.404696067807194,30,24843,20,62,58,2238,3652,3973,3981,-613,15894,32,2,15910,0,false,false,false,false,false,false,true,false,false,false,5895,5974,4757,4673,62,77,77,62,1608,1629,1487,1473,1594,1614,1484,1464,0.0,0.0,0.0,0.0,1526.4,1521.4,1522.0,1524.5,4.64,4.49,3.53,2.6,0,0,0,0,176.17657024369964,10.465212965213352,63.404673739198806,0,115.61688,115.55802,-0.004149371,-0.017676791,-1.0063952,1.006559,-0.074086845,-2.0841372,0.9512934,2.2921772,450,-190,1405,1487.0,-0.013716608,-0.048072398,-0.026631756,0.05664231,0.04999100671295643,-0.023979242476720005,0.818662105562889,-0.32149876497237007,43.12818952102386,43.12818952102384,-30.44026855961418,51.74287662721631,-215.0930736001668,25.412535551682478,6.074298659720173,24.138855007073317,14.5281899348866,17.71436123382654,65.01,NONE,0.0,0.0,0.0,NONE,-5.530255422821777E-9,-3.6837441798169454E-10,-1.0681152E-4,2,59.31,61.69,45.92,42.85,15.405,15.405,5.477,8.83399,891,2188,3.835,12.0,8.446,59,32.5,OK,126,0,0,0,0,0,65,100,0.0,0,0.0,-1.0787081E-26,8.8E-44,0.0,2.5102509E-8,64,0.2193718,-0.016835814,4.468331E-27,False,False,0,None,1.3613878E37,9.988174E-19,
512206467,28.267,10.465214169874988,63.404673124135805,18,115.616585,115.34079,0.0026783615,-0.029244758,-0.9975489,0.9979811,-83.32124,-4.1969805,0.17220332,83.42706,444,-242,1386,1475.0,-0.2307957,0.26982853,0.0016764028,0.3550731,0.3550691139748043,-0.23803646192953734,-3.039137183031382,-0.05910987025845239,40.09800581639496,40.09800581639496,-7.816144482873527,109.15226216809424,-211.12928737111224,20.807276461756647,6.048147911578051,24.138446904128497,141.35069595723223,144.53686725617217,64.99,4.206672777832026,,10.4652152,63.4046737,20190425,165716,2019-04-25T16:57:16Z,161.392,0.6,1.1,6.79,10,8,18,-0.26,0.27,0.01,-9996,0,0,0,5,5,10.465324328408192,63.404696067807194,30,24843,20,62,58,2238,3652,3973,3981,-613,15894,32,2,15910,0,false,false,false,false,false,false,true,false,false,false,6229,5441,4377,5070,62,78,78,62,1597,1557,1454,1478,1556,1658,1518,1408,0.0,0.0,0.0,0.0,1523.9,1519.6,1522.7,1524.5,5.59,1.82,1.28,4.52,0,0,0,0,-146.3277797726372,10.465214613210405,63.40467265607973,0,115.5398,115.5655,-6.528194E-4,-0.021504067,-1.0134438,1.0136721,-116.49114,-0.64729244,-5.9813795,116.6464,447,-288,1374,1473.0,-0.15196727,0.15941934,-0.016782744,0.22088513,0.22024662778071888,-0.07481893925218144,-10.826344780567341,-0.05566211080680862,43.18272302880935,43.182723028809335,-30.81654868316728,43.44062931167857,-214.34752046473068,3.1841677309136216,6.050355567413312,24.37804327435126,124.26863539456589,127.45480669350583,64.96,NONE,0.0,0.0,0.0,NONE,2.3345714316349337E-8,-1.0102454231207772E-8,-1.373291E-4,2,60.19,62.25,45.27,44.04,15.408,15.408,5.476,8.777191,896,2185,3.835,12.0,8.252,59,32.5,OK,127,0,0,0,0,0,65,100,0.0,0,0.0,-1.5432091E-28,8.8E-44,0.0,2.5102509E-8,64,0.22100449,-0.016937857,4.285414E-27,False,False,0,None,1.2581909E37,1.0036878E-18,
516104252,29.280,10.465191296152197,63.40468287685881,19,115.83374,115.36754,-0.0032089252,0.0661946,-0.98322266,0.9854536,133.8709,-3.919178,2.9932652,133.96169,453,-352,1374,1488.0,1.7718544,-2.16006,-0.017287321,2.793855,2.793801435641408,-1.2415584674894637,-2.0186216360670963,-0.10225902221499623,40.40446677551767,40.404466775517676,-5.356107782044046,112.77017051936707,-210.35150882050567,33.95622617759941,6.782888281957735,25.785592950390654,-52.461176139695404,-49.275004840755464,64.98,4.423828234374994,,10.4651969,63.4046813,20190425,165717,2019-04-25T16:57:17Z,161.477,0.59,1.07,6.81,11,8,19,1.75,-2.04,-0.02,0,0,0,0,5,5,10.465324328408192,63.404696067807194,30,24843,20,62,58,2238,3652,3973,3981,-613,15894,32,2,15910,0,false,false,false,false,false,false,true,false,false,false,6006,5657,4489,4827,62,79,78,62,1609,1609,1471,1482,1594,1598,1469,1475,0.0,0.0,0.0,0.0,1526.4,1522.7,1523.3,1526.4,4.31,4.38,3.01,2.44,0,0,0,0,-163.68450226223203,10.465193492597932,63.404682080130605,0,115.754486,115.57432,-0.002354376,0.061426636,-0.9748649,0.97680104,46.982986,2.022987,0.59334004,47.030262,456,-375,1377,1498.0,1.9606409,-2.1359742,-0.03240905,2.8995771,2.899396136322573,-1.4340394249518449,-4.096123517042949,0.10602946002682677,42.91611920512621,42.91611920512622,-32.71874528954145,51.27881918768111,-214.6882777024894,31.012306376500973,6.696198982315736,25.895450981164238,-49.65355985269053,-46.46738855375059,64.98,NONE,0.0,0.0,0.0,NONE,-1.744231288867676E-7,7.397900661358876E-8,-1.9836426E-4,2,39.66,75.67,65.97,14.45,15.393,15.393,5.473,8.718938,901,2183,3.839,12.0,9.072,59,32.5,OK,128,0,0,0,0,0,65,100,0.0,0,0.0,-3.4163783E-12,8.8E-44,0.0,2.5102509E-8,64,0.22314835,-0.017071849,1.1751121E-26,False,False,0,None,7.4039557E37,1.010067E-18,
520023843,30.299,10.46517266424493,63.40469381632626,19,115.39085,115.37118,-0.022307057,1.5463307E-4,-1.0612117,1.0614461,-20.68221,18.048563,-3.1949422,27.635342,881,-95,1225,1511.0,1.3950601,0.31809455,-0.02313908,1.4310529,1.4308657767621002,0.07075887507192546,3.379687678590089,-17.56050534875938,41.774378066631385,41.77437806663136,2.025764452726934,120.5501155585598,-227.9150405104084,19.464148500407212,7.554051134370451,27.390260998985895,1.0918493708933652,4.278020669833307,65.02,3.9809342524414006,,10.4651703,63.4046928,20190425,165718,2019-04-25T16:57:18Z,161.391,0.58,1.08,6.81,11,8,19,0.9,-0.34,0.03,0,6035,0,0,5,5,10.465324328408192,63.404696067807194,30,24843,20,62,58,2238,3652,3973,3981,-613,15894,32,2,15910,0,false,false,false,false,false,false,true,false,false,false,5973,6010,4893,4959,62,78,78,62,1614,1629,1503,1505,1610,1623,1485,1496,0.0,0.0,0.0,0.0,1525.2,1519.6,1519.6,1523.9,4.66,4.36,3.68,2.93,0,0,0,0,-179.22033080931092,10.465170545426448,63.404692820891285,0,115.66336,115.55091,-0.023723505,0.004891848,-1.0695368,1.0698111,-8.203295,23.486784,7.8142333,26.076529,890,-83,1213,1506.0,1.2679137,0.26826945,-0.029095387,1.2963102,1.2959836171492252,0.3263655120284321,3.5198567801680984,-17.899672518823245,43.501233990189355,43.50123399018935,-31.15485890796484,50.47447765759966,-232.9353780833494,18.275013956366863,7.663886103164099,27.606098728249165,4.1650483902338635,7.351219689173805,65.01,NONE,0.0,0.0,0.0,NONE,-6.62100202668611E-9,4.9319070188003207E-8,-1.5258789E-4,2,60.89,62.32,47.23,48.13,15.378,15.378,5.468,8.689092,903,2180,3.838,12.0,8.854,59,32.5,OK,129,0,0,0,0,0,65,100,0.0,0,0.0,-707.8281,8.8E-44,0.0,2.5102509E-8,64,0.21806335,-0.016753798,5.1316397E-26,False,False,0,None,-2.67148E-39,9.949263E-19,
