Tick#,offsetTime,IMU_ATTI(0):Longitude,IMU_ATTI(0):Latitude,IMU_ATTI(0):numSats,IMU_ATTI(0):barometer:Raw,IMU_ATTI(0):barometer:Smooth,IMU_ATTI(0):accel:X,IMU_ATTI(0):accel:Y,IMU_ATTI(0):accel:Z,IMU_ATTI(0):accel:Composite,IMU_ATTI(0):gyro:X,IMU_ATTI(0):gyro:Y,IMU_ATTI(0):gyro:Z,IMU_ATTI(0):gyro:Composite,IMU_ATTI(0):mag:X,IMU_ATTI(0):mag:Y,IMU_ATTI(0):mag:Z,IMU_ATTI(0):mag:Mod,IMU_ATTI(0):velN,IMU_ATTI(0):velE,IMU_ATTI(0):velD,IMU_ATTI(0):velComposite,IMU_ATTI(0):velH,IMU_ATTI(0):GPS-H,IMU_ATTI(0):roll,IMU_ATTI(0):pitch,IMU_ATTI(0):yaw,IMU_ATTI(0):yaw360,IMU_ATTI(0):totalGyro:Z,IMU_ATTI(0):totalGyro:X,IMU_ATTI(0):totalGyro:Y,IMU_ATTI(0):magYaw,IMU_ATTI(0):distanceHP,IMU_ATTI(0):distanceTravelled,IMU_ATTI(0):directionOfTravel[mag],IMU_ATTI(0):directionOfTravel[true],IMU_ATTI(0):temperature,General:relativeHeight,General:absoluteHeight,GPS(0):Long,GPS(0):Lat,GPS(0):Date,GPS(0):Time,GPS:dateTimeStamp,GPS(0):heightMSL,GPS(0):hDOP,GPS(0):pDOP,GPS(0):sAcc,GPS(0):numGPS,GPS(0):numGLNAS,GPS(0):numSV,GPS(0):velN,GPS(0):velE,GPS(0):velD,RC:Aileron,RC:Elevator,RC:Rudder,RC:Throttle,Controller:navHealth,Controller:ctrl_level,HP:Longitude,HP:Latitude,HP:rthHeight,BatBlackBox:tick,BatBlackBox:id,BatBlackBox:rsoc,BatBlackBox:index,BatBlackBox:rm,BatBlackBox:fcc,BatBlackBox:cell_min,BatBlackBox:cell_max,BatBlackBox:current,BatBlackBox:voltage,BatBlackBox:temp,BatBlackBox:flag,BatBlackBox:reserve,BatBlackBox:user_data,OA:avoidObst,OA:emergBrake,OA:radiusLimit,OA:airportLimit,OA:groundForceLanding,OA:horizNearBoundary,OA:vertLowLimit,OA:vertAirportLimit,OA:roofLimit,OA:hitGroundLimit,Motor:Speed:RFront,Motor:Speed:LFront,Motor:Speed:LBack,Motor:Speed:RBack,Motor:EscTemp:RFront,Motor:EscTemp:LFront,Motor:EscTemp:LBack,Motor:EscTemp:RBack,Motor:PPMrecv:RFront,Motor:PPMrecv:LFront,Motor:PPMrecv:LBack,Motor:PPMrecv:RBack,Motor:PPMsend:RFront,Motor:PPMsend:LFront,Motor:PPMsend:LBack,Motor:PPMsend:RBack,Motor:V_out:RFront,Motor:V_out:LFront,Motor:V_out:LBack,Motor:V_out:RBack,Motor:Volts:RFront,Motor:Volts:LFront,Motor:Volts:LBack,Motor:Volts:RBack,Motor:Current:RFront,Motor:Current:LFront,Motor:Current:LBack,Motor:Current:RBack,Motor:Status:RFront,Motor:Status:LFront,Motor:Status:LBack,Motor:Status:RBack,Motor:thrustAngle,IMU_ATTI(1):Longitude,IMU_ATTI(1):Latitude,IMU_ATTI(1):numSats,IMU_ATTI(1):barometer:Raw,IMU_ATTI(1):barometer:Smooth,IMU_ATTI(1):accel:X,IMU_ATTI(1):accel:Y,IMU_ATTI(1):accel:Z,IMU_ATTI(1):accel:Composite,IMU_ATTI(1):gyro:X,IMU_ATTI(1):gyro:Y,IMU_ATTI(1):gyro:Z,IMU_ATTI(1):gyro:Composite,IMU_ATTI(1):mag:X,IMU_ATTI(1):mag:Y,IMU_ATTI(1):mag:Z,IMU_ATTI(1):mag:Mod,IMU_ATTI(1):velN,IMU_ATTI(1):velE,IMU_ATTI(1):velD,IMU_ATTI(1):velComposite,IMU_ATTI(1):velH,IMU_ATTI(1):GPS-H,IMU_ATTI(1):roll,IMU_ATTI(1):pitch,IMU_ATTI(1):yaw,IMU_ATTI(1):yaw360,IMU_ATTI(1):totalGyro:Z,IMU_ATTI(1):totalGyro:X,IMU_ATTI(1):totalGyro:Y,IMU_ATTI(1):magYaw,IMU_ATTI(1):distanceHP,IMU_ATTI(1):distanceTravelled,IMU_ATTI(1):directionOfTravel[mag],IMU_ATTI(1):directionOfTravel[true],IMU_ATTI(1):temperature,IMUEX(0):err,IMUEX(0):rtk_Longitude,IMUEX(0):rtk_Latitude,IMUEX(0):rtk_Alti,IMUEX(1):err,IMUEX(1):rtk_Longitude,IMUEX(1):rtk_Latitude,IMUEX(1):rtk_Alti,BattInfo:Voltage,BattInfo:BatVoltage,BattInfo:AdVoltage,BattInfo:AvgCurrent,BattInfo:R_time,BattInfo:R_CAP_MAH,BattInfo:LowCellVoltage,BattInfo:LowCellVolThreshold,BattInfo:BatCurrent,BattInfo:Remaining%,BattInfo:Temp,BattInfo:status,battery_info:BatDynCnt,battery_info:Vol1Protect,battery_info:Vol2Protect,battery_info:Cap1Protect,battery_info:Cap2Protect,battery_info:Batpresent,battery_info:sopPercentage,battery_info:sopValue,battery_info:sopScale,battery_info:sopFlg,BattInfo:WindHeading:WindDir,battery_info:home_dir,BattInfo:Wind:rangeMin,BattInfo:Wind:rangeMax,battery_info:cap_speed,battery_info:against_wind,battery_info:emergency_land_cap,battery_info:intel_bat_land_cap,battery_info:intel_bat_gh_cap,BattInfo:Smart:SmartGh,BattInfo:Smart:SmartLand,BattInfo:GoHome:CntDown,BattInfo:GoHome:GhCmd,BattInfo:GoHome:CapLevel,BattInfo:GoHome:LandCapLv,Attribute|Value,ConvertDatV3,3.6.6-Tablet
7229963,1.879,,,,,,,,,,,,,,,,,,,,,,,,,,,,,,,,,,,,,,,,,,,,,,,,,,,,,,,,,,,,,,,,,,,,,,,,,,,,,,,,,,,,,,,,,,,,,,,,,,,,,,,,,,,,,,,,,,,,,,,,,,,,,,,,,,,,,,,,,,,,,,,,,,,,,,,,,,,,,,,,,,,,,,,,,,,,,,,OK,,,,,,,,,,,,,,,,,,,,,,,,,,Firmware Date| Oct 17 2018
34453705,8.954,,,,,,,,,,,,,,,,,,,,,,,,,,,,,,,,,,,,,,,,,,,,,,,,,,,,,,0,0,0,0,0,0,,,,,,,,,,,,,,,,,,,,,,,,,,,,,,,,,,,,,,,,,,,,,,,,,,,,,,,,,,,,,,,,,,,,,,,,,,,,,,,,,,,,,,,,,,,,,,,,,,,,,,,,,,,,,,,,,,,,OK,,,,,,,,,,,,,,,,,,,,,,,,,,ACType|MavicEnterprise
38366679,9.971,,,0,6.5238876,6.1086955,0.063335076,0.007365086,-0.99579793,0.9978372,-0.07908449,-0.11420557,0.04067193,0.14474624,-323,375,1825,1890.0,0.0,0.0,0.063015275,0.063015275,0.0,0.0,-0.3923409177707388,3.611522990674305,-122.69171779664843,237.30828220335155,0.048615234854121406,0.01659455185874932,-0.009455793678159675,-118.17641900532448,,0.0,,,54.85,,,0.0,0.0,20151018,7,2015-10-18T00:00:07Z,-17.0,99.99,99.99,3.75E7,0,0,0,0.0,0.0,0.0,0,0,0,0,0,0,,,,,,,,,,,,,,,,,,false,false,false,false,false,false,false,false,false,false,0,0,0,0,53,68,69,53,704,754,803,855,700,750,800,850,0.0,0.0,0.0,0.0,1688.9,1686.4,1687.6,1690.1,0.0,0.0,0.0,0.0,0,0,0,0,-45.0,,,,,,,,,,,,,,,,,,,,,,,,,,,,,,,,,,,,,NONE,0.0,0.0,0.0,,,,,17.015,17.015,6.076,1.635706,0,3324,4.248,12.0,1.29,91,29.8,OK,8,0,0,0,0,0,65,100,0.0,0,0.0,589232.0,2.69E-43,0.0,0.0,0,2.5940128E-5,-2.594025E-5,9.4E-44,False,False,0,None,0.0,1.0842022E-19,dateTime|2015-10-18 0:0:7 GMT
42310109,10.996,,,0,6.370633,6.1498837,0.06223819,0.0053303717,-0.99504215,0.99700093,-0.01680544,0.03727805,0.060428612,0.07296364,-316,379,1841,1905.0,0.0,0.0,0.02569487,0.02569487,0.0,0.0,-0.388911834319057,3.6171884760545936,-122.67305766007833,237.3269423399217,0.07755287886445282,0.05359270364162134,-0.012022390819177699,-116.99001505763819,,0.0,,,55.18,,,0.0,0.0,20151018,8,2015-10-18T00:00:08Z,-17.0,99.99,99.99,3.75E7,0,0,0,0.0,0.0,0.0,0,0,0,0,0,0,,,,,,,,,,,,,,,,,,false,false,false,false,false,false,false,false,false,false,0,0,0,0,52,69,68,52,945,944,944,946,940,940,940,940,0.0,0.0,0.0,0.0,1688.9,1686.4,1687.6,1690.1,0.0,0.0,0.0,0.0,0,0,0,0,-45.0,-3.930599881193211E-11,-4.7331803653750714E-11,0,6.370633,6.276299,0.06223819,0.0053303717,-0.99504215,0.99700093,-0.01680544,0.03727805,0.060428612,0.07296364,-316,379,1841,1905.0,-0.001051223,-8.408856E-4,0.042945985,0.042967077,0.001346164334772882,-0.001346164334772882,-0.3442594040765092,3.6206462016225798,-118.15534669896583,241.84465330103416,0.008307168916306201,-6.855505655522533E-4,0.00877624427581185,-117.05978951887019,,1.716979027569386E-5,,,55.18,NONE,0.0,0.0,0.0,NONE,-9.145621353327809E-11,-9.523799954621895E-11,4.234314E-4,17.014,17.014,6.073,1.6638457,0,3323,4.247,12.0,1.32,91,29.8,OK,9,0,0,0,0,0,65,100,0.0,0,0.0,589232.0,2.69E-43,0.0,-4.4479394E-16,67,2.5940128E-5,-2.594025E-5,9.4E-44,False,False,0,None,0.0,1.0842022E-19,
46356050,12.048,0.0,0.0,0,6.2332325,6.1054554,0.061935384,0.0060380455,-0.99454266,0.9964876,0.010228689,0.046394065,0.12218048,0.13109197,-323,375,1833,1898.0,-0.0031196417,0.00713763,0.039716043,0.04047273,0.0077896038769000595,-0.0077896038769000595,-0.37240459753604255,3.61637066882966,-122.6664674143679,237.3335325856321,0.14250766514586152,0.12718971674938528,-0.027756007205607343,-118.13533874748599,,0.0,,,55.46,,,0.0,0.0,20151018,9,2015-10-18T00:00:09Z,-17.0,99.99,99.99,3.75E7,0,0,0,0.0,0.0,0.0,0,0,0,0,0,0,,,,,,,,,,,,,,,,,,false,false,false,false,false,false,false,false,false,false,0,0,0,0,53,67,68,53,945,945,944,945,940,940,940,940,0.0,0.0,0.0,0.0,1688.9,1685.2,1684.6,1688.9,0.0,0.0,0.0,0.0,0,0,0,0,-45.0,1.0780639209709159E-10,1.662385808224845E-10,0,6.2332325,6.2800136,0.061935384,0.0060380455,-0.99454266,0.9964876,0.010228689,0.046394065,0.12218048,0.13109197,-323,375,1833,1898.0,0.003738282,0.0024237,0.03570335,0.035980247,0.004455229994732763,-0.004427806243045207,-0.3125820301986289,3.6240230463740355,-118.13204543613418,241.86795456386582,0.07326054024737391,0.07291341844607271,-0.006958131853998132,-118.22205981085375,,5.179916771929946E-5,,,55.46,NONE,0.0,0.0,0.0,NONE,8.50006406849521E-11,1.7396111067543533E-10,3.3569336E-4,17.013,17.013,6.075,1.6537282,0,3323,4.247,12.0,1.323,91,29.8,OK,10,0,0,0,0,0,65,100,0.0,0,0.0,589232.0,2.69E-43,0.0,-4.4479394E-16,67,2.5940128E-5,-2.594025E-5,9.4E-44,False,False,0,None,0.0,1.0842022E-19,
50213085,13.050,0.0,0.0,0,6.11697,6.113803,0.060650665,0.006229109,-0.9937003,0.995569,-0.09447239,-0.044434723,-0.0016100303,0.10441297,-327,371,1825,1890.0,-0.0017094136,0.007584793,0.009061249,0.011939741,0.007775035730845745,-0.007775035730845745,-0.3603660355825095,3.6067460429902174,-122.66134841790176,237.33865158209824,0.17647085653640535,0.14761186308579488,-0.05093640018718256,-118.96412670751789,,0.0,,,55.8,,,0.0,0.0,20151018,10,2015-10-18T00:00:10Z,-17.0,99.99,99.99,3.75E7,0,0,0,0.0,0.0,0.0,0,0,0,0,0,0,,,,,,,,,,,,,,,,,,false,false,false,false,false,false,false,false,false,false,0,0,0,0,53,68,68,53,945,946,945,947,940,940,940,940,0.0,0.0,0.0,0.0,1689.5,1685.8,1685.8,1690.1,0.0,0.0,0.0,0.0,0,0,0,0,-45.0,-6.998748608662153E-11,-1.78788410586397E-11,0,6.11697,6.291286,0.060650665,0.006229109,-0.9937003,0.995569,-0.09447239,-0.044434723,-0.0016100303,0.10441297,-327,371,1825,1890.0,-3.7726856E-4,-0.0015022762,0.0019930121,0.002524136,0.0015489238744217952,-0.001520532525624858,-0.31022192366507195,3.602549992511693,-118.51927094602318,241.4807290539768,0.10722379148703,0.09333762423436266,-0.03013850039295828,-119.0787738102162,,1.1636371669609164E-4,,,55.8,NONE,0.0,0.0,0.0,NONE,-7.167223057385054E-11,-2.4403696455184782E-11,1.001358E-5,17.012,17.012,6.073,1.6203696,0,3322,4.247,12.0,1.311,91,29.8,OK,11,0,0,0,0,0,65,100,0.0,0,0.0,589232.0,2.69E-43,0.0,-4.4479394E-16,67,2.5940128E-5,-2.594025E-5,9.4E-44,False,False,0,None,0.0,1.0842022E-19,
54110705,14.063,0.0,0.0,0,6.0931892,6.1047916,0.061575335,0.005529619,-0.9936059,0.9955274,-0.013164606,-0.057198685,0.089236744,0.10680915,-327,375,1833,1899.0,8.4292406E-4,0.009884317,0.02369865,0.025691172,0.009920194134531428,-0.009920194134531428,-0.3496616607266987,3.597317383928896,-122.65925721839663,237.34074278160335,0.21297417311670733,0.15704059636371626,-0.08355441631751767,-118.70742857191196,,0.0,,,56.12,,,0.0,0.0,20151018,11,2015-10-18T00:00:11Z,-17.0,99.99,99.99,3.75E7,0,0,0,0.0,0.0,0.0,0,0,0,0,0,0,,,,,,,,,,,,,,,,,,false,false,false,false,false,false,false,false,false,false,0,0,0,0,53,70,69,54,945,945,944,945,940,940,940,940,0.0,0.0,0.0,0.0,1689.5,1685.8,1685.2,1689.5,0.0,0.0,0.0,0.0,0,0,0,0,-45.0,-2.625681080861409E-11,1.4312066514084198E-10,0,6.190955,6.292608,0.0627446,0.005543816,-0.99407893,0.9960726,0.15945013,0.031566296,-0.052032206,0.17066965,-323,379,1833,1899.0,0.003194297,-6.171264E-4,-0.0022043358,0.0039298185,0.003253364009469108,-0.003235050636002706,-0.2914645989156393,3.6136177858743745,-118.32533519181953,241.67466480818047,0.14113709270169272,0.09139557867033957,-0.05231178804305071,-118.05493514845311,,1.8794145806824974E-4,,,56.1,NONE,0.0,0.0,0.0,NONE,3.263970217265857E-11,1.1520420848077046E-10,2.2888184E-5,17.01,17.01,6.074,1.5743229,0,3322,4.247,12.0,1.309,91,29.8,OK,12,0,0,0,0,0,65,100,0.0,0,0.0,589232.0,2.69E-43,0.0,-4.4479394E-16,67,2.5940128E-5,-2.594025E-5,9.4E-44,False,False,0,None,0.0,1.0842022E-19,
58054305,15.088,0.0,0.0,0,6.521245,6.083013,0.062470634,0.006171166,-0.9939278,0.9959082,-8.3833904E-4,-0.021391774,0.08757569,0.09015438,-323,371,1829,1893.0,-4.8775744E-4,0.011233574,0.013060112,0.017233618,0.011244157813570774,-0.011244157813570774,-0.341287245688522,3.591006871435514,-122.64942218850142,237.35057781149857,0.23684980914390869,0.18388292010889817,-0.10048000101416851,-118.56955613477724,,0.0,,,56.33,,,0.0,0.0,20151018,11,2015-10-18T00:00:11Z,-17.0,99.99,99.99,3.75E7,0,0,0,0.0,0.0,0.0,0,0,0,0,0,0,,,,,,,,,,,,,,,,,,false,false,false,false,false,false,false,false,false,false,0,0,0,0,54,69,68,53,945,945,944,946,940,940,940,940,0.0,0.0,0.0,0.0,1690.1,1686.4,1686.4,1688.9,0.0,0.0,0.0,0.0,0,0,0,0,-45.0,5.667685426855285E-11,8.438363294209037E-12,0,6.521245,6.292769,0.062470634,0.006171166,-0.9939278,0.9959082,-8.3833904E-4,-0.021391774,0.08757569,0.09015438,-323,371,1829,1893.0,1.5970628E-4,0.0012650745,2.7947538E-4,0.0013053835,0.001275115477448967,-0.001257955620284238,-0.30941886268880936,3.604002014336168,-118.34411053950338,241.6558894604966,0.1717514084731218,0.12439833610255294,-0.06197298828915305,-118.5836943219301,,2.4798670298469325E-4,,,56.33,NONE,0.0,0.0,0.0,NONE,3.145902151647704E-11,9.334906713733427E-11,-3.8146973E-6,17.012,17.012,6.075,1.5231152,0,3322,4.247,12.0,1.289,91,29.8,OK,13,0,0,0,0,0,65,100,0.0,0,0.0,589232.0,2.69E-43,0.0,-4.4479394E-16,67,2.5940128E-5,-2.594025E-5,9.4E-44,False,False,0,None,0.0,1.0842022E-19,
62009358,16.116,0.0,0.0,0,6.1566052,6.1948533,0.06198105,0.0058508096,-0.99348575,0.9954345,0.047006983,-0.041252434,-0.26766065,0.27487022,-323,371,1833,1897.0,0.0013251008,0.010957433,-0.016853029,0.020145616,0.011037265393521895,-0.011037265393521895,-0.34206348005889153,3.5881682341804284,-122.64719124138641,237.3528087586136,0.208768380035585,0.18003967653562256,-0.08672716733861438,-118.54812759200041,,0.0,,,56.67,,,0.0,0.0,20151018,13,2015-10-18T00:00:13Z,-17.0,99.99,99.99,3.75E7,0,0,0,0.0,0.0,0.0,0,0,0,0,0,0,,,,,,,,,,,,,,,,,,false,false,false,false,false,false,false,false,false,false,0,0,0,0,54,69,69,53,945,946,944,946,940,940,940,940,0.0,0.0,0.0,0.0,1689.5,1685.2,1685.8,1690.1,0.0,0.0,0.0,0.0,0,0,0,0,-45.0,6.6717868669577514E-12,-1.1211760178792907E-11,0,6.1566052,6.2923837,0.06198105,0.0058508096,-0.99348575,0.9954345,0.047006983,-0.041252434,-0.26766065,0.27487022,-323,371,1833,1897.0,-2.6396787E-4,1.8224977E-4,0.003577745,0.003592096,3.207709781371728E-4,-3.1495892282762026E-4,-0.31552950816346964,3.6039334244094845,-118.28827956866313,241.71172043133686,0.1267759955577197,0.12271843464562296,-0.04802305681325859,-118.54138129151362,,3.0602853318743774E-4,,,56.67,NONE,0.0,0.0,0.0,NONE,7.629142136731997E-11,-1.587696511677064E-11,-1.7166138E-5,17.011,17.011,6.073,1.4717264,0,3321,4.246,12.0,1.282,91,29.8,OK,14,0,0,0,0,0,65,100,0.0,0,0.0,589232.0,2.69E-43,0.0,-4.4479394E-16,67,2.5940128E-5,-2.594025E-5,9.4E-44,False,False,0,None,0.0,1.0842022E-19,
65941227,17.138,0.0,0.0,0,6.4234796,6.210744,0.061933596,0.004811584,-0.99572486,0.99766076,0.0958738,0.060252547,0.120655425,0.16546868,-331,371,1821,1887.0,0.004774086,0.0067910394,-0.005593804,0.010010033,0.008301211619440182,-0.008301211619440182,-0.3425748520772348,3.58394899236679,-122.65113557345094,237.34886442654906,0.22739574463411408,0.22497081520112056,-0.08917093687410167,-119.56848583943935,,0.0,,,56.97,,,0.0,0.0,20151018,14,2015-10-18T00:00:14Z,-17.0,99.99,99.99,3.75E7,0,0,0,0.0,0.0,0.0,0,0,0,0,0,0,,,,,,,,,,,,,,,,,,false,false,false,false,false,false,false,false,false,false,0,0,0,0,54,70,70,53,946,944,944,947,940,940,940,940,0.0,0.0,0.0,0.0,1689.5,1685.8,1686.4,1689.5,0.0,0.0,0.0,0.0,0,0,0,0,-45.0,-3.075782897518659E-11,4.661858456916063E-11,0,6.4234796,6.293459,0.061933596,0.004811584,-0.99572486,0.99766076,0.0958738,0.060252547,0.120655425,0.16546868,-331,371,1821,1887.0,9.945359E-4,-6.571942E-4,-7.040827E-4,0.0013844632,0.0011920595164394247,-0.0011845636797976696,-0.330953671703387,3.5930358304521053,-118.23273300778068,241.76726699221933,0.1454023506360616,0.1676484593955593,-0.05047034826809936,-119.55863251847863,,3.710969137879742E-4,,,56.97,NONE,0.0,0.0,0.0,NONE,-1.4627786165552414E-12,9.193622429927035E-11,0.0,17.011,17.011,6.073,1.4234464,0,3321,4.247,12.0,1.271,91,29.8,OK,15,0,0,0,0,0,65,100,0.0,0,0.0,589232.0,2.69E-43,0.0,-4.4479394E-16,67,2.5940128E-5,-2.594025E-5,9.4E-44,False,False,0,None,0.0,1.0842022E-19,
69797510,18.140,0.0,0.0,0,6.3732753,6.25369,0.061839607,0.004492351,-0.99444216,0.9963732,0.039064415,-0.07996069,-0.07279761,0.114974916,-327,368,1825,1890.0,0.0040493314,0.005576153,-0.008916652,0.011269305,0.006891340090975513,-0.006891340090975513,-0.3417293143841139,3.5778528583290834,-122.66021309169489,237.33978690830511,0.2385111904038973,0.2807670614171952,-0.12848884129054708,-119.29959165949066,,0.0,,,57.31,,,0.0,0.0,20151018,15,2015-10-18T00:00:15Z,-17.0,99.99,99.99,3.75E7,0,0,0,0.0,0.0,0.0,0,0,0,0,0,0,,,,,,,,,,,,,,,,,,false,false,false,false,false,false,false,false,false,false,0,0,0,0,53,70,69,54,945,945,944,946,940,940,940,940,0.0,0.0,0.0,0.0,1690.7,1685.2,1685.8,1688.9,0.0,0.0,0.0,0.0,0,0,0,0,-45.0,5.7505892865559903E-11,6.127303801024792E-11,0,6.4155526,6.2936244,0.062087644,0.00594954,-0.99278706,0.9947444,-0.027766913,-0.033548906,-0.110099524,0.11839948,-323,368,1833,1897.0,0.0013679162,0.0012698169,0.0018028996,0.00259501,0.00186644845240791,-0.0018565217639654108,-0.32427514065651497,3.5926964058197375,-118.32155017997918,241.67844982002083,0.17434512970936356,0.21201043100207587,-0.0793797421509453,-118.75649735934621,,4.2435804883037714E-4,,,57.29,NONE,0.0,0.0,0.0,NONE,-8.34586444222485E-11,-8.560928193788784E-11,3.4809113E-5,17.012,17.012,6.076,1.380416,0,3321,4.247,12.0,1.269,91,29.9,OK,16,0,0,0,0,0,65,100,0.0,0,0.0,589232.0,2.69E-43,0.0,-4.4479394E-16,67,2.5940128E-5,-2.594025E-5,9.4E-44,False,False,0,None,0.0,1.0842022E-19,
73694770,19.153,0.0,0.0,0,6.294006,6.298114,0.061600816,0.0060203625,-0.9948941,0.9968175,-0.08893105,-0.033580557,0.05627825,0.11047003,-323,368,1833,1897.0,-0.0017096326,0.0030342664,0.0014829728,0.0037853434,0.003482759847072251,-0.003482759847072251,-0.34831712056339553,3.576661596802566,-122.66220948188071,237.33779051811928,0.23660348091727104,0.30728380495845153,-0.16842770746911384,-118.76873514932022,,0.0,,,57.68,,,0.0,0.0,20151018,16,2015-10-18T00:00:16Z,-17.0,99.99,99.99,3.75E7,0,0,0,0.0,0.0,0.0,0,0,0,0,0,0,,,,0,0,0,1,0,0,0,0,0,0,19,1,0,0,false,false,false,false,false,false,false,false,false,false,0,0,0,0,54,69,71,54,946,945,944,947,940,940,940,940,0.0,0.0,0.0,0.0,1689.5,1686.4,1684.6,1689.5,0.0,0.0,0.0,0.0,0,0,0,0,-45.0,2.67881955285988E-11,-7.447909224745748E-11,0,6.1381087,6.293889,0.06327041,0.0056005046,-0.99324745,0.99527633,0.09791766,0.11714036,0.004638552,0.1527457,-320,368,1829,1892.0,-0.0016881496,5.6761695E-4,5.863766E-4,0.0018750668,0.001781021638705396,-0.001765741881003831,-0.3486098199754174,3.589255364150215,-118.320289946179,241.679710053821,0.17134287591609157,0.23243176385566702,-0.13099275920535763,-118.402671969889,,4.920853437438017E-4,,,57.58,NONE,0.0,0.0,0.0,NONE,5.044259375743611E-11,-7.089417349902382E-11,9.536743E-7,17.009,17.009,6.073,1.3440689,0,3320,4.247,12.0,1.277,91,29.9,OK,17,0,0,0,0,0,65,100,0.0,0,0.0,589232.0,2.69E-43,0.0,-4.4479394E-16,67,2.5940128E-5,-2.594025E-5,9.4E-44,False,False,0,None,0.0,1.0842022E-19,
77693823,20.192,0.0,0.0,0,6.486895,6.2881627,0.06259933,0.005351837,-0.99335676,0.9953416,0.11077415,-0.04484585,0.06646632,0.13674733,-323,368,1825,1889.0,-0.003724645,0.003527343,0.007996656,0.0095006125,0.005129827179176812,-0.005129827179176812,-0.3330926132433968,3.5687133936368998,-122.66092771330862,237.33907228669136,0.2998495268539119,0.33098523539155367,-0.19858450502771313,-118.88959500413186,,0.0,,,57.9,,,0.0,0.0,20151018,17,2015-10-18T00:00:17Z,-17.0,99.99,99.99,3.75E7,0,0,0,0.0,0.0,0.0,0,0,0,0,0,0,,,,1,114,70,2,2647,3805,3992,4018,3,16023,191,4400,15569,0,false,false,false,false,false,false,false,false,false,false,0,0,0,0,53,70,70,54,946,944,944,947,940,940,940,940,0.0,0.0,0.0,0.0,1689.5,1685.8,1685.8,1688.9,0.0,0.0,0.0,0.0,0,0,0,0,-45.0,-1.0888092627889299E-11,4.111675914620598E-11,0,6.486895,6.2944546,0.06259933,0.005351837,-0.99335676,0.9953416,0.11077415,-0.04484585,0.06646632,0.13674733,-323,368,1825,1889.0,9.179846E-4,-2.6399273E-4,0.0011034235,0.0014594285,9.551899310709195E-4,-9.421824201808987E-4,-0.33859202721990217,3.575179593132829,-118.24938411710714,241.75061588289287,0.23821500965105852,0.2673465990780894,-0.15137457051517128,-118.85457959992164,,5.562863676442315E-4,,,57.9,NONE,0.0,0.0,0.0,NONE,-9.181177698076769E-11,1.301865125099018E-10,-2.3841858E-6,17.009,17.009,6.071,1.3150885,0,3320,4.246,12.0,1.271,91,29.9,OK,18,0,0,0,0,0,65,100,0.0,0,0.0,589232.0,2.69E-43,0.0,-5.9807744E7,62,2.5940128E-5,-2.594025E-5,9.4E-44,False,False,0,None,0.0,1.0842022E-19,
81684048,21.229,0.0,0.0,0,6.288721,6.241567,0.062437948,0.005384298,-0.9929436,0.9949193,-0.05902069,0.03694742,0.09128048,0.114807144,-327,368,1829,1894.0,-0.0050583193,0.002717391,0.022741865,0.023455558,0.005742021344073481,-0.005742021344073481,-0.33153586637381766,3.573555802672728,-122.66674151970179,237.3332584802982,0.32825173255705176,0.3643304841083002,-0.19732095872665562,-119.30574292538984,,0.0,,,58.22,,,0.0,0.0,20151018,18,2015-10-18T00:00:18Z,-17.0,99.99,99.99,3.75E7,0,0,0,0.0,0.0,0.0,0,0,0,0,0,0,,,,1,114,70,2,2647,3805,3992,4018,3,16023,191,4400,15569,0,false,false,false,false,false,false,false,false,false,false,0,0,0,0,53,69,71,54,946,945,944,947,940,940,940,940,0.0,0.0,0.0,0.0,1689.5,1685.2,1685.2,1690.7,0.0,0.0,0.0,0.0,0,0,0,0,-45.0,-5.114836155928304E-11,3.6403448530012425E-12,0,6.288721,6.2945657,0.062437948,0.005384298,-0.9929436,0.9949193,-0.05902069,0.03694742,0.09128048,0.114807144,-327,368,1829,1894.0,6.811376E-5,-0.0011484069,3.9957342E-4,0.001217841,0.0011504250597083251,-0.0011445274218403146,-0.3369048139597072,3.576699385478884,-118.2527321520696,241.7472678479304,0.27682895350272446,0.3000950695849661,-0.15171203165974062,-119.28330323216859,,6.197865922000707E-4,,,58.22,NONE,0.0,0.0,0.0,NONE,-7.616749694254886E-11,2.503795934286427E-11,-1.9073486E-6,17.009,17.009,6.071,1.2930604,0,3320,4.246,12.0,1.27,91,29.9,OK,19,0,0,0,0,0,65,100,0.0,0,0.0,589232.0,2.69E-43,0.0,-5.9807744E7,62,2.5940128E-5,-2.594025E-5,9.4E-44,False,False,0,None,0.0,1.0842022E-19,
85541067,22.232,0.0,0.0,0,6.2358747,6.191928,0.06306237,0.0046430826,-0.9928921,0.99490356,-0.03407758,-0.008600099,0.04095645,0.053969193,-323,368,1825,1889.0,-0.0044851173,0.0024145106,0.031440977,0.031850923,0.005093735133647434,-0.005093735133647434,-0.3229327492277468,3.5841545092066545,-122.67391029290485,237.32608970709515,0.3832408150285304,0.4036239872334765,-0.20082057210795307,-118.85224507747361,,0.0,,,58.53,,,0.0,0.0,20151018,20,2015-10-18T00:00:20Z,-17.0,99.99,99.99,3.75E7,0,0,0,0.0,0.0,0.0,0,0,0,0,0,0,,,,103,146,65,4,1468,2278,3990,4019,5,16061,191,26886,16239,0,false,false,false,false,false,false,false,false,false,false,0,0,0,0,54,71,69,54,945,945,944,946,940,940,940,940,0.0,0.0,0.0,0.0,1690.1,1685.2,1685.2,1690.1,0.0,0.0,0.0,0.0,0,0,0,0,-45.0,9.653031646956488E-12,7.591912523075167E-11,0,6.2358747,6.295054,0.06306237,0.0046430826,-0.9928921,0.99490356,-0.03407758,-0.008600099,0.04095645,0.053969193,-323,368,1825,1889.0,0.0016380332,2.1278765E-4,-3.2452383E-4,0.0016833737,0.0016517964022923896,-0.0016413192819002185,-0.3139580205713382,3.598785172294981,-118.33224080828246,241.66775919171755,0.3609149507943288,0.3649980980360795,-0.154514296116181,-118.81547103345264,,6.812861900710562E-4,,,58.53,NONE,0.0,0.0,0.0,NONE,1.7480661989586925E-11,1.4956891741645188E-10,-6.67572E-6,17.009,17.009,6.073,1.2771804,0,3319,4.246,12.0,1.274,91,29.9,OK,20,0,0,0,0,0,65,100,0.0,0,0.0,589232.0,2.69E-43,0.0,-5.9807744E7,62,2.5940128E-5,-2.594025E-5,9.4E-44,False,False,0,None,0.0,1.0842022E-19,
89438804,23.245,0.0,0.0,0,6.420837,6.106493,0.06257638,0.0063010994,-0.9934016,0.9953905,0.010620884,-0.005629348,0.014087265,0.01851874,-320,371,1825,1889.0,-0.007055087,0.0027107366,0.039017983,0.03974324,0.00755793243525951,-0.00755793243525951,-0.3186105632728731,3.5673138716355557,-122.68629123767619,237.3137087623238,0.3675411587790994,0.4692439531498763,-0.24525023414840183,-118.38527194603499,,0.0,,,58.85,,,0.0,0.0,20151018,21,2015-10-18T00:00:21Z,-17.0,99.99,99.99,3.75E7,0,0,0,0.0,0.0,0.0,0,0,0,0,0,0,,,,105,114,99,5,2140,2140,3990,4020,0,16065,-12,2278,77,0,false,false,false,false,false,false,false,false,false,false,0,0,0,0,54,70,70,53,945,945,944,946,940,940,940,940,0.0,0.0,0.0,0.0,1689.5,1684.0,1685.2,1688.9,0.0,0.0,0.0,0.0,0,0,0,0,-45.0,-5.6965226864533764E-11,-5.215753500218351E-11,0,6.3600636,6.2955637,0.06289775,0.0046805628,-0.9928251,0.99482644,0.05302355,-0.039067026,-0.051100608,0.08336067,-320,368,1833,1896.0,-0.0012169017,-0.0012766189,-0.0017512728,0.0024854701,0.0017636908957593944,-0.0017478441746437519,-0.3123670921197997,3.5826968045112126,-118.34524114131794,241.65475885868204,0.34136427158261584,0.43365872626490676,-0.20262783873994727,-118.4682130165713,,7.392581984022077E-4,,,58.82,NONE,0.0,0.0,0.0,NONE,2.871908944178811E-11,-1.3603971852141164E-11,1.1444092E-5,17.007,17.007,6.073,1.2667,0,3319,4.246,12.0,1.276,91,29.9,OK,21,0,0,0,0,0,65,100,0.0,0,0.0,589232.0,2.69E-43,0.0,-5.9807744E7,62,2.5940128E-5,-2.594025E-5,9.4E-44,False,False,0,None,0.0,1.0842022E-19,
93497388,24.300,0.0,0.0,0,6.2543707,6.1218286,0.062486406,0.00485323,-0.99474436,0.99671686,0.04155876,-0.16853076,-0.03209733,0.17652191,-316,368,1833,1896.0,-0.007889272,0.005670157,0.0087603405,0.013081852,0.009715517956707513,-0.009715517956707513,-0.31707705145121823,3.568349599504277,-122.71584213385005,237.28415786614994,0.3370154654644632,0.5074836312475665,-0.3129537670280506,-118.04389620103106,,0.0,,,59.2,,,0.0,0.0,20151018,21,2015-10-18T00:00:21Z,-17.0,99.99,99.99,3.75E7,0,0,0,0.0,0.0,0.0,0,0,0,0,0,0,,,,106,114,99,6,2140,2140,3989,4018,3,16013,-12,2249,1,0,false,false,false,false,false,false,false,false,false,false,0,0,0,0,55,69,70,55,945,945,944,946,940,940,940,940,0.0,0.0,0.0,0.0,1688.2,1685.2,1684.0,1687.6,0.0,0.0,0.0,0.0,0,0,0,0,-45.0,2.1916972790813633E-11,8.014824173483192E-12,0,6.11697,6.2958245,0.061990995,0.0047485,-0.9943947,0.9963364,0.035153646,0.005564063,0.06708038,0.07593757,-312,368,1829,1891.0,1.7206854E-4,5.026472E-4,-0.0014651383,0.0015584902,5.312831316354365E-4,-5.208244269657614E-4,-0.3102903075130869,3.591232647577265,-118.3771660519864,241.62283394801358,0.30535040085913084,0.47613571327309817,-0.2536279396729955,-117.52709517193003,,7.894320896574911E-4,,,59.15,NONE,0.0,0.0,0.0,NONE,2.573000133860379E-11,2.082871256052316E-11,-6.67572E-6,17.005,17.005,6.071,1.2609062,0,3319,4.246,12.0,1.287,91,29.9,OK,22,0,0,0,0,0,65,100,0.0,0,0.0,589232.0,2.69E-43,0.0,-5.9807744E7,62,2.5940128E-5,-2.594025E-5,9.4E-44,False,False,0,None,0.0,1.0842022E-19,
97414401,25.318,0.0,0.0,0,6.1698165,6.134412,0.06177907,0.00432239,-0.9929002,0.9948297,-0.019480733,-0.071575396,0.006589525,0.07447119,-312,368,1837,1899.0,-0.0061738924,0.0038626003,0.0016021952,0.0074567865,0.007282625252002854,-0.007282625252002854,-0.29851020830839825,3.554900411978496,-122.72891633913882,237.27108366086117,0.34631066047550174,0.5500735813433302,-0.3507475808064327,-117.6274607478422,,0.0,,,59.44,,,0.0,0.0,20151018,22,2015-10-18T00:00:22Z,-17.0,99.99,99.99,3.75E7,0,0,0,0.0,0.0,0.0,0,0,0,0,0,0,,,,131,48,99,7,2140,2140,3989,4017,0,16009,-12,66,0,0,false,false,false,false,false,false,false,false,false,false,0,0,0,0,55,71,70,54,945,945,945,946,940,940,940,940,0.0,0.0,0.0,0.0,1689.5,1685.8,1684.6,1688.9,0.0,0.0,0.0,0.0,0,0,0,0,-45.0,-2.0865837592349977E-12,-9.423483901499342E-12,0,6.1698165,6.296369,0.06177907,0.00432239,-0.9929002,0.9948297,-0.019480733,-0.071575396,0.006589525,0.07447119,-312,368,1837,1899.0,-2.4825387E-4,-6.2888575E-6,-1.8158293E-4,3.0763922E-4,2.483335090226468E-4,-2.450928155222466E-4,-0.2910405599690921,3.5805945921607205,-118.4259021536793,241.57409784632068,0.34118271913729536,0.5530442276062772,-0.28870107525738914,-117.54301877402744,,8.299053367917613E-4,,,59.44,NONE,0.0,0.0,0.0,NONE,1.4740207034684054E-11,8.344348063174709E-11,-3.2424927E-5,17.005,17.005,6.068,1.2592465,0,3318,4.245,12.0,1.296,91,29.9,OK,23,0,0,0,0,0,65,100,0.0,0,0.0,589232.0,2.69E-43,0.0,-5.9807744E7,62,2.5940128E-5,-2.594025E-5,9.4E-44,False,False,0,None,0.0,1.0842022E-19,
101269271,26.319,0.0,0.0,0,5.916154,6.0936503,0.062236276,0.0048833666,-0.99620754,0.9981616,0.1975966,-0.14061414,0.049732883,0.24756838,-323,371,1829,1893.0,-0.003819747,5.8514794E-4,0.0087796785,0.009592477,0.003864306452671948,-0.003864306452671948,-0.2952788267930178,3.5495361071009834,-122.72548528754066,237.27451471245934,0.3510371648126838,0.583529521683472,-0.4115012512688386,-118.81456860725471,,0.0,,,59.73,,,0.0,0.0,20151018,24,2015-10-18T00:00:24Z,-17.0,99.99,99.99,3.75E7,0,0,0,0.0,0.0,0.0,0,0,0,0,0,0,,,,131,48,99,7,2140,2140,3989,4017,0,16009,-12,66,0,0,false,false,false,false,false,false,false,false,false,false,0,0,0,0,55,70,71,55,944,944,944,945,940,940,940,940,0.0,0.0,0.0,0.0,1689.5,1685.2,1685.8,1689.5,0.0,0.0,0.0,0.0,0,0,0,0,-45.0,5.023301377466799E-11,-6.894537065057239E-11,0,5.916154,6.2962027,0.062236276,0.0048833666,-0.99620754,0.9981616,0.1975966,-0.14061414,0.049732883,0.24756838,-323,371,1829,1893.0,-0.0015518377,0.0011401101,0.0024369322,0.003105912,0.0019256300407304316,-0.0019168344904892142,-0.29378368601204813,3.5689117629041625,-118.4281178534183,241.5718821465817,0.33218174613370915,0.5784168341840374,-0.3454764645023743,-118.74538963573508,,8.888352030759504E-4,,,59.73,NONE,0.0,0.0,0.0,NONE,-7.311984538209823E-11,-5.02756618062175E-12,-6.67572E-6,17.004,17.004,6.068,1.2603513,0,3318,4.245,12.0,1.266,91,29.9,OK,24,0,0,0,0,0,65,100,0.0,0,0.0,589232.0,2.69E-43,0.0,-5.9807744E7,62,2.5940128E-5,-2.594025E-5,9.4E-44,False,False,0,None,0.0,1.0842022E-19,
105125220,27.322,0.0,0.0,0,5.7496877,5.9881864,0.06279319,0.0047246153,-0.9961974,0.99818563,-0.116901346,-0.15121761,0.06716156,0.20259161,-312,368,1837,1899.0,-0.0011991756,-0.002686317,0.022226486,0.022420326,0.002941822800760992,-0.002941822800760992,-0.3078396085854883,3.5412531217004175,-122.74326891382867,237.25673108617133,0.32683788767224164,0.6508864544532235,-0.4877877305828652,-117.66176043626209,,0.0,,,60.01,,,0.0,0.0,20151018,24,2015-10-18T00:00:24Z,-17.0,99.99,99.99,3.75E7,0,0,0,0.0,0.0,0.0,0,0,0,0,0,0,,,,1,114,67,9,2286,3415,3988,4018,0,16052,-12,3850,47,0,false,false,false,false,false,false,false,false,false,false,0,0,0,0,54,70,69,54,945,945,944,946,940,940,940,940,0.0,0.0,0.0,0.0,1689.5,1685.2,1685.2,1689.5,0.0,0.0,0.0,0.0,0,0,0,0,-45.0,4.686842686735806E-11,-1.9202008615331297E-11,0,5.7496877,6.297277,0.06279319,0.0047246153,-0.9961974,0.99818563,-0.116901346,-0.15121761,0.06716156,0.20259161,-312,368,1837,1899.0,-4.5073844E-4,0.0010391399,-0.0010802012,0.0015651875,0.0011326856942976624,-0.0011271537064477695,-0.31726060498701747,3.565090422116067,-118.41089632672748,241.58910367327252,0.32808951192293195,0.6251270909061367,-0.4489061521493105,-117.55179352582482,,9.360479246023531E-4,,,60.01,NONE,0.0,0.0,0.0,NONE,2.261528944238944E-11,4.540025597532772E-11,1.335144E-5,17.005,17.005,6.072,1.262317,0,3318,4.245,12.0,1.276,91,29.9,OK,25,0,0,0,0,0,65,100,0.0,0,0.0,589232.0,2.69E-43,0.0,-5.9807744E7,62,2.5940128E-5,-2.594025E-5,9.4E-44,False,False,0,None,0.0,1.0842022E-19,
109022846,28.335,0.0,0.0,0,6.106401,5.8793426,0.062116567,0.0047199307,-0.9950393,0.9969874,0.091425344,0.07236013,0.1157058,0.16426325,-316,371,1833,1896.0,-0.0062978975,-0.0035772892,0.02691954,0.027876912,0.0072429629959886565,-0.0072429629959886565,-0.2872375792701129,3.529277714615955,-122.7481333744791,237.2518666255209,0.2855556100206421,0.6910066556707323,-0.5984102129004146,-118.06247101122784,,0.0,,,60.39,,,0.0,0.0,20151018,25,2015-10-18T00:00:25Z,-17.0,99.99,99.99,3.75E7,0,0,0,0.0,0.0,0.0,0,0,0,0,0,0,,,,0,0,0,10,0,0,0,0,0,0,19,1,0,0,false,false,false,false,false,false,false,false,false,false,0,0,0,0,53,70,70,54,945,944,944,945,940,940,940,940,0.0,0.0,0.0,0.0,1689.5,1685.2,1684.0,1689.5,0.0,0.0,0.0,0.0,0,0,0,0,-45.0,-4.681911200972195E-11,1.0014347111723818E-10,0,6.090547,6.2975717,0.06197803,0.005221881,-0.9942065,0.99615014,1.0342E-4,-0.03350207,-0.05710934,0.06621084,-316,368,1837,1899.0,0.002252349,-0.0010477117,-3.0948507E-4,0.0025033092,0.0024841044911360576,-0.0024674494672242554,-0.2920844264860822,3.5550380149483494,-118.40986604650996,241.59013395349004,0.2816559036140414,0.643007801558915,-0.5426131595190884,-118.11309721470198,,9.975475206661817E-4,,,60.32,NONE,0.0,0.0,0.0,NONE,-2.2174625747230964E-11,2.7592789112464106E-11,-3.8146973E-6,17.004,17.004,6.069,1.264556,0,3317,4.245,12.0,1.28,91,29.9,OK,26,0,0,0,0,0,65,100,0.0,0,0.0,589232.0,2.69E-43,0.0,-5.9807744E7,62,2.5940128E-5,-2.594025E-5,9.4E-44,False,False,0,None,0.0,1.0842022E-19,
112898971,29.342,0.0,0.0,0,5.8395267,5.7865143,0.061796125,0.0049492745,-0.99593085,0.99785846,-0.038738966,0.006414418,-0.018081205,0.043229412,-316,368,1833,1896.0,-0.007830949,-0.0052563916,0.04013513,0.041228414,0.00943151170646828,-0.00943151170646828,-0.28454677844883025,3.525412699938271,-122.75363881400853,237.24636118599147,0.29772364257696876,0.7291900716375755,-0.6502164106963247,-118.27121062222028,,0.0,,,60.69,,,0.0,0.0,20151018,27,2015-10-18T00:00:27Z,-17.0,99.99,99.99,3.75E7,0,0,0,0.0,0.0,0.0,0,0,0,0,0,0,,,,0,48,0,11,0,0,3786,3787,0,15145,23,212,1820,0,false,false,false,false,false,false,false,false,false,false,0,0,0,0,53,71,70,54,944,944,944,945,940,940,940,940,0.0,0.0,0.0,0.0,1687.6,1684.6,1685.2,1688.2,0.0,0.0,0.0,0.0,0,0,0,0,-45.0,2.522487129269399E-11,-7.91656048168854E-11,0,5.8395267,6.2976656,0.061796125,0.0049492745,-0.99593085,0.99785846,-0.038738966,0.006414418,-0.018081205,0.043229412,-316,368,1833,1896.0,-0.0017673088,5.730753E-4,0.0020094602,0.0027367363,0.001857900883240122,-0.0018365710403833383,-0.31436544958473933,3.564133810260721,-118.49725417583909,241.5027458241609,0.30520435530068885,0.6973280580168222,-0.594935133392161,-118.06525427282197,,0.0010407616274640068,,,60.69,NONE,0.0,0.0,0.0,NONE,1.9103207330574066E-11,-7.907854399811466E-11,1.04904175E-5,17.004,17.004,6.071,1.2672126,0,3317,4.245,12.0,1.283,91,29.9,OK,27,0,0,0,0,0,65,100,0.0,0,0.0,589232.0,2.69E-43,0.0,-5.9807744E7,62,2.5940128E-5,-2.594025E-5,9.4E-44,False,False,0,None,0.0,1.0842022E-19,
116834854,30.365,0.0,0.0,0,5.6492796,5.631495,0.06287324,0.0048007546,-0.9956687,0.99766344,0.0025830423,-0.22129896,0.07284412,0.23299393,-312,368,1833,1895.0,-0.00735943,-0.0045350264,0.044009153,0.04485012,0.008644517280954743,-0.008644517280954743,-0.25499369931574195,3.526571676480565,-122.76031163048471,237.2396883695153,0.28420489148730865,0.7564791792725137,-0.695672762214655,-117.85206712645501,,0.0,,,61.03,,,0.0,0.0,20151018,28,2015-10-18T00:00:28Z,-17.0,99.99,99.99,3.75E7,0,0,0,0.0,0.0,0.0,0,0,0,0,0,0,,,,1,114,27,12,981,3712,3786,3786,0,15145,23,3850,9,0,false,false,false,false,false,false,false,false,false,false,0,0,0,0,53,71,70,54,944,944,944,945,940,940,940,940,0.0,0.0,0.0,0.0,1687.6,1684.6,1685.2,1688.2,0.0,0.0,0.0,0.0,0,0,0,0,-45.0,-2.3405176815507007E-11,7.753432559612376E-11,0,5.6492796,6.2986736,0.06287324,0.0048007546,-0.9956687,0.99766344,0.0025830423,-0.22129896,0.07284412,0.23299393,-312,368,1833,1895.0,0.0017215938,-5.5636483E-4,-0.0022747407,0.0029065225,0.0018092614391720097,-0.0017914261766828088,-0.28331629231719707,3.5783694576177383,-118.4029235172912,241.59707648270881,0.29168596019199555,0.7246158011476218,-0.6403924710929342,-117.59766994853116,,0.0011251299066193819,,,61.03,NONE,0.0,0.0,0.0,NONE,1.7159870317482325E-11,5.771060339971682E-11,1.1444092E-5,17.003,17.003,6.071,1.2701446,0,3316,4.245,12.0,1.284,91,29.9,OK,28,0,0,0,0,0,65,100,0.0,0,0.0,589232.0,2.69E-43,0.0,-1.05007105E-23,62,2.5940128E-5,-2.594025E-5,9.4E-44,False,False,0,None,0.0,1.0842022E-19,
120684515,31.365,0.0,0.0,0,5.4246826,5.5733023,0.06200252,0.004668026,-0.9966418,0.9985795,0.114719994,0.087594226,-0.032086242,0.14786126,-320,371,1829,1893.0,-0.0043149004,-0.007255496,0.022602402,0.024127353,0.008441598819543476,-0.008441598819543476,-0.2427265771022508,3.5277554869514414,-122.76143251072338,237.23856748927662,0.3321723243226595,0.8314293265812344,-0.6934306958006166,-118.65253827940634,,0.0,,,61.37,,,0.0,0.0,20151018,29,2015-10-18T00:00:29Z,-17.0,99.99,99.99,3.75E7,0,0,0,0.0,0.0,0.0,0,0,0,0,0,0,,,,1,114,27,12,981,3712,3786,3786,0,15145,23,3850,9,0,false,false,false,false,false,false,false,false,false,false,0,0,0,0,54,70,71,55,945,945,944,946,940,940,940,940,0.0,0.0,0.0,0.0,1689.5,1684.0,1684.0,1689.5,0.0,0.0,0.0,0.0,0,0,0,0,-45.0,-2.3178766400764457E-11,-1.3528937446278579E-11,0,5.4246826,6.298164,0.06200252,0.004668026,-0.9966418,0.9985795,0.114719994,0.087594226,-0.032086242,0.14786126,-320,371,1829,1893.0,-2.8492924E-4,-5.266151E-4,0.0027637277,0.0028278434,5.987554975420453E-4,-5.886348514300405E-4,-0.289421473618503,3.5820358431828523,-118.37850975804756,241.62149024195244,0.3396538652239978,0.7995646654411387,-0.6381511419526346,-118.3568417918012,,0.0011863760471264562,,,61.37,NONE,0.0,0.0,0.0,NONE,-5.7146309419120377E-11,-1.2641923657017442E-10,1.5258789E-5,17.002,17.002,6.069,1.2729973,0,3316,4.245,12.0,1.278,91,29.9,OK,29,0,0,0,0,0,65,100,0.0,0,0.0,589232.0,2.69E-43,0.0,-1.05007105E-23,62,2.5940128E-5,-2.594025E-5,9.4E-44,False,False,0,None,0.0,1.0842022E-19,
124692098,32.407,0.0,0.0,0,5.4748864,5.4995437,0.06285821,0.0035365587,-0.99430364,0.9962948,0.17245454,-0.03640897,0.006687762,0.17638284,-316,368,1837,1899.0,9.429185E-4,-0.01311808,0.029063843,0.0319011,0.01315192441035305,-0.01315192441035305,-0.2285140688912605,3.5305098287051964,-122.76834526703034,237.23165473296967,0.3753611961771513,0.932669559076533,-0.690624488714977,-118.33290152223722,,0.0,,,61.56,,,0.0,0.0,20151018,30,2015-10-18T00:00:30Z,-17.0,99.99,99.99,3.75E7,0,0,0,0.0,0.0,0.0,0,0,0,0,0,0,,,,18,16,27,14,981,3712,3746,3762,-1222,14962,23,0,14475,0,false,false,false,false,false,false,false,false,false,false,0,0,0,0,54,71,71,53,945,944,944,946,940,940,940,940,0.0,0.0,0.0,0.0,1688.9,1685.8,1685.2,1688.2,0.0,0.0,0.0,0.0,0,0,0,0,-45.0,-1.7108968413420526E-11,-1.7157517319958392E-11,0,5.4748864,6.298836,0.06285821,0.0035365587,-0.99430364,0.9962948,0.17245454,-0.03640897,0.006687762,0.17638284,-316,368,1837,1899.0,-4.2000288E-4,-3.8304893E-4,8.4138344E-5,5.7463744E-4,5.684442942142115E-4,-5.676893273216161E-4,-0.2879226675088471,3.589103645639753,-118.33947617252797,241.66052382747205,0.3828420568804268,0.9008040695326587,-0.6353491084681542,-117.99111514123419,,0.001248906721020035,,,61.56,NONE,0.0,0.0,0.0,NONE,-1.5959167965119546E-10,1.8038635547268205E-10,-1.2397766E-5,17.001,17.001,6.068,1.275269,0,3315,4.244,12.0,1.274,91,29.9,OK,30,0,0,0,0,0,65,100,0.0,0,0.0,589232.0,2.69E-43,0.0,-1.05007105E-23,62,2.5940128E-5,-2.594025E-5,9.4E-44,False,False,0,None,0.0,1.0842022E-19,
128549065,33.409,0.0,0.0,0,5.4484634,5.347808,0.06335247,0.0034380155,-0.9951883,0.99720865,-0.028237697,0.047251884,0.03428685,0.064851336,-316,371,1833,1896.0,0.0050962544,-0.017987262,0.041470293,0.045489546,0.01869527827240616,-0.01869527827240616,-0.23009213898696237,3.5307349461241255,-122.77673835627336,237.22326164372663,0.3656134332377999,0.9750858367709051,-0.7423488659213909,-118.16889967020386,,0.0,,,61.89,,,0.0,0.0,20151018,30,2015-10-18T00:00:30Z,-17.0,99.99,99.99,3.75E7,0,0,0,0.0,0.0,0.0,0,0,0,0,0,0,,,,18,16,27,14,981,3712,3746,3762,-1222,14962,23,0,14475,0,false,false,false,false,false,false,false,false,false,false,0,0,0,0,55,71,71,54,945,946,944,945,940,940,940,940,0.0,0.0,0.0,0.0,1689.5,1684.0,1684.0,1688.2,0.0,0.0,0.0,0.0,0,0,0,0,-45.0,5.7871652822807335E-11,-1.0368342147180052E-10,0,5.4484634,6.299999,0.06335247,0.0034380155,-0.9951883,0.99720865,-0.028237697,0.047251884,0.03428685,0.064851336,-316,371,1833,1896.0,-0.0023646958,0.0012793262,-0.0044187135,0.0051723775,0.0026885798346190297,-0.002675879295790395,-0.2994138647148197,3.588631830167349,-118.31076377383604,241.68923622616396,0.3860326013807003,0.9263034577924852,-0.6896838266585543,-117.81383947494837,,0.001336251415973345,,,61.89,NONE,0.0,0.0,0.0,NONE,1.1326900058648653E-10,-1.80361649006329E-10,-4.339218E-5,17.001,17.001,6.069,1.2769253,0,3315,4.244,12.0,1.285,91,29.9,OK,31,0,0,0,0,0,65,100,0.0,0,0.0,589232.0,2.69E-43,0.0,-1.05007105E-23,62,2.5940128E-5,-2.594025E-5,9.4E-44,False,False,0,None,0.0,1.0842022E-19,
132446779,34.422,0.0,0.0,0,5.5541563,5.439646,0.062345054,0.0039391285,-0.9965548,0.99851084,0.05565545,-0.13811155,-0.17013921,0.22609662,-312,368,1837,1899.0,0.007842265,-0.018825635,-0.03430289,0.039907318,0.020393765463915973,-0.020393765463915973,-0.21549153317502262,3.5246056128826577,-122.78011116377981,237.2198888362202,0.3940317783431407,1.0360874461230127,-0.770723680130908,-117.90709318188773,,0.0,,,62.21,,,0.0,0.0,20151018,31,2015-10-18T00:00:31Z,-17.0,99.99,99.99,3.75E7,0,0,0,0.0,0.0,0.0,0,0,0,0,0,0,,,,41,17,27,16,972,3712,3778,3779,0,15114,23,0,15114,0,false,false,false,false,false,false,false,false,false,false,0,0,0,0,54,70,71,55,945,945,944,945,940,940,940,940,0.0,0.0,0.0,0.0,1688.2,1684.0,1685.2,1689.5,0.0,0.0,0.0,0.0,0,0,0,0,-45.0,-1.7181079948941558E-11,1.1134111327860158E-11,0,5.3691936,6.2997346,0.06254464,0.004205807,-0.9949716,0.9969443,-0.030111035,0.04513306,0.024152722,0.05938873,-316,371,1829,1892.0,2.2884316E-4,-3.9199082E-4,3.5213097E-4,5.7447556E-4,4.5390085633484817E-4,-4.388438160806026E-4,-0.28495173844896654,3.574014841891778,-118.3244556307639,241.6755443692361,0.4108603728391991,0.950064238297841,-0.7276686228923211,-117.92797874505133,,0.001396580372063144,,,62.13,NONE,0.0,0.0,0.0,NONE,-6.521309554932868E-11,-1.5248349388815496E-10,-1.335144E-5,17.0,17.0,6.068,1.2784554,0,3315,4.244,12.0,1.287,91,29.9,OK,32,0,0,0,0,0,65,100,0.0,0,0.0,589232.0,2.69E-43,0.0,-1.05007105E-23,62,2.5940128E-5,-2.594025E-5,9.4E-44,False,False,0,None,0.0,1.0842022E-19,
136353300,35.438,0.0,0.0,0,5.678345,5.475017,0.062831715,0.004247913,-0.9971908,0.9991773,0.21709612,-0.110694125,0.018774442,0.24441029,-316,371,1833,1896.0,0.0064291125,-0.017839627,-0.03579615,0.040508643,0.018962747684407186,-0.018962747684407186,-0.20788350190353597,3.510880655428197,-122.79360553522312,237.20639446477688,0.4091085117957328,1.0822920433906795,-0.8407485003758511,-118.28801534352702,,0.0,,,62.5,,,0.0,0.0,20151018,32,2015-10-18T00:00:32Z,-17.0,99.99,99.99,3.75E7,0,0,0,0.0,0.0,0.0,0,0,0,0,0,0,,,,44,48,27,17,972,3712,3779,3780,0,15119,23,212,3,0,false,false,false,false,false,false,false,false,false,false,0,0,0,0,55,72,70,55,945,945,944,946,940,940,940,940,0.0,0.0,0.0,0.0,1689.5,1684.0,1685.2,1688.9,0.0,0.0,0.0,0.0,0,0,0,0,-45.0,4.468311533534395E-11,-2.6606622714118523E-11,0,5.678345,6.300227,0.062831715,0.004247913,-0.9971908,0.9991773,0.21709612,-0.110694125,0.018774442,0.24441029,-316,371,1833,1896.0,-6.0592557E-4,9.7909E-4,-0.0011979869,0.0016616064,0.0011514177883996356,-0.0011434810983455281,-0.27762261491341916,3.561694450333813,-118.28048224280303,241.71951775719697,0.43169579409599157,1.0063874634961498,-0.7930591106763979,-117.9584029116221,,0.0014372314639646757,,,62.5,NONE,0.0,0.0,0.0,NONE,-3.740452535711238E-11,9.611096037724955E-11,-5.722046E-6,17.0,17.0,6.069,1.2800828,0,3314,4.243,12.0,1.287,91,30.0,OK,33,0,0,0,0,0,65,100,0.0,0,0.0,589232.0,2.69E-43,0.0,-1.05007105E-23,62,2.5940128E-5,-2.594025E-5,9.4E-44,False,False,0,None,0.0,1.0842022E-19,
140345390,36.475,0.0,0.0,0,5.5541563,5.480586,0.06237028,0.0040836055,-0.9976862,0.9996422,0.026454836,-0.076747045,-0.0022662086,0.08121024,-316,368,1837,1899.0,0.0030331723,-0.023392,-0.024942445,0.03432945,0.023587831288094323,-0.023587831288094323,-0.19462713712293137,3.4841970762951227,-122.8037031937756,237.19629680622438,0.3593766726266638,1.1312361686806616,-0.8919940327652789,-118.57768167337225,,0.0,,,62.88,,,0.0,0.0,20151018,33,2015-10-18T00:00:33Z,-17.0,99.99,99.99,3.75E7,0,0,0,0.0,0.0,0.0,0,0,0,0,0,0,,,,44,16,27,18,972,3712,3779,3780,0,15119,23,2,3,0,false,false,false,false,false,false,false,false,false,false,0,0,0,0,55,72,70,55,945,945,944,946,940,940,940,940,0.0,0.0,0.0,0.0,1689.5,1684.0,1685.2,1688.9,0.0,0.0,0.0,0.0,0,0,0,0,-45.0,-1.35690690800892E-11,1.2259104424145868E-12,0,5.5541563,6.300373,0.06237028,0.0040836055,-0.9976862,0.9996422,0.026454836,-0.076747045,-0.0022662086,0.08121024,-316,368,1837,1899.0,1.0725269E-5,-2.9136505E-4,3.609844E-4,4.640241E-4,2.9156238159886577E-4,-2.8464330748643644E-4,-0.2688902281798935,3.5510710582972913,-118.191233092077,241.808766907923,0.38196384854247667,1.0553287126161062,-0.8443036751047859,-118.17408627002236,,0.001482959412916729,,,62.88,NONE,0.0,0.0,0.0,NONE,-6.022588159518255E-11,-3.523453282230567E-11,-1.5735626E-5,16.999,16.999,6.067,1.2817022,0,3314,4.243,12.0,1.288,91,29.9,OK,34,0,0,0,0,0,65,100,0.0,0,0.0,589232.0,2.69E-43,0.0,-1.05007105E-23,62,2.5940128E-5,-2.594025E-5,9.4E-44,False,False,0,None,0.0,1.0842022E-19,
144277576,37.497,0.0,0.0,0,5.678345,5.528291,0.06282497,0.0037517585,-0.996447,0.99843264,0.034590483,-0.07042902,0.0038934345,0.078561485,-316,368,1829,1892.0,0.0018136271,-0.028737823,-0.03522493,0.045496672,0.028794994619759276,-0.028794994619759276,-0.1731897626676217,3.4780861883623495,-122.79341674376678,237.20658325623322,0.3868891426452532,1.214771663849732,-0.9422942902462034,-118.70311601315986,,0.0,,,63.13,,,0.0,0.0,20151018,35,2015-10-18T00:00:35Z,-17.0,99.99,99.99,3.75E7,0,0,0,0.0,0.0,0.0,0,0,0,0,0,0,,,,46,48,27,19,972,3712,3780,3781,-4,15154,23,212,15137,0,false,false,false,false,false,false,false,false,false,false,0,0,0,0,55,72,70,55,945,945,944,946,940,940,940,940,0.0,0.0,0.0,0.0,1689.5,1684.0,1685.2,1688.9,0.0,0.0,0.0,0.0,0,0,0,0,-45.0,-3.861977378544668E-11,-2.1294148044459994E-11,0,5.678345,6.3010707,0.06282497,0.0037517585,-0.996447,0.99843264,0.034590483,-0.07042902,0.0038934345,0.078561485,-316,368,1829,1892.0,-4.6878238E-4,-8.7085046E-4,3.9321106E-4,0.0010643083,9.890083165207395E-4,-9.85343173739117E-4,-0.24910914444524346,3.5526026646676305,-118.22535178673364,241.77464821326635,0.4094775323784425,1.1388664471737706,-0.8946024383009679,-118.26829443791779,,0.0015397109983055046,,,63.13,NONE,0.0,0.0,0.0,NONE,-7.16430794636998E-11,4.5540912758278304E-12,-1.335144E-5,16.998,16.998,6.066,1.2831261,0,3314,4.243,12.0,1.283,91,30.0,OK,35,0,0,0,0,0,65,100,0.0,0,0.0,589232.0,2.69E-43,0.0,-1.05007105E-23,62,2.5940128E-5,-2.594025E-5,9.4E-44,False,False,0,None,0.0,1.0842022E-19,
148133672,38.499,0.0,0.0,0,5.612287,5.555382,0.06311248,0.0037419442,-0.9951871,0.99719334,0.22552434,-0.0777872,-0.115463786,0.26503575,-312,368,1825,1887.0,0.0037286193,-0.036191203,-0.034147575,0.04989752,0.03638276591358393,-0.03638276591358393,-0.14900066147842594,3.468347572629069,-122.80386322327766,237.19613677672234,0.3850379403143942,1.3339879497256517,-0.9900037750770939,-118.34492762630366,,0.0,,,63.47,,,0.0,0.0,20151018,36,2015-10-18T00:00:36Z,-17.0,99.99,99.99,3.75E7,0,0,0,0.0,0.0,0.0,0,0,0,0,0,0,,,,47,17,27,20,972,3712,3780,3781,0,15139,23,2,15140,0,false,false,false,false,false,false,false,false,false,false,0,0,0,0,54,71,71,54,944,945,944,945,940,940,940,940,0.0,0.0,0.0,0.0,1689.5,1684.6,1684.6,1688.2,0.0,0.0,0.0,0.0,0,0,0,0,-45.0,-6.761409825790916E-11,-1.8902393893877583E-13,0,5.612287,6.3016815,0.06311248,0.0037419442,-0.9951871,0.99719334,0.22552434,-0.0777872,-0.115463786,0.26503575,-312,368,1825,1887.0,-2.876555E-5,-0.0015214278,-0.0021213004,0.0026106485,0.0015216996657471764,-0.0015177206540062998,-0.23280062804240007,3.5493670449893258,-118.21884990148668,241.7811500985133,0.39923320056169764,1.2513338113567036,-0.9530847590764864,-117.86917205061023,,0.0015896216312682213,,,63.47,NONE,0.0,0.0,0.0,NONE,-7.263133740001878E-11,-1.191164547982605E-11,-1.04904175E-5,16.999,16.999,6.067,1.2843505,0,3313,4.244,12.0,1.294,91,30.0,OK,36,0,0,0,0,0,65,100,0.0,0,0.0,589232.0,2.69E-43,0.0,-1.05007105E-23,62,2.5940128E-5,-2.594025E-5,9.4E-44,False,False,0,None,0.0,1.0842022E-19,
152030810,39.512,0.0,0.0,0,5.480171,5.5258994,0.06434468,0.0040491773,-0.9981809,1.0002608,0.0910353,-0.03107628,-0.0827441,0.12688477,-316,368,1829,1892.0,0.0060281707,-0.042408317,-0.012923638,0.044741753,0.04283461441621019,-0.04283461441621019,-0.13284076367915437,3.471150458113463,-122.83004455591497,237.16995544408502,0.3908682309891807,1.4541698452723484,-1.0738218422281045,-118.81102098396525,,0.0,,,63.71,,,0.0,0.0,20151018,37,2015-10-18T00:00:37Z,-17.0,99.99,99.99,3.75E7,0,0,0,0.0,0.0,0.0,0,0,0,0,0,0,,,,57,22,27,21,972,3712,3782,3783,0,15130,23,5,0,0,false,false,false,false,false,false,false,false,false,false,0,0,0,0,55,71,71,55,945,945,944,946,940,940,940,940,0.0,0.0,0.0,0.0,1688.9,1684.0,1684.0,1688.2,0.0,0.0,0.0,0.0,0,0,0,0,-45.0,2.8898962812572542E-11,-1.1013324242596243E-13,0,5.7285495,6.302001,0.062510796,0.003839925,-0.997801,0.99976456,0.07111094,-0.11796566,-0.15284207,0.20575073,-316,368,1833,1896.0,8.144775E-6,6.717398E-4,-0.0016647762,0.0017952105,6.717891834699766E-4,-6.611935573174819E-4,-0.23495027316911038,3.5756763651907937,-118.28256337382352,241.7174366261765,0.41681661666401437,1.3634233410145564,-1.0294671582964046,-118.17783629162152,,0.001646793252533849,,,63.68,NONE,0.0,0.0,0.0,NONE,-3.440693215225152E-11,-1.2769344869860695E-11,-3.0040741E-5,16.998,16.998,6.068,1.285429,0,3313,4.243,12.0,1.281,91,30.0,OK,37,0,0,0,0,0,65,100,0.0,0,0.0,589232.0,2.69E-43,0.0,-1.05007105E-23,62,2.5940128E-5,-2.594025E-5,9.4E-44,False,False,0,None,0.0,1.0842022E-19,
155906965,40.520,0.0,0.0,0,5.7285495,5.579223,0.06292139,0.0032331785,-0.9991861,1.0011705,0.131397,0.03190283,0.07504316,0.15464292,-320,368,1833,1896.0,0.008849291,-0.045644112,-0.038072735,0.060093492,0.04649403105147778,-0.04649403105147778,-0.12236303979600656,3.482161230125889,-122.84545785021318,237.15454214978683,0.36320978099705725,1.5910265399789674,-1.157940723121751,-119.23159958160865,,0.0,,,64.03,,,0.0,0.0,20151018,38,2015-10-18T00:00:38Z,-17.0,99.99,99.99,3.75E7,0,0,0,0.0,0.0,0.0,0,0,0,0,0,0,,,,0,0,0,22,0,0,0,0,0,0,19,3,0,0,false,false,false,false,false,false,false,false,false,false,0,0,0,0,55,71,70,55,945,944,944,946,940,940,940,940,0.0,0.0,0.0,0.0,1688.9,1683.4,1684.0,1687.6,0.0,0.0,0.0,0.0,0,0,0,0,-45.0,1.3463053576030888E-12,-3.353567036122067E-11,0,5.7285495,6.3018007,0.06292139,0.0032331785,-0.9991861,1.0011705,0.131397,0.03190283,0.07504316,0.15464292,-320,368,1833,1896.0,-7.47399E-4,3.1389474E-5,0.0012134719,0.001425519,7.480578875919653E-4,-7.432765485270583E-4,-0.23067861038614942,3.584479189178064,-118.35759153222747,241.64240846777253,0.37740305010075975,1.5083721402425898,-1.1210235068668688,-118.62423081443673,,0.0017381012646619824,,,64.03,NONE,0.0,0.0,0.0,NONE,1.0007745646608512E-12,-5.594664137839931E-11,1.335144E-5,16.997,16.997,6.065,1.2863872,0,3313,4.243,12.0,1.299,91,30.0,OK,38,0,0,0,0,0,65,100,0.0,0,0.0,589232.0,2.69E-43,0.0,-5.9807744E7,62,2.5940128E-5,-2.594025E-5,9.4E-44,False,False,0,None,0.0,1.0842022E-19,
159814316,41.535,0.0,0.0,0,5.8527384,5.616244,0.06282586,0.0037631253,-0.99833184,1.0003139,0.096042156,-0.08342013,-0.021737937,0.1290564,-323,368,1833,1897.0,0.011839548,-0.046526875,-0.03556315,0.059746653,0.048009635674952665,-0.048009635674952665,-0.11523416481826503,3.4733293293388483,-122.86912223587235,237.13087776412766,0.3503736593816021,1.6805314401606135,-1.2557716100604372,-119.62965257549838,,0.0,,,64.32,,,0.0,0.0,20151018,39,2015-10-18T00:00:39Z,-17.0,99.99,99.99,3.75E7,0,0,0,0.0,0.0,0.0,0,0,0,0,0,0,,,,0,0,0,23,0,0,0,0,0,0,19,255,0,0,false,false,false,false,false,false,false,false,false,false,0,0,0,0,55,72,71,54,945,944,944,946,940,940,940,940,0.0,0.0,0.0,0.0,1688.2,1683.4,1683.4,1688.2,0.0,0.0,0.0,0.0,0,0,0,0,-45.0,-7.040762631379561E-11,-1.879376395270027E-11,0,5.8527384,6.302077,0.06282586,0.0037631253,-0.99833184,1.0003139,0.096042156,-0.08342013,-0.021737937,0.1290564,-323,368,1833,1897.0,-4.1674805E-4,-0.0015699124,0.0020876895,0.0026451373,0.0016242856399923988,-0.001616264666489019,-0.24253345406462845,3.5746797599306035,-118.34129130803821,241.6587086919618,0.36456666366980156,1.5978764334040778,-1.2188526719602155,-118.98813780171903,,0.00180355135451905,,,64.32,NONE,0.0,0.0,0.0,NONE,-7.454366879175644E-11,2.098789919311046E-11,2.861023E-6,16.997,16.997,6.069,1.2873924,0,3312,4.243,12.0,1.286,91,30.0,OK,39,0,0,0,0,0,65,100,0.0,0,0.0,589232.0,2.69E-43,0.0,-5.9807744E7,62,2.5940128E-5,-2.594025E-5,9.4E-44,False,False,0,None,0.0,1.0842022E-19,
163702054,42.545,0.0,0.0,0,5.691557,5.6692233,0.063233376,0.0026523666,-0.998375,1.000379,0.055225663,0.032470137,-0.02487493,0.068723686,-331,368,1833,1898.0,0.013789894,-0.04829551,-0.026006225,0.056559183,0.05022566421338623,-0.05022566421338623,-0.12036462126905126,3.4770620884001144,-122.89554329404312,237.10445670595686,0.28212136750661126,1.8125098031385178,-1.2873270087337625,-120.52653068669744,,0.0,,,64.46,,,0.0,0.0,20151018,40,2015-10-18T00:00:40Z,-17.0,99.99,99.99,3.75E7,0,0,0,0.0,0.0,0.0,0,0,0,0,0,0,,,,0,16,24,24,853,3703,3772,3776,0,15095,24,1,17553,0,false,false,false,false,false,false,false,false,false,false,0,0,0,0,54,72,72,54,945,945,944,946,940,940,940,940,0.0,0.0,0.0,0.0,1688.2,1685.2,1685.2,1687.0,0.0,0.0,0.0,0.0,0,0,0,0,-45.0,-3.071390635718617E-11,-5.320461776167841E-11,0,5.691557,6.302372,0.063233376,0.0026523666,-0.998375,1.000379,0.055225663,0.032470137,-0.02487493,0.068723686,-331,368,1833,1898.0,-0.0012358817,-6.7701517E-4,0.002207369,0.0026188225,0.0014091675610780159,-0.001403386334552575,-0.25283566933404283,3.5827626272666513,-118.36170521379314,241.63829478620687,0.29631713147401756,1.729856428801782,-1.2504080332095684,-119.86020041253548,,0.001861441094248295,,,64.46,NONE,0.0,0.0,0.0,NONE,-4.348217277047517E-11,-1.1332782542003063E-10,2.6226044E-5,16.997,16.997,6.068,1.287905,0,3312,4.243,12.0,1.272,91,30.0,OK,40,0,0,0,0,0,65,100,0.0,0,0.0,589232.0,2.69E-43,0.0,-5.9807744E7,62,2.5940128E-5,-2.594025E-5,9.4E-44,False,False,0,None,0.0,1.0842022E-19,
167551620,43.546,0.0,0.0,0,5.8315997,5.681019,0.06324884,0.0035725115,-0.99621826,0.99823046,0.10942358,-0.16259144,0.03711296,0.19946645,-327,368,1829,1894.0,0.01667827,-0.051694736,-0.015827723,0.05657762,0.05431859942003196,-0.05431859942003196,-0.1238587128841974,3.4847359212148183,-122.91044982489295,237.08955017510704,0.24552277861506128,1.9275741670949775,-1.3764188024449544,-120.06066628620754,,0.0,,,64.54,,,0.0,0.0,20151018,41,2015-10-18T00:00:41Z,-17.0,99.99,99.99,3.75E7,0,0,0,0.0,0.0,0.0,0,0,0,0,0,0,,,,1,114,24,25,853,3703,3772,3775,0,15095,24,3850,17544,0,false,false,false,false,false,false,false,false,false,false,0,0,0,0,55,71,71,55,944,945,944,945,940,940,940,940,0.0,0.0,0.0,0.0,1689.5,1685.2,1684.6,1688.2,0.0,0.0,0.0,0.0,0,0,0,0,-45.0,-3.3506127195770564E-11,1.5977228827886923E-11,0,5.8315997,6.3027277,0.06324884,0.0035725115,-0.99621826,0.99823046,0.10942358,-0.16259144,0.03711296,0.19946645,-327,368,1829,1894.0,3.2328672E-4,-7.4716884E-4,6.5171026E-4,0.0010428336,8.14110288862766E-4,-8.064150873638757E-4,-0.27370798686925263,3.5939423702274693,-118.44818184975202,241.55181815024798,0.2597178885145866,1.844919447866726,-1.3394994286651023,-119.34679785422733,,0.0019059290064543666,,,64.54,NONE,0.0,0.0,0.0,NONE,-9.18206659610433E-11,4.2136913187534806E-11,1.2397766E-5,16.997,16.997,6.067,1.287905,0,3312,4.243,12.0,1.272,91,30.0,OK,40,0,0,0,0,0,65,100,0.0,0,0.0,589232.0,2.69E-43,0.0,-5.9807744E7,62,2.5940128E-5,-2.594025E-5,9.4E-44,False,False,0,None,0.0,1.0842022E-19,
171540135,44.583,0.0,0.0,0,5.876519,5.698932,0.062291633,0.0039035585,-0.9970835,0.999035,0.07138658,-0.10581457,0.0025128892,0.12766786,-327,368,1829,1894.0,0.018597575,-0.05049643,-0.016606817,0.056316476,0.05381225653088217,-0.05381225653088217,-0.13187248644016117,3.4887340043985815,-122.93285866241268,237.06714133758732,0.21661241068610257,2.019720567753692,-1.475828506460811,-120.02911371834061,,0.0,,,64.67,,,0.0,0.0,20151018,42,2015-10-18T00:00:42Z,-17.0,99.99,99.99,3.75E7,0,0,0,0.0,0.0,0.0,0,0,0,0,0,0,,,,2,18,24,26,854,3703,3842,3853,3574,15382,24,1,15476,0,false,false,false,false,false,false,false,false,false,false,0,0,0,0,56,72,72,56,945,945,944,945,940,940,940,940,0.0,0.0,0.0,0.0,1688.2,1684.0,1684.0,1687.6,0.0,0.0,0.0,0.0,0,0,0,0,-45.0,2.404787126474663E-11,-2.1020089471582493E-12,0,5.876519,6.3028245,0.062291633,0.0039035585,-0.9970835,0.999035,0.07138658,-0.10581457,0.0025128892,0.12766786,-327,368,1829,1894.0,-3.7613132E-5,5.5303203E-4,3.7923784E-4,6.7162525E-4,5.543096345862722E-4,-5.47838429518769E-4,-0.2682486708383469,3.5964149270412142,-118.51938198965398,241.480618010346,0.23080648075973254,1.9370656778383575,-1.4389069871077516,-119.34865415209828,,0.00195473183752008,,,64.67,NONE,0.0,0.0,0.0,NONE,1.7481315578002073E-11,1.6842215967140912E-12,1.9073486E-6,16.995,16.995,6.068,1.2872775,0,3312,4.243,12.0,1.274,91,30.0,OK,41,0,0,0,0,0,65,100,0.0,0,0.0,589232.0,2.69E-43,0.0,-5.9807744E7,62,2.5940128E-5,-2.594025E-5,9.4E-44,False,False,0,None,0.0,1.0842022E-19,
175387881,45.583,0.0,0.0,0,5.9478617,5.7618666,0.063010424,0.003833565,-0.996808,0.99880487,0.074787,0.059772253,-0.042043075,0.10456308,-323,368,1837,1901.0,0.017871322,-0.04899649,-0.027206859,0.058823917,0.05215400530348588,-0.05215400530348588,-0.14276492470341018,3.487852391125223,-122.94339020442116,237.05660979557882,0.2081874159677666,2.094399345560847,-1.5429665694182633,-119.48916373634194,,0.0,,,64.73,,,0.0,0.0,20151018,43,2015-10-18T00:00:43Z,-17.0,99.99,99.99,3.75E7,0,0,0,0.0,0.0,0.0,0,0,0,0,0,0,,,,1179,19,55,27,2029,3703,3976,3978,0,15907,28,1,15936,0,false,false,false,false,false,false,false,false,false,false,0,0,0,0,55,71,72,55,945,945,944,946,940,940,940,940,0.0,0.0,0.0,0.0,1688.9,1685.2,1684.0,1688.2,0.0,0.0,0.0,0.0,0,0,0,0,-45.0,4.768449127108659E-11,-2.449467888517456E-12,0,5.9478617,6.3035517,0.063010424,0.003833565,-0.996808,0.99880487,0.074787,0.059772253,-0.042043075,0.10456308,-323,368,1837,1901.0,-8.1130376E-5,0.0010938157,-8.219002E-4,0.0013705965,0.001096820308896461,-0.0010941917841358953,-0.2712431833386712,3.601133463838422,-118.48843637777512,241.51156362222488,0.2223813132707513,2.0117452597377223,-1.5060466869955507,-118.80024735863734,,0.001990968956115902,,,64.73,NONE,0.0,0.0,0.0,NONE,3.6475345551884735E-12,-1.787230492726116E-11,-5.722046E-6,16.994,16.994,6.068,1.2858082,0,3311,4.242,12.0,1.276,91,30.0,OK,42,0,0,0,0,0,65,100,0.0,0,0.0,589232.0,2.69E-43,0.0,-5.9807744E7,62,2.5940128E-5,-2.594025E-5,9.4E-44,False,False,0,None,0.0,1.0842022E-19,
179237276,46.583,0.0,0.0,0,5.892373,5.752283,0.062445004,0.0045360997,-0.9981343,1.000096,0.06432065,-0.09388224,0.10430356,0.1543705,-331,371,1841,1906.0,0.014091638,-0.04560551,-0.011065379,0.04899877,0.04773297504488654,-0.04773297504488654,-0.1514301101188759,3.4867909450980177,-122.94086980668946,237.05913019331052,0.14915701289420893,2.1881828879393868,-1.5730701422553528,-120.16836683309351,,0.0,,,64.76,,,0.0,0.0,20151018,44,2015-10-18T00:00:44Z,-17.0,99.99,99.99,3.75E7,0,0,0,0.0,0.0,0.0,0,0,0,0,0,0,,,,1179,19,55,27,2029,3703,3976,3978,0,15907,28,1,15936,0,false,false,false,false,false,false,false,false,false,false,0,0,0,0,56,72,71,56,945,946,944,946,940,940,940,940,0.0,0.0,0.0,0.0,1687.6,1684.0,1684.0,1688.2,0.0,0.0,0.0,0.0,0,0,0,0,-45.0,1.8193031230030872E-11,-5.2820556665285524E-11,0,5.892373,6.3034444,0.062445004,0.0045360997,-0.9981343,1.000096,0.06432065,-0.09388224,0.10430356,0.1543705,-331,371,1841,1906.0,-0.0011447174,4.1582747E-4,-5.200036E-4,0.0013242712,0.0012179041322430914,-0.0012114166033356248,-0.2675040974544649,3.5820152128027365,-118.52271772001899,241.477282279981,0.16335101301756916,2.105529677844959,-1.5361483664639766,-119.57767309767382,,0.0020419009131265515,,,64.76,NONE,0.0,0.0,0.0,NONE,4.370623018409722E-11,-7.391541908895282E-11,-2.861023E-6,16.993,16.993,6.066,1.2839775,0,3311,4.242,12.0,1.273,91,30.0,OK,43,0,0,0,0,0,65,100,0.0,0,0.0,589232.0,2.69E-43,0.0,-5.9807744E7,62,2.5940128E-5,-2.594025E-5,9.4E-44,False,False,0,None,0.0,1.0842022E-19,
