Tick#,offsetTime,IMU_ATTI(0):Longitude,IMU_ATTI(0):Latitude,IMU_ATTI(0):numSats,IMU_ATTI(0):barometer:Raw,IMU_ATTI(0):barometer:Smooth,IMU_ATTI(0):accel:X,IMU_ATTI(0):accel:Y,IMU_ATTI(0):accel:Z,IMU_ATTI(0):accel:Composite,IMU_ATTI(0):gyro:X,IMU_ATTI(0):gyro:Y,IMU_ATTI(0):gyro:Z,IMU_ATTI(0):gyro:Composite,IMU_ATTI(0):mag:X,IMU_ATTI(0):mag:Y,IMU_ATTI(0):mag:Z,IMU_ATTI(0):mag:Mod,IMU_ATTI(0):velN,IMU_ATTI(0):velE,IMU_ATTI(0):velD,IMU_ATTI(0):velComposite,IMU_ATTI(0):velH,IMU_ATTI(0):GPS-H,IMU_ATTI(0):roll,IMU_ATTI(0):pitch,IMU_ATTI(0):yaw,IMU_ATTI(0):yaw360,IMU_ATTI(0):totalGyro:Z,IMU_ATTI(0):totalGyro:X,IMU_ATTI(0):totalGyro:Y,IMU_ATTI(0):magYaw,IMU_ATTI(0):distanceHP,IMU_ATTI(0):distanceTravelled,IMU_ATTI(0):directionOfTravel[mag],IMU_ATTI(0):directionOfTravel[true],IMU_ATTI(0):temperature,General:relativeHeight,General:absoluteHeight,GPS(0):Long,GPS(0):Lat,GPS(0):Date,GPS(0):Time,GPS:dateTimeStamp,GPS(0):heightMSL,GPS(0):hDOP,GPS(0):pDOP,GPS(0):sAcc,GPS(0):numGPS,GPS(0):numGLNAS,GPS(0):numSV,GPS(0):velN,GPS(0):velE,GPS(0):velD,RC:Aileron,RC:Elevator,RC:Rudder,RC:Throttle,Controller:navHealth,Controller:ctrl_level,HP:Longitude,HP:Latitude,HP:rthHeight,BatBlackBox:tick,BatBlackBox:id,BatBlackBox:rsoc,BatBlackBox:index,BatBlackBox:rm,BatBlackBox:fcc,BatBlackBox:cell_min,BatBlackBox:cell_max,BatBlackBox:current,BatBlackBox:voltage,BatBlackBox:temp,BatBlackBox:flag,BatBlackBox:reserve,BatBlackBox:user_data,OA:avoidObst,OA:emergBrake,OA:radiusLimit,OA:airportLimit,OA:groundForceLanding,OA:horizNearBoundary,OA:vertLowLimit,OA:vertAirportLimit,OA:roofLimit,OA:hitGroundLimit,Motor:Speed:RFront,Motor:Speed:LFront,Motor:Speed:LBack,Motor:Speed:RBack,Motor:EscTemp:RFront,Motor:EscTemp:LFront,Motor:EscTemp:LBack,Motor:EscTemp:RBack,Motor:PPMrecv:RFront,Motor:PPMrecv:LFront,Motor:PPMrecv:LBack,Motor:PPMrecv:RBack,Motor:PPMsend:RFront,Motor:PPMsend:LFront,Motor:PPMsend:LBack,Motor:PPMsend:RBack,Motor:V_out:RFront,Motor:V_out:LFront,Motor:V_out:LBack,Motor:V_out:RBack,Motor:Volts:RFront,Motor:Volts:LFront,Motor:Volts:LBack,Motor:Volts:RBack,Motor:Current:RFront,Motor:Current:LFront,Motor:Current:LBack,Motor:Current:RBack,Motor:Status:RFront,Motor:Status:LFront,Motor:Status:LBack,Motor:Status:RBack,Motor:thrustAngle,IMU_ATTI(1):Longitude,IMU_ATTI(1):Latitude,IMU_ATTI(1):numSats,IMU_ATTI(1):barometer:Raw,IMU_ATTI(1):barometer:Smooth,IMU_ATTI(1):accel:X,IMU_ATTI(1):accel:Y,IMU_ATTI(1):accel:Z,IMU_ATTI(1):accel:Composite,IMU_ATTI(1):gyro:X,IMU_ATTI(1):gyro:Y,IMU_ATTI(1):gyro:Z,IMU_ATTI(1):gyro:Composite,IMU_ATTI(1):mag:X,IMU_ATTI(1):mag:Y,IMU_ATTI(1):mag:Z,IMU_ATTI(1):mag:Mod,IMU_ATTI(1):velN,IMU_ATTI(1):velE,IMU_ATTI(1):velD,IMU_ATTI(1):velComposite,IMU_ATTI(1):velH,IMU_ATTI(1):GPS-H,IMU_ATTI(1):roll,IMU_ATTI(1):pitch,IMU_ATTI(1):yaw,IMU_ATTI(1):yaw360,IMU_ATTI(1):totalGyro:Z,IMU_ATTI(1):totalGyro:X,IMU_ATTI(1):totalGyro:Y,IMU_ATTI(1):magYaw,IMU_ATTI(1):distanceHP,IMU_ATTI(1):distanceTravelled,IMU_ATTI(1):directionOfTravel[mag],IMU_ATTI(1):directionOfTravel[true],IMU_ATTI(1):temperature,IMUEX(0):err,IMUEX(0):rtk_Longitude,IMUEX(0):rtk_Latitude,IMUEX(0):rtk_Alti,IMUEX(1):err,IMUEX(1):rtk_Longitude,IMUEX(1):rtk_Latitude,IMUEX(1):rtk_Alti,BattInfo:Voltage,BattInfo:BatVoltage,BattInfo:AdVoltage,BattInfo:AvgCurrent,BattInfo:R_time,BattInfo:R_CAP_MAH,BattInfo:LowCellVoltage,BattInfo:LowCellVolThreshold,BattInfo:BatCurrent,BattInfo:Remaining%,BattInfo:Temp,BattInfo:status,battery_info:BatDynCnt,battery_info:Vol1Protect,battery_info:Vol2Protect,battery_info:Cap1Protect,battery_info:Cap2Protect,battery_info:Batpresent,battery_info:sopPercentage,battery_info:sopValue,battery_info:sopScale,battery_info:sopFlg,BattInfo:WindHeading:WindDir,battery_info:home_dir,BattInfo:Wind:rangeMin,BattInfo:Wind:rangeMax,battery_info:cap_speed,battery_info:against_wind,battery_info:emergency_land_cap,battery_info:intel_bat_land_cap,battery_info:intel_bat_gh_cap,BattInfo:Smart:SmartGh,BattInfo:Smart:SmartLand,BattInfo:GoHome:CntDown,BattInfo:GoHome:GhCmd,BattInfo:GoHome:CapLevel,BattInfo:GoHome:LandCapLv,Attribute|Value,ConvertDatV3,3.6.6-Tablet
7075409,1.839,,,,,,,,,,,,,,,,,,,,,,,,,,,,,,,,,,,,,,,,,,,,,,,,,,,,,,,,,,,,,,,,,,,,,,,,,,,,,,,,,,,,,,,,,,,,,,,,,,,,,,,,,,,,,,,,,,,,,,,,,,,,,,,,,,,,,,,,,,,,,,,,,,,,,,,,,,,,,,,,,,,,,,,,,,,,,,,OK,,,,,,,,,,,,,,,,,,,,,,,,,,Firmware Date| Oct 17 2018
240088374,62.398,,,,,,,,,,,,,,,,,,,,,,,,,,,,,,,,,,,,,,,4.2964377,47.2580925,20190521,191450,2019-05-21T19:14:50Z,11442.714,99.99,99.99,3.75E7,0,0,0,0.0,0.0,0.0,,,,,,,,,,,,,,,,,,,,,,,,,,,,,,,,,,,,,,,,,,,,,,,,,,,,,,,,,,,,,,,,,,,,,,,,,,,,,,,,,,,,,,,,,,,,,,,,,,,,,,,,,,,,,,,,,,,,,,,,,,OK,,,,,,,,,,,,,,,,,,,,,,,,,,ACType|MavicEnterprise
243962841,63.405,,,0,8.447496,8.746997,0.0025555461,0.027950235,-0.97745377,0.97785664,0.2634828,-0.066727996,0.08700299,0.2853863,599,-5,1405,1527.0,0.17759782,-0.010158521,0.0032539403,0.17791787,0.17788811207346278,-0.17788811207346278,-1.7214921236845315,-0.32368146614596516,-3.3937946564846158,356.6062053435154,0.047561218188521055,0.20332041567248943,0.06849049272398754,-3.602320622621149,,0.0,,,43.46,,,4.303807,47.2556433,20190521,191451,2019-05-21T19:14:51Z,11441.801,99.99,99.99,3.75E7,0,0,0,0.0,0.0,0.0,0,0,0,0,0,0,,,,2085841,19,100,225,3544,3544,4384,4394,182,17613,24,1,17614,0,false,false,false,false,false,false,false,false,false,false,0,0,0,0,47,59,58,46,944,945,944,944,940,940,940,940,0.0,0.0,0.0,0.0,1722.6,1715.9,1716.5,1721.4,0.0,0.0,0.0,0.0,0,0,0,0,-45.0,6.124060522593455E-12,1.4145994172987903E-10,0,8.479204,7.7247143,0.0022500001,0.027822953,-0.9766225,0.97702134,0.39906704,-0.09560765,0.04353444,0.41266277,599,-5,1405,1527.0,0.0031568944,1.6709368E-4,0.003937699,0.0050496906,0.003161313412950077,-0.003161313412950077,-1.555403710608254,-0.4596495840604564,-10.204749260018756,349.79525073998127,0.10582703631797746,0.22130758803148146,0.010570991756742537,-3.2272450890999393,,4.761449809404239E-5,,,43.45,NONE,0.0,0.0,0.0,NONE,-2.013379017146368E-11,2.587269162966086E-10,4.005432E-5,17.319,17.319,6.191,1.2493392,0,3468,4.324,12.0,1.275,99,23.2,OK,60,0,0,0,0,0,65,100,0.0,0,0.0,589232.0,2.69E-43,0.0,-5.9807744E7,62,3.026841E-10,-3.0268596E-10,9.4E-44,False,False,0,None,0.0,1.0842022E-19,dateTime|2019-5-21 19:14:50 GMT
247876331,64.422,0.0,0.0,0,8.3497305,8.702113,0.0017890877,0.027306288,-0.977066,0.9774491,0.2872052,0.16499484,0.07617236,0.33987108,601,-2,1411,1533.0,0.21698461,0.0022960706,0.0067895046,0.21710294,0.2169967623416364,-0.2169967623416364,-1.7160992317126167,-0.33259262865782924,-3.4068114237187737,356.59318857628125,0.15745669874456802,0.5184640302564905,0.10726138446894033,-3.884898595930881,,0.0,,,43.8,,,4.3097017,47.2536832,20190521,191452,2019-05-21T19:14:52Z,11441.071,99.99,99.99,3.75E7,0,0,0,0.0,0.0,0.0,0,0,0,0,0,0,,,,2085842,114,100,226,3544,3544,4381,4389,0,17527,24,3543,680,0,false,false,false,false,false,false,false,false,false,false,0,0,0,0,46,60,59,45,944,946,944,945,940,940,940,940,0.0,0.0,0.0,0.0,1722.6,1717.1,1717.1,1723.2,0.0,0.0,0.0,0.0,0,0,0,0,-45.0,-1.1882518001842622E-10,3.8336451622786355E-10,0,8.436927,7.712168,0.0021847726,0.027679887,-0.9770376,0.9774321,0.31311697,0.1105942,0.18857594,0.38188243,599,-2,1411,1532.0,0.008574393,-0.0026641218,0.0091720065,0.012835243,0.008978739103254122,-0.008948973180823666,-1.5652945126058484,-0.5225889334367377,-10.22677674145551,349.7732232585445,0.22343231344280265,0.4592755217435785,0.010679580434014284,-3.567760642454857,,1.4505170616962122E-4,,,43.78,NONE,0.0,0.0,0.0,NONE,-3.607977295647738E-11,4.656712204241649E-10,5.9127808E-5,17.318,17.318,6.191,1.251125,0,3468,4.324,12.0,1.254,99,23.2,OK,61,0,0,0,0,0,65,100,0.0,0,0.0,589232.0,2.69E-43,0.0,-5.9807744E7,62,3.026841E-10,-3.0268596E-10,9.4E-44,False,False,0,None,0.0,1.0842022E-19,
251733286,65.424,0.0,0.0,0,8.772502,8.709498,0.00301998,0.027915034,-0.9788906,0.9792932,0.23661277,0.116011485,0.12350796,0.29103002,599,-2,1411,1532.0,0.0,0.0,-0.010645657,0.010645657,0.0,0.0,-1.7082699115366273,-0.30326950468968805,-3.41186514044595,356.58813485955403,0.25442924637621184,0.8359520158192693,0.1602690218880689,-3.8746736579764836,,0.0,,,44.08,,,4.3185425,47.2507416,20190521,191453,2019-05-21T19:14:53Z,11439.974,99.99,99.99,3.75E7,0,0,0,0.0,0.0,0.0,0,0,0,0,0,0,,,,2163135,16,100,227,3541,3556,4354,4365,-599,17392,20,0,16759,0,false,false,false,false,false,false,false,false,false,false,0,0,0,0,46,60,58,46,944,946,945,944,940,940,940,940,0.0,0.0,0.0,0.0,1722.0,1715.9,1715.3,1722.0,0.0,0.0,0.0,0.0,0,0,0,0,-45.0,-3.451814437844096E-11,3.9601029324399496E-11,0,8.584897,7.7143507,0.0034624415,0.02770187,-0.9776847,0.9780832,0.33320773,0.109214224,0.048283275,0.35395822,601,-5,1393,1517.0,9.395779E-4,-7.5324747E-4,1.7014796E-4,0.0012161984,0.0012042376810589479,-0.0011649746133325387,-1.56221484810622,-0.4743876090810756,-10.191299153640207,349.8087008463598,0.35551820431986575,0.7316263263985991,0.10024769987157708,-3.2022361278394653,,2.0264172731608563E-4,,,44.02,NONE,0.0,0.0,0.0,NONE,-7.370677054651383E-11,2.261450008200008E-11,-1.4305115E-5,17.318,17.318,6.193,1.2529432,0,3467,4.324,12.0,1.255,99,23.2,OK,62,0,0,0,0,0,65,100,0.0,0,0.0,589232.0,2.69E-43,0.0,-5.9807744E7,62,3.026841E-10,-3.0268596E-10,9.4E-44,False,False,0,None,0.0,1.0842022E-19,
255614059,66.433,0.0,0.0,0,8.344446,8.73302,0.0018371553,0.028567322,-0.9781322,0.978551,0.19147289,-0.087783605,0.2317156,0.31314525,599,-2,1402,1524.0,0.14450413,0.020511162,-0.018871553,0.14716755,0.14595256909369816,-0.14595256909369816,-1.6848968144969325,-0.2919010182893561,-3.4143726035858672,356.5856273964141,0.3930379106163473,1.08801209983561,0.20332058334573386,-3.7915897393851004,,0.0,,,44.33,,,4.3259087,47.248289,20190521,191454,2019-05-21T19:14:54Z,11439.059,99.99,99.99,3.75E7,0,0,0,0.0,0.0,0.0,0,0,0,0,0,0,,,,2163135,20,100,228,3541,3556,4354,4365,-599,17392,20,2,16759,0,false,false,false,false,false,false,false,false,false,false,0,0,0,0,47,59,59,46,944,945,944,944,940,940,940,940,0.0,0.0,0.0,0.0,1722.0,1715.9,1715.9,1722.6,0.0,0.0,0.0,0.0,0,0,0,0,-45.0,5.408933200878459E-11,1.5700853026958455E-10,0,8.5214815,7.7064104,0.0024814436,0.027414601,-0.97863096,0.979018,0.3923044,0.059121985,-0.03000144,0.3978671,601,-5,1396,1519.0,0.003515604,0.0012088271,0.004948307,0.0061892224,0.003717624811466875,-0.0037014084104044784,-1.5467703983821712,-0.4741414518278173,-10.20522524161964,349.79477475838036,0.5139926763093136,1.1377579529443067,0.16741600460915432,-3.173808635446467,,2.5452567900939815E-4,,,44.38,NONE,0.0,0.0,0.0,NONE,-5.529903263727499E-11,1.936420412325172E-10,1.4305115E-5,17.316,17.316,6.19,1.2543547,0,3467,4.324,12.0,1.26,99,23.2,OK,63,0,0,0,0,0,65,100,0.0,0,0.0,589232.0,2.69E-43,0.0,-5.9807744E7,62,3.026841E-10,-3.0268596E-10,9.4E-44,False,False,0,None,0.0,1.0842022E-19,
259555146,67.457,0.0,0.0,0,8.460708,8.704464,0.0026100178,0.027651466,-0.9764066,0.9768015,0.21892211,0.036669116,0.26826608,0.34819275,599,-5,1405,1527.0,0.23218602,-0.002587468,0.009895419,0.23241119,0.23220043693122694,-0.23220043693122694,-1.688039530561981,-0.2919852529213924,-3.427166546870584,356.5728334531294,0.49960028237108756,1.3766415631568474,0.27085842062829035,-3.5185106379892352,,0.0,,,44.71,,,4.3332739,47.2458352,20190521,191455,2019-05-21T19:14:55Z,11438.145,99.99,99.99,3.75E7,0,0,0,0.0,0.0,0.0,0,0,0,0,0,0,,,,2163135,20,100,228,3541,3556,4354,4365,-599,17392,20,2,16759,0,false,false,false,false,false,false,false,false,false,false,0,0,0,0,47,59,60,47,944,944,944,945,940,940,940,940,0.0,0.0,0.0,0.0,1722.6,1717.1,1716.5,1722.6,0.0,0.0,0.0,0.0,0,0,0,0,-45.0,3.509589449629728E-12,8.670732719060629E-11,0,8.288958,7.6998563,0.0016701876,0.028325923,-0.97883457,0.9792458,0.12906328,-0.035122413,0.012804657,0.13436842,599,-5,1405,1527.0,0.0019309476,1.03582526E-4,-5.5669097E-4,0.0020122605,0.0019337238955040158,-0.0019243219598617935,-1.557994643783778,-0.47888217198422744,-10.219779465049806,349.7802205349502,0.6076150299160245,1.4324516622205252,0.2512471589145327,-3.2360171576284524,,3.459255998477148E-4,,,44.74,NONE,0.0,0.0,0.0,NONE,2.652203979478099E-11,1.5084734487047738E-10,1.1444092E-5,17.316,17.316,6.192,1.255573,0,3467,4.323,12.0,1.258,99,23.2,OK,64,0,0,0,0,0,65,100,0.0,0,0.0,589232.0,2.69E-43,0.0,-5.9807744E7,62,3.026841E-10,-3.0268596E-10,9.4E-44,False,False,0,None,0.0,1.0842022E-19,
263472081,68.475,0.0,0.0,0,8.703801,8.680266,0.0012833844,0.027090952,-0.9769637,0.9773401,0.36323914,0.013980374,0.058775257,0.3682291,599,-5,1402,1524.0,0.23360781,-0.08545933,0.002412382,0.24876039,0.24874868756815435,-0.24874868756815435,-1.6863722861608594,-0.29351353936536273,-3.4291069654454183,356.57089303455456,0.6289905057074091,1.6262027138371884,0.28629918208663474,-3.5061850377156953,,0.0,,,44.99,,,4.340638,47.2433803,20190521,191456,2019-05-21T19:14:56Z,11437.229,99.99,99.99,3.75E7,0,0,0,0.0,0.0,0.0,0,0,0,0,0,0,,,,2163538,48,96,230,3552,3717,4292,4301,-1092,17170,26,212,17168,0,false,false,false,false,false,false,false,false,false,false,0,0,0,0,46,60,59,46,944,945,944,945,940,940,940,940,0.0,0.0,0.0,0.0,1720.8,1715.9,1715.3,1722.0,0.0,0.0,0.0,0.0,0,0,0,0,-45.0,-3.289061570476607E-11,1.4079482920227942E-10,0,8.7011595,7.697401,0.0014417872,0.026708063,-0.9779983,0.978364,0.12483558,0.03476095,0.06362199,0.14436066,599,-5,1402,1524.0,0.0031091094,-7.497433E-4,0.004394978,0.005435486,0.0031982301072991798,-0.0031911088547330844,-1.5590638860923136,-0.44955027390491425,-10.18198480565317,349.81801519434686,0.6322641355902017,1.6617971519388068,0.230578891690217,-3.2265430679987124,,3.819245242418035E-4,,,45.01,NONE,0.0,0.0,0.0,NONE,3.701502301743601E-11,-2.100720875918079E-11,1.2397766E-5,17.315,17.315,6.189,1.2565492,0,3466,4.324,12.0,1.256,99,23.2,OK,65,0,0,0,0,0,65,100,0.0,0,0.0,589232.0,2.69E-43,0.0,-5.9807744E7,62,3.026841E-10,-3.0268596E-10,9.4E-44,False,False,0,None,0.0,1.0842022E-19,
267385564,69.492,0.0,0.0,0,8.497701,8.691174,0.0029588554,0.027059969,-0.9782271,0.97860575,0.1823976,-0.032641307,0.1768976,0.25617787,599,-5,1405,1527.0,0.18651685,0.0021960502,-0.010039918,0.18679978,0.18652977857745912,-0.18652977857745912,-1.6749189650691194,-0.32428951964757696,-3.445904446075728,356.5540955539243,0.7132722216872305,1.8795296402446686,0.26094551028559854,-3.492161185169982,,0.0,,,45.32,,,4.3480011,47.2409241,20190521,191457,2019-05-21T19:14:57Z,11436.314,99.99,99.99,3.75E7,0,0,0,0.0,0.0,0.0,0,0,0,0,0,0,,,,2163538,17,96,231,3552,3717,4292,4301,-1019,17171,26,0,17168,0,false,false,false,false,false,false,false,false,false,false,0,0,0,0,47,60,60,47,944,945,944,944,940,940,940,940,0.0,0.0,0.0,0.0,1722.6,1715.3,1716.5,1721.4,0.0,0.0,0.0,0.0,0,0,0,0,-45.0,-5.890695785860157E-11,4.5238569211509815E-10,0,8.3048115,7.686384,0.0027232545,0.026041403,-0.9788378,0.9791879,0.27344438,-0.09408824,0.15021218,0.32586518,599,-5,1405,1527.0,0.010122837,-0.0013532019,0.0092029795,0.013747647,0.010212882892648028,-0.010178699432840858,-1.5262166404076805,-0.5124116393250766,-10.232618395070254,349.76738160492977,0.7662991299073796,2.0180722898371184,0.21638724862652822,-3.1646812652598353,,4.321302146607417E-4,,,45.3,NONE,0.0,0.0,0.0,NONE,1.5053936428431114E-12,3.9831910542595037E-10,3.9100647E-5,17.315,17.315,6.19,1.2572315,0,3466,4.324,12.0,1.259,99,23.2,OK,66,0,0,0,0,0,65,100,0.0,0,0.0,589232.0,2.69E-43,0.0,-5.9807744E7,62,3.026841E-10,-3.0268596E-10,9.4E-44,False,False,0,None,0.0,1.0842022E-19,
271242619,70.495,0.0,0.0,0,8.2149725,8.658695,0.002371716,0.0280388,-0.9781311,0.9785358,0.10356066,0.024424814,0.12868588,0.16697735,599,1,1417,1538.0,0.27967805,-0.009452589,0.009448888,0.27999723,0.2798377448651178,-0.2798377448651178,-1.6611869896367275,-0.32335453873492126,-3.4523688043545837,356.5476311956454,0.8167046623703591,2.1354442906977558,0.3220996070482726,-4.072410746860301,,0.0,,,45.67,,,4.3553632,47.2384669,20190521,191458,2019-05-21T19:14:58Z,11435.398,99.99,99.99,3.75E7,0,0,0,0.0,0.0,0.0,0,0,0,0,0,0,,,,2163601,16,96,232,3393,3558,4285,4303,-1386,17264,25,0,17033,0,false,false,false,false,false,false,false,false,false,false,0,0,0,0,46,59,60,47,944,945,944,945,940,940,940,940,0.0,0.0,0.0,0.0,1720.2,1715.9,1715.9,1720.8,0.0,0.0,0.0,0.0,0,0,0,0,-45.0,3.695933557496547E-11,7.663834071970857E-11,0,8.402576,7.6830454,0.0026151382,0.028548453,-0.9791023,0.97952193,0.2717039,0.03308102,0.07665085,0.28424057,599,1,1417,1538.0,0.0017378534,8.6800556E-4,0.002753572,0.003369826,0.0019425673981155517,-0.0018995523698641915,-1.503229576701331,-0.4791707096572143,-10.213952647025852,349.78604735297415,0.9058909432921304,2.312126121453493,0.19655561709839617,-3.7198290011363278,,5.287874953762244E-4,,,45.64,NONE,0.0,0.0,0.0,NONE,1.519197878885093E-11,1.862965158259436E-10,6.67572E-6,17.314,17.314,6.19,1.2576303,0,3465,4.323,12.0,1.253,99,23.3,OK,67,0,0,0,0,0,65,100,0.0,0,0.0,589232.0,2.69E-43,0.0,-1.05007105E-23,62,3.026841E-10,-3.0268596E-10,9.4E-44,False,False,0,None,0.0,1.0842022E-19,
275140456,71.508,0.0,0.0,0,8.344446,8.61357,0.002096188,0.026906665,-0.97723466,0.97760725,0.19578496,-0.042062834,0.24056342,0.31300446,601,-2,1408,1530.0,0.17626713,0.0019456381,0.019482803,0.17735125,0.17627786843827054,-0.17627786843827054,-1.6550663264355918,-0.3217141853300702,-3.456541610938835,356.5434583890612,0.9273166375859734,2.4267506665412557,0.33496531353928427,-3.7301982467066654,,0.0,,,45.85,,,4.3627243,47.2360084,20190521,191459,2019-05-21T19:14:59Z,11434.481,99.99,99.99,3.75E7,0,0,0,0.0,0.0,0.0,0,0,0,0,0,0,,,,2163601,20,96,233,3393,3558,4285,4303,-1386,17264,25,2,17033,0,false,false,false,false,false,false,false,false,false,false,0,0,0,0,47,60,59,46,944,945,944,945,940,940,940,940,0.0,0.0,0.0,0.0,1721.4,1715.9,1716.5,1721.4,0.0,0.0,0.0,0.0,0,0,0,0,-45.0,-6.576253835689546E-11,1.3865099008386732E-10,0,8.415789,7.6797447,0.0022120953,0.027324144,-0.9770376,0.9774221,0.22502646,-0.047419347,0.12197707,0.26031503,599,-5,1405,1527.0,0.003084787,-0.0014869729,0.0037580403,0.005084276,0.0034244706479700606,-0.0034113001009061636,-1.518218012799003,-0.46106769715981544,-10.218823042077856,349.7811769579221,1.0327083959276324,2.5261250569148586,0.2110568216851832,-3.1388323781066028,,5.741849255300256E-4,,,45.89,NONE,0.0,0.0,0.0,NONE,-7.096605515490569E-11,2.182595943421505E-10,2.5749207E-5,17.315,17.315,6.188,1.2576547,0,3465,4.323,12.0,1.254,99,23.3,OK,68,0,0,0,0,0,65,100,0.0,0,0.0,589232.0,2.69E-43,0.0,-1.05007105E-23,62,3.026841E-10,-3.0268596E-10,9.4E-44,False,False,0,None,0.0,1.0842022E-19,
279037916,72.521,0.0,0.0,0,8.355015,8.6086855,0.002017325,0.028414845,-0.977958,0.9783728,0.4768948,-0.024319492,0.07093178,0.482754,596,-5,1405,1526.0,0.19923888,0.032594807,0.012812215,0.2022936,0.20188747829514844,-0.20188747829514844,-1.637181812075782,-0.3271727130626246,-3.472498434161613,356.5275015658384,1.0483108182684997,2.6903072638863565,0.3446171059114768,-3.4205369710220657,,0.0,,,46.2,,,-0.6794844,48.6465642,20190521,191500,2019-05-21T19:15:00Z,11959.01,99.99,99.99,3.75E7,0,0,0,0.0,0.0,0.0,0,0,0,0,0,0,,,,2164765,48,13,234,440,3529,3689,3693,-1168,14775,46,212,14771,0,false,false,false,false,false,false,false,false,false,false,0,0,0,0,48,60,60,48,944,944,943,946,940,940,940,940,0.0,0.0,0.0,0.0,1722.6,1716.5,1716.5,1721.4,0.0,0.0,0.0,0.0,0,0,0,0,-45.0,-6.303881653006258E-11,4.986173311159116E-10,0,8.415789,7.6672077,0.0018789403,0.029361244,-0.9790372,0.97947925,0.2185511,0.09865547,0.11472405,0.2658178,596,-5,1405,1526.0,0.011139041,-0.0013521285,0.008299727,0.013956788,0.011220805400709292,-0.011181288867672619,-1.5149233804060807,-0.5157298020088604,-10.246962232323435,349.7530377676766,1.128438506146641,2.875135056783265,0.20315807085071835,-3.1542545737742493,,6.418347933553786E-4,,,46.21,NONE,0.0,0.0,0.0,NONE,-6.644856712879538E-11,4.943840324006177E-10,4.2915344E-5,17.312,17.312,6.185,1.2576547,0,3465,4.324,12.0,1.254,99,23.3,OK,68,0,0,0,0,0,65,100,0.0,0,0.0,589232.0,2.69E-43,0.0,-1.05007105E-23,62,3.026841E-10,-3.0268596E-10,9.4E-44,False,False,0,None,0.0,1.0842022E-19,
283106055,73.578,0.0,0.0,0,8.159484,8.580317,0.003104267,0.026878268,-0.9787447,0.9791186,0.18188748,0.11564527,0.07473154,0.22812647,601,-2,1414,1536.0,0.0,0.0,0.004839317,0.004839317,0.0,0.0,-1.6354337265285617,-0.3051044377947881,-3.478785398630953,356.521214601369,1.1399407492058606,2.9292037858693587,0.38364661938349365,-3.697932479417417,,0.0,,,46.52,,,-0.6700732,48.6437079,20190521,191501,2019-05-21T19:15:01Z,11957.961,99.99,99.99,3.7500004E7,0,0,0,0.0,0.0,0.0,0,0,0,0,0,0,,,,2164765,17,13,235,440,3529,3690,3694,-1083,14775,46,0,14771,0,false,false,false,false,false,false,false,false,false,false,0,0,0,0,47,60,60,47,945,944,944,946,940,940,940,940,0.0,0.0,0.0,0.0,1721.4,1715.3,1715.3,1721.4,0.0,0.0,0.0,0.0,0,0,0,0,-45.0,-4.664132012530056E-11,1.4574481145466176E-11,0,8.465993,7.669575,0.0028135774,0.026727982,-0.977112,0.97748154,0.21145588,-0.073320955,0.1341412,0.260928,599,-5,1405,1527.0,3.5578E-4,-0.0010593585,0.0028530182,0.0030640713,0.0011175060560730558,-0.0010665702415517512,-1.50611082097848,-0.446972300072517,-10.205049357253294,349.7949506427467,1.244181713415653,3.0900476105298376,0.21639535541820787,-3.1081503800689076,,7.414342231598775E-4,,,46.51,NONE,0.0,0.0,0.0,NONE,3.8335968208964614E-11,-2.484762282779819E-11,1.4305115E-5,17.312,17.312,6.187,1.2574168,0,3465,4.323,12.0,1.257,99,23.3,OK,69,0,0,0,0,0,65,100,0.0,0,0.0,589232.0,2.69E-43,0.0,-1.05007105E-23,62,3.026841E-10,-3.0268596E-10,9.4E-44,False,False,0,None,0.0,1.0842022E-19,
286970736,74.582,0.0,0.0,0,8.415789,8.591893,0.0026375444,0.026697807,-0.978069,0.9784369,0.0370838,0.17677405,0.089314535,0.2014978,604,-2,1408,1532.0,0.16352555,0.03428478,-0.008662076,0.16730537,0.16708097830105215,-0.16708097830105215,-1.6145930063186962,-0.30119075296271786,-3.4932134241519543,356.506786575848,1.1922575963858928,3.2307427836318077,0.47255218958843476,-3.613248182300036,,0.0,,,46.8,,,2.6766484,47.5753249,20190521,191502,2019-05-21T19:15:02Z,11561.029,99.99,99.99,3.75E7,0,0,0,0.0,0.0,0.0,0,0,0,0,0,0,,,,2170199,48,13,236,444,3533,3742,3743,0,14971,29,212,5,0,false,false,false,false,false,false,false,false,false,false,0,0,0,0,48,59,60,46,944,944,943,946,940,940,940,940,0.0,0.0,0.0,0.0,1721.4,1716.5,1716.5,1720.8,0.0,0.0,0.0,0.0,0,0,0,0,-45.0,2.9624201870049113E-12,2.628535483764224E-10,0,8.373511,7.6623135,0.0023654655,0.026203357,-0.9776936,0.97804755,0.18439601,0.07155345,0.06628506,0.20860367,604,-2,1408,1532.0,0.0058682803,2.5743462E-5,0.005340179,0.007934412,0.005868336782970272,-0.005840307512753894,-1.4811193950395465,-0.47288733708241776,-10.235679758480664,349.76432024151933,1.2962392112890626,3.4026876665556176,0.2300292164331311,-3.3230017927872875,,7.908682294663287E-4,,,46.83,NONE,0.0,0.0,0.0,NONE,1.7920929680132807E-11,3.307703842901739E-10,5.6266785E-5,17.311,17.311,6.188,1.2576575,0,3464,4.322,12.0,1.272,99,23.3,OK,71,0,0,0,0,0,65,100,0.0,0,0.0,589232.0,2.69E-43,0.0,-1.05007105E-23,62,3.026841E-10,-3.0268596E-10,9.4E-44,False,False,0,None,0.0,1.0842022E-19,
290884326,75.600,0.0,0.0,0,8.3048115,8.595448,0.0020624774,0.027837288,-0.9783233,0.9787214,0.46197045,0.22855547,0.1700508,0.54274446,601,-5,1402,1525.0,0.26089516,0.03175065,-0.00261023,0.26283303,0.26282006176877937,-0.26282006176877937,-1.6120095316511849,-0.31070285994541585,-3.5061855475310204,356.493814452469,1.3074958593394523,3.4981310233364415,0.5317932379481981,-3.321862162240094,,0.0,,,47.14,,,4.3936294,47.2256703,20190521,191503,2019-05-21T19:15:03Z,11430.627,99.99,99.99,3.75E7,0,0,0,0.0,0.0,0.0,0,0,0,0,0,0,,,,2170199,48,13,237,444,3533,3742,3743,0,14971,29,212,5,0,false,false,false,false,false,false,false,false,false,false,0,0,0,0,47,61,61,48,944,945,944,945,940,940,940,940,0.0,0.0,0.0,0.0,1722.6,1715.9,1716.5,1721.4,0.0,0.0,0.0,0.0,0,0,0,0,-45.0,4.726054997939755E-11,1.723411671949829E-10,0,8.397292,7.654427,0.0019025651,0.027126666,-0.9780579,0.9784359,0.37599862,-0.025566753,0.010590722,0.37701562,604,-5,1405,1529.0,0.0038451387,0.0010212549,-2.4996957E-4,0.0039862934,0.0039784485305551075,-0.003967431948643579,-1.4686828785498232,-0.5050567243234128,-10.238516209265397,349.7614837907346,1.3808913874682776,3.656692249138981,0.2443126433354646,-3.0008107185048813,,8.807744362506509E-4,,,47.12,NONE,0.0,0.0,0.0,NONE,-5.092847641945204E-11,6.213913614814816E-10,7.200241E-5,17.311,17.311,6.187,1.2581538,0,3464,4.322,12.0,1.237,99,23.3,OK,72,0,0,0,0,0,65,100,0.0,0,0.0,589232.0,2.69E-43,0.0,-1.05007105E-23,62,3.026841E-10,-3.0268596E-10,9.4E-44,False,False,0,None,0.0,1.0842022E-19,
294781910,76.613,0.0,0.0,0,7.9718785,8.564812,0.0020468498,0.027599573,-0.97737557,0.97776735,0.4580955,-0.10524979,0.12526065,0.48643523,599,-2,1405,1527.0,0.27050567,-0.039642766,0.008417549,0.2735246,0.27339507182513584,-0.27339507182513584,-1.6211690372900842,-0.2865012611183466,-3.5146362058045253,356.48536379419545,1.416435596027662,3.787606369894141,0.6032225444083334,-3.648782769831696,,0.0,,,47.51,,,8.4731394,45.6165948,20190521,191504,2019-05-21T19:15:04Z,10830.449,99.99,99.99,3.75E7,0,0,0,0.0,0.0,0.0,0,0,0,0,0,0,,,,2170199,48,13,238,444,3533,3742,3743,0,14971,29,212,5,0,false,false,false,false,false,false,false,false,false,false,0,0,0,0,47,60,61,48,945,945,944,945,940,940,940,940,0.0,0.0,0.0,0.0,1722.0,1716.5,1716.5,1720.2,0.0,0.0,0.0,0.0,0,0,0,0,-45.0,-3.064540156710006E-11,1.3559209769947764E-10,0,8.183265,7.65282,0.002412035,0.027532399,-0.9766273,0.97701824,0.22287759,-0.03252977,0.0543805,0.2317107,599,-2,1405,1527.0,0.0030321116,-6.593741E-4,0.0018879117,0.0036321736,0.0031029783756390114,-0.0030935228057159085,-1.4674261832271092,-0.44559347854267023,-10.19306868998233,349.80693131001766,1.4651739132943886,3.9614526609326233,0.3058658399035659,-3.3071405314001545,,9.479633888668632E-4,,,47.5,NONE,0.0,0.0,0.0,NONE,-3.263342054274158E-12,1.3734690873196491E-11,-1.66893E-5,17.315,17.315,6.188,1.2574153,0,3463,4.323,12.0,1.234,99,23.3,OK,73,0,0,0,0,0,65,100,0.0,0,0.0,589232.0,2.69E-43,0.0,-1.05007105E-23,62,3.026841E-10,-3.0268596E-10,9.4E-44,False,False,0,None,0.0,1.0842022E-19,
298649386,77.618,0.0,0.0,0,8.09871,8.575185,0.002486991,0.027090598,-0.9771727,0.9775513,0.3011587,0.021767436,0.1886528,0.35603407,593,-2,1399,1519.0,0.16720018,0.049507543,-0.007933009,0.17455609,0.17437573232804615,-0.17437573232804615,-1.6061212668730915,-0.29220199804316105,-3.5122237112324104,356.4877762887676,1.5277718664913142,4.049175051546054,0.6316988811435219,-3.6344213028644563,,0.0,,,47.73,,,8.4798325,45.61349,20190521,191505,2019-05-21T19:15:05Z,10829.291,99.99,99.99,3.75E7,0,0,0,0.0,0.0,0.0,0,0,0,0,0,0,,,,2170199,48,13,239,444,3533,3742,3743,0,14971,29,212,5,0,false,false,false,false,false,false,false,false,false,false,0,0,0,0,48,60,60,48,944,944,943,945,940,940,940,940,0.0,0.0,0.0,0.0,1722.0,1716.5,1716.5,1720.2,0.0,0.0,0.0,0.0,0,0,0,0,-45.0,1.3986069157415925E-11,4.423880826796059E-10,0,8.590181,7.6418376,0.0028075094,0.027005587,-0.977048,0.97742516,0.17242533,0.0983709,0.36032838,0.4113926,593,-2,1399,1519.0,0.00990056,2.7987044E-4,0.010913229,0.014737638,0.009904514536593835,-0.009870217561662974,-1.461737702778959,-0.5098707024488802,-10.213245670649425,349.7867543293506,1.580878575539361,4.22104164185788,0.34068560291476774,-3.3211554769668457,,9.922307764809644E-4,,,47.71,NONE,0.0,0.0,0.0,NONE,3.918651051008683E-12,1.6016677329106606E-10,3.1471252E-5,17.313,17.313,6.188,1.2574153,0,3463,4.323,12.0,1.234,99,23.3,OK,73,0,0,0,0,0,65,100,0.0,0,0.0,589232.0,2.69E-43,0.0,-1.05007105E-23,62,3.026841E-10,-3.0268596E-10,9.4E-44,False,False,0,None,0.0,1.0842022E-19,
302632573,78.653,0.0,0.0,0,8.436927,8.545488,0.0022350966,0.02738794,-0.9766007,0.9769872,0.29017687,-0.085000224,0.04362962,0.30550155,596,-2,1399,1520.0,0.24983978,0.042304322,0.010529327,0.25361475,0.25339607923341506,-0.25339607923341506,-1.6066742398594143,-0.3037898172877814,-3.5036600428622697,356.4963399571377,1.6459803239439441,4.323156202164418,0.650918289524677,-3.619000434469683,,0.0,,,48.03,,,2.7060402,47.5637983,20190521,191506,2019-05-21T19:15:06Z,11556.734,99.99,99.99,3.75E7,0,0,0,0.0,0.0,0.0,0,0,0,0,0,0,,,,2170199,48,13,239,444,3533,3742,3743,0,14971,29,212,5,0,false,false,false,false,false,false,false,false,false,false,0,0,0,0,48,61,61,48,944,944,943,946,940,940,940,940,0.0,0.0,0.0,0.0,1720.8,1715.9,1715.9,1720.8,0.0,0.0,0.0,0.0,0,0,0,0,-45.0,5.286969703798386E-11,8.36641216570459E-11,0,8.162126,7.6401587,0.0026665211,0.027340546,-0.97742134,0.9778073,0.28555873,0.066706024,0.15796904,0.33308813,596,-2,1399,1520.0,0.0019095467,0.0012193228,-8.24707E-5,0.0022671386,0.00226563815441146,-0.002226880960356706,-1.4411815321355634,-0.4892503435771349,-10.179821078869116,349.8201789211309,1.7237713675095654,4.486328414286714,0.3689508265497018,-3.252202994758932,,0.0010868335794778678,,,47.99,NONE,0.0,0.0,0.0,NONE,2.442349566436377E-11,1.0254821051030147E-10,-1.5258789E-5,17.311,17.311,6.187,1.2553015,0,3463,4.322,12.0,1.243,99,23.3,OK,74,0,0,0,0,0,65,100,0.0,0,0.0,589232.0,2.69E-43,0.0,-1.05007105E-23,62,3.026841E-10,-3.0268596E-10,9.4E-44,False,False,0,None,0.0,1.0842022E-19,
306539869,79.668,0.0,0.0,0,8.357657,8.552593,0.0017400689,0.027791206,-0.97778255,0.978179,0.21282618,-0.0046641654,0.15165387,0.2613726,593,-2,1399,1519.0,0.19488584,-0.021346252,-0.0054505514,0.19612716,0.19605140152765652,-0.19605140152765652,-1.6144060530346447,-0.30446407896466754,-3.4988056333686957,356.5011943666313,1.754629916707744,4.5539774752966435,0.6692882172941711,-3.6559845629084444,,0.0,,,48.37,,,2.7133851,47.5609137,20190521,191507,2019-05-21T19:15:07Z,11555.659,99.99,99.99,3.7500004E7,0,0,0,0.0,0.0,0.0,0,0,0,0,0,0,,,,2170201,114,13,240,444,3533,3742,3743,0,14974,29,3555,4,0,false,false,false,false,false,false,false,false,false,false,0,0,0,0,47,62,62,49,944,944,943,945,940,940,940,940,0.0,0.0,0.0,0.0,1720.8,1714.6,1715.9,1720.2,0.0,0.0,0.0,0.0,0,0,0,0,-45.0,-5.5676296742479376E-11,1.6585579169823504E-10,0,8.249322,7.635774,0.0019506889,0.026610814,-0.9784816,0.9788453,0.31505084,0.023642654,0.0044736937,0.31596836,593,-2,1399,1519.0,0.0036895936,-0.001252882,0.005802957,0.006989787,0.0038965131107937256,-0.0038816044776657822,-1.4707543705662869,-0.48024075133259697,-10.15674220490383,349.8432577950962,1.7689246170729769,4.724927248018714,0.3519162410212812,-3.338639305970139,,0.0011320693965023425,,,48.36,NONE,0.0,0.0,0.0,NONE,-2.497991353393188E-11,1.8353044127287138E-10,1.2397766E-5,17.309,17.309,6.186,1.2531986,0,3463,4.322,12.0,1.264,99,23.3,OK,75,0,0,0,0,0,65,100,0.0,0,0.0,589232.0,2.69E-43,0.0,-1.05007105E-23,62,3.026841E-10,-3.0268596E-10,9.4E-44,False,False,0,None,0.0,1.0842022E-19,
310393345,80.670,0.0,0.0,0,8.119848,8.531856,0.0023946373,0.027376395,-0.97744185,0.9778281,0.2018522,0.053207066,-0.007562827,0.20888394,599,-2,1399,1521.0,0.21836403,0.017035969,0.0022399358,0.21903901,0.21902755601445434,-0.21902755601445434,-1.6061323456890289,-0.3193032287293047,-3.5022973785849483,356.49770262141504,1.8794500559536729,4.8222877172687575,0.6950180421273254,-3.60172511859504,,0.0,,,48.64,,,2.7207287,47.558028,20190521,191508,2019-05-21T19:15:08Z,11554.583,99.99,99.99,3.75E7,0,0,0,0.0,0.0,0.0,0,0,0,0,0,0,,,,2173961,16,13,241,445,3533,3745,3746,0,14982,26,1,17517,0,false,false,false,false,false,false,false,false,false,false,0,0,0,0,48,61,61,48,944,943,943,945,940,940,940,940,0.0,0.0,0.0,0.0,1720.2,1715.9,1715.9,1720.8,0.0,0.0,0.0,0.0,0,0,0,0,-45.0,-4.458454173032854E-11,5.589209259264999E-10,0,8.156841,7.624235,0.0020819542,0.02748815,-0.9774174,0.9778061,0.24877279,0.018801862,0.19099511,0.31419826,599,-2,1399,1521.0,0.012481831,-9.863602E-4,0.009767624,0.015880035,0.012520743574883662,-0.01247708486646237,-1.478900674795596,-0.5319832200302679,-10.202992593433018,349.797007406567,1.8850942353609483,4.984614614499682,0.39445631011076093,-3.3311164777124325,,0.0012093425105876464,,,48.64,NONE,0.0,0.0,0.0,NONE,-2.3204709875182235E-11,4.550545151312495E-10,3.528595E-5,17.31,17.31,6.188,1.2522556,0,3462,4.322,12.0,1.262,99,23.3,OK,76,0,0,0,0,0,65,100,0.0,0,0.0,589232.0,2.69E-43,0.0,-5.9807744E7,62,3.026841E-10,-3.0268596E-10,9.4E-44,False,False,0,None,0.0,1.0842022E-19,
314251293,81.673,0.0,0.0,0,8.074929,8.445851,0.00157013,0.02775003,-0.9774876,0.97788274,0.3121068,0.052508656,0.12799244,0.34139404,593,-2,1396,1516.0,0.0,0.0,0.02431065,0.02431065,0.0,0.0,-1.6089710867311307,-0.3100773913199175,-3.5082765356279646,356.49172346437206,1.9580176575655435,5.106531331735904,0.7123304387656182,-3.635597720485029,,0.0,,,48.95,,,1.1802169,48.0872069,20190521,191509,2019-05-21T19:15:09Z,11751.718,99.99,99.99,3.7500004E7,0,0,0,0.0,0.0,0.0,0,0,0,0,0,0,,,,2173963,18,13,242,443,3532,3793,3794,3553,15176,26,1,15278,0,false,false,false,false,false,false,false,false,false,false,0,0,0,0,48,60,60,48,944,945,944,945,940,940,940,940,0.0,0.0,0.0,0.0,1720.2,1715.3,1714.6,1720.8,0.0,0.0,0.0,0.0,0,0,0,0,-45.0,8.395210224923973E-11,-1.3211084277425287E-12,0,8.167411,7.6251206,0.0018163326,0.027460467,-0.97826904,0.97865605,0.30275074,0.02983475,0.22987682,0.38130236,593,-2,1396,1516.0,-4.6139467E-5,0.0018547939,-0.0011200577,0.0021672375,0.0018553676840430684,-0.001791622834925493,-1.4700109665478744,-0.46280885950687667,-10.185660380512148,349.81433961948784,1.983962545049043,5.2182626584668546,0.44602011637917327,-3.326719458663192,,0.0013109615857705092,,,48.97,NONE,0.0,0.0,0.0,NONE,8.67494370136605E-12,6.844704432364433E-11,-3.8146973E-6,17.309,17.309,6.187,1.252554,0,3462,4.322,12.0,1.266,99,23.4,OK,77,0,0,0,0,0,65,100,0.0,0,0.0,589232.0,2.69E-43,0.0,-5.9807744E7,62,3.026841E-10,-3.0268596E-10,9.4E-44,False,False,0,None,0.0,1.0842022E-19,
318148344,82.685,0.0,0.0,0,8.307453,8.454695,0.0026433396,0.027740471,-0.97806674,0.97846365,0.25572821,0.041237403,0.103776224,0.27904648,599,-2,1399,1521.0,0.17199913,0.012376217,-0.0013639778,0.17244922,0.17244381954653082,-0.17244381954653082,-1.6156758466053462,-0.30093517437584894,-3.506763933431185,356.49323606656884,2.0808420543853963,5.384977305333975,0.7486494195741124,-3.6214655029030456,,0.0,,,49.22,,,-2.0902044,49.0744958,20190521,191510,2019-05-21T19:15:10Z,12116.031,99.99,99.99,3.75E7,0,0,0,0.0,0.0,0.0,0,0,0,0,0,0,,,,2176836,19,92,243,3227,3532,4318,4329,-23,17344,30,1,17291,0,false,false,false,false,false,false,false,false,false,false,0,0,0,0,47,61,61,47,944,945,944,945,940,940,940,940,0.0,0.0,0.0,0.0,1719.6,1714.0,1715.9,1720.2,0.0,0.0,0.0,0.0,0,0,0,0,-45.0,-8.19247360358266E-12,1.4408902338227583E-10,0,8.318023,7.618869,0.0015680431,0.02808379,-0.97754973,0.9779543,0.16797468,-0.045133203,0.09133338,0.19645429,596,-2,1396,1517.0,0.003186379,-1.5610401E-4,0.0056594154,0.0064966427,0.0031902005279543524,-0.0031713010168971617,-1.4817156159626697,-0.45568887461492724,-10.187369321861901,349.8126306781381,2.09156054356103,5.47066187401378,0.5200628349395772,-3.3365412907980887,,0.0013744852045730982,,,49.21,NONE,0.0,0.0,0.0,NONE,4.638379830849703E-11,2.5089824602300546E-10,3.33786E-5,17.306,17.306,6.184,1.2538857,0,3462,4.322,12.0,1.273,99,23.4,OK,78,0,0,0,0,0,65,100,0.0,0,0.0,589232.0,2.69E-43,0.0,-5.9807744E7,62,3.026841E-10,-3.0268596E-10,9.4E-44,False,False,0,None,0.0,1.0842022E-19,
322014914,83.690,0.0,0.0,0,8.302169,8.449636,0.0016998483,0.027539901,-0.97872454,0.9791134,0.16971573,0.15410708,0.13994136,0.26858148,593,1,1390,1511.0,0.25298518,0.032461513,-0.002596551,0.25507253,0.25505930902737306,-0.25505930902737306,-1.601791630066973,-0.32747539196522935,-3.5150185546085293,356.4849814453915,2.179939723293379,5.679173186321423,0.7853510533380902,-3.8970261328656313,,0.0,,,49.54,,,-0.5917087,48.6198359,20190521,191511,2019-05-21T19:15:11Z,11949.187,99.99,99.99,3.75E7,0,0,0,0.0,0.0,0.0,0,0,0,0,0,0,,,,2177135,48,92,244,3227,3532,4292,4303,0,17173,29,212,5,0,false,false,false,false,false,false,false,false,false,false,0,0,0,0,48,61,60,48,944,945,944,945,940,940,940,940,0.0,0.0,0.0,0.0,1720.2,1714.0,1714.0,1720.2,0.0,0.0,0.0,0.0,0,0,0,0,-45.0,5.153581081863772E-11,5.447318471123898E-10,0,8.185906,7.606352,0.0030063537,0.027159054,-0.97725683,0.9776388,0.17514801,-0.0025941096,0.18294868,0.25328594,593,1,1396,1516.0,0.012216037,0.0011422299,0.00843133,0.014887027,0.012269321894575032,-0.012224499923087117,-1.4553339187747707,-0.5474569473983978,-10.236549498497153,349.76345050150286,2.1399081184644344,5.708033140092355,0.5633753920924034,-3.5987185021228396,,0.001434805194473436,,,49.55,NONE,0.0,0.0,0.0,NONE,7.267746737607709E-12,4.2381511432197426E-10,2.7656555E-5,17.305,17.305,6.183,1.2565163,0,3461,4.321,12.0,1.292,99,23.4,OK,79,0,0,0,0,0,65,100,0.0,0,0.0,589232.0,2.69E-43,0.0,-5.9807744E7,62,3.026841E-10,-3.0268596E-10,9.4E-44,False,False,0,None,0.0,1.0842022E-19,
325885829,84.696,0.0,0.0,0,8.307453,8.471227,0.0030599462,0.027668182,-0.9785318,0.9789277,0.1179663,0.019311322,0.052862756,0.13070366,596,-2,1399,1520.0,0.0,0.0,-0.007072471,0.007072471,0.0,0.0,-1.6041862021635689,-0.3127541420442196,-3.532316421930078,356.4676835780699,2.240067104859534,5.932877812074081,0.8342337808798046,-3.614455404088948,,0.0,,,49.91,,,1.2029909,48.0793726,20190521,191512,2019-05-21T19:15:12Z,11748.801,99.99,99.99,3.75E7,0,0,0,0.0,0.0,0.0,0,0,0,0,0,0,,,,2177135,48,92,245,3227,3532,4292,4303,0,17173,29,212,5,0,false,false,false,false,false,false,false,false,false,false,0,0,0,0,47,62,61,48,944,944,944,945,940,940,940,940,0.0,0.0,0.0,0.0,1719.6,1714.6,1714.6,1719.6,0.0,0.0,0.0,0.0,0,0,0,0,-45.0,4.399302514508196E-11,9.260393293162646E-11,0,8.130418,7.6077847,0.0035712665,0.027666915,-0.9787206,0.9791181,0.20241468,-0.04147845,0.17389742,0.27006012,596,-2,1399,1520.0,0.0021226786,9.752519E-4,0.0035517716,0.004251113,0.0023359966704597094,-0.0022860168962713333,-1.446639293818029,-0.47820215307331715,-10.187079018128845,349.8129209818712,2.2317828948319858,5.956048688132666,0.5501147513321614,-3.2637212827256383,,0.0015076409301942079,,,49.88,NONE,0.0,0.0,0.0,NONE,-2.568914544278614E-12,1.5766789406133565E-10,3.8146973E-6,17.302,17.302,6.182,1.2612548,0,3461,4.321,12.0,1.321,99,23.4,OK,80,0,0,0,0,0,65,100,0.0,0,0.0,589232.0,2.69E-43,0.0,-5.9807744E7,62,3.026841E-10,-3.0268596E-10,9.4E-44,False,False,0,None,0.0,1.0842022E-19,
329900472,85.740,0.0,0.0,0,8.465993,8.468961,-2.829982E-4,0.034999166,-0.97826785,0.97889376,1.1527808,-0.041409988,-0.028460592,1.1538754,599,1,1402,1524.0,0.15981238,0.0180561,0.0017426545,0.1608386,0.16082915969503936,-0.16082915969503936,-1.5752681411958362,-0.2934077642035359,-3.5391126723194213,356.46088732768055,2.3259697149312246,6.405304459958933,0.9662427535604252,-3.822407213615415,,0.0,,,50.15,,,-0.5760492,48.6150464,20190521,191513,2019-05-21T19:15:13Z,11947.426,99.99,99.99,3.7500004E7,0,0,0,0.0,0.0,0.0,0,0,0,0,0,0,,,,2177135,48,92,246,3227,3532,4292,4303,0,17173,29,212,5,0,false,false,false,false,false,false,false,false,false,false,0,0,0,0,48,62,61,48,944,944,944,945,940,940,940,940,0.0,0.0,0.0,0.0,1719.6,1715.3,1714.0,1720.2,0.0,0.0,0.0,0.0,0,0,0,0,-45.0,-1.242015133810081E-10,3.269553988927032E-10,0,8.286315,7.598494,9.326567E-5,0.035118163,-0.98077816,0.9814067,0.9703823,-0.014097551,0.027031768,0.970861,599,1,1402,1524.0,0.007261282,-0.0024739369,0.008252498,0.011267222,0.007671152280034863,-0.0076404106396840135,-1.4320864961884927,-0.4701261049590546,-10.181955330124058,349.8180446698759,2.3703551372744043,6.397451061943242,0.676680775061813,-3.510366012053197,,0.0015693389076185847,,,50.17,NONE,0.0,0.0,0.0,NONE,-1.7645054307095672E-10,3.322512054264434E-10,4.2915344E-5,17.302,17.302,6.184,1.268752,0,3460,4.321,12.0,1.333,99,23.4,OK,81,0,0,0,0,0,65,100,0.0,0,0.0,589232.0,2.69E-43,0.0,-5.9807744E7,62,3.026841E-10,-3.0268596E-10,9.4E-44,False,False,0,None,0.0,1.0842022E-19,
333784395,86.749,0.0,0.0,0,9.121288,9.052179,0.16287632,0.023692563,-0.8717448,0.8871466,-39.151745,15.319913,-7.9676547,42.79068,292,207,1434,1477.0,-0.26510584,-0.55045706,-1.2735627,1.4125317,0.6109698040707136,-0.6109698040707136,1.4902321631959046,7.5735672530643425,-19.67438570927492,340.32561429072507,-15.652170765873285,10.664198338383855,8.050712025851999,-19.497774100532478,,0.0,,,50.46,,,17.3024447,41.2188577,20190521,191514,2019-05-21T19:15:14Z,9203.319,99.99,99.99,3.75E7,0,0,0,0.0,0.0,0.0,0,0,0,0,0,0,,,,2177135,48,92,247,3227,3532,4292,4303,0,17173,29,212,5,0,false,false,false,false,false,false,false,false,false,false,0,0,0,0,48,61,61,48,944,944,943,944,940,940,940,940,0.0,0.0,0.0,0.0,1719.6,1717.1,1714.6,1720.8,0.0,0.0,0.0,0.0,0,0,0,0,-45.0,-4.027222163410271E-9,-1.0448081790733775E-8,0,8.912544,8.031997,0.17916155,0.053534653,-0.8536521,0.8738917,-43.91027,15.877207,-3.8905723,46.854393,292,207,1434,1477.0,-0.2298926,-0.08874293,-1.0721709,1.1001256,0.24642628954118181,-0.24516386392494224,1.0644205056399325,7.508607751453654,-26.37312476828328,333.6268752317167,-16.585325577286063,12.7080887307331,12.268454004953044,-20.69456423254536,,0.007122073202832591,40.487256767375676,40.487256767375676,50.49,NONE,0.0,0.0,0.0,NONE,-2.2014759159135228E-8,-1.5481870602515093E-8,-0.005404949,17.303,17.303,6.187,1.2778579,0,3460,4.32,12.0,1.302,99,23.4,OK,82,0,0,0,0,0,65,100,0.0,0,0.0,589232.0,2.69E-43,0.0,-5.9807744E7,62,3.026841E-10,-3.0268596E-10,9.4E-44,False,False,0,None,0.0,1.0842022E-19,
337653304,87.755,0.0,0.0,0,9.298324,9.598318,-0.016045805,0.08910038,-0.8691976,0.8738998,7.604253,-26.724161,26.904997,38.676662,473,53,1464,1539.0,0.32968017,0.08978523,-0.04516396,0.34465954,0.3416875827985279,-0.3416875827985279,-0.5356528071223869,-1.1203045023266254,-13.508152668715374,346.49184733128465,-10.596183104394875,7.17072502551806,-0.85058521946784,-8.535781220694334,,0.0,,,50.78,,,17.307506,41.2144014,20190521,191515,2019-05-21T19:15:15Z,9201.68,99.99,99.99,3.75E7,0,0,0,0.0,0.0,0.0,0,0,0,0,0,0,,,,2177137,16,92,248,3227,3532,4292,4303,0,17173,29,1,17529,0,false,false,false,false,false,false,false,false,false,false,0,0,0,0,48,61,60,47,944,943,943,945,940,940,940,940,0.0,0.0,0.0,0.0,1720.8,1715.9,1715.9,1720.2,0.0,0.0,0.0,0.0,0,0,0,0,-45.0,5.909734431580637E-9,6.6666916472239475E-9,0,9.261331,8.485731,0.022927538,0.16405939,-0.940261,0.95474184,35.46821,-5.874141,22.36793,42.341747,453,-32,1488,1555.0,0.15058725,0.1352717,-0.01674297,0.20311396,0.2024227069291422,-0.20023418208279417,-1.8545425160590212,-0.21476451900090462,-22.438049351247546,337.56195064875243,-13.227151894176158,9.494245297073492,13.35080487098789,-2.070030668346328,,0.010648341457474626,,,50.73,NONE,0.0,0.0,0.0,NONE,4.5929068566094885E-9,1.0540042465034871E-8,5.2547455E-4,17.304,17.304,6.185,1.2852756,0,3459,4.32,12.0,1.253,99,23.4,OK,83,0,0,0,0,0,65,100,0.0,0,0.0,589232.0,2.69E-43,0.0,-5.9807744E7,62,3.026841E-10,-3.0268596E-10,9.4E-44,False,False,0,None,0.0,1.0842022E-19,
341572230,88.773,0.0,0.0,0,9.163565,9.36211,-0.031832997,0.09882082,-0.97572464,0.98123264,-12.3867235,22.055332,11.832565,27.926298,550,-45,1470,1570.0,0.21689594,0.047244705,-0.089745,0.239437,0.22198178381222122,-0.22198178381222122,-6.121334071954855,-1.0537702919276022,-16.85656425328,343.14343574672,-13.1855371528889,0.7514159313453036,-1.0346656121895172,-12.089598119342883,,0.0,,,51.07,0.48485468200683535,,17.3085182,41.2135101,20190521,191516,2019-05-21T19:15:16Z,9201.353,99.99,99.99,3.75E7,0,0,0,0.0,0.0,0.0,0,0,0,0,0,0,,,,2177138,18,92,249,3210,3520,4325,4335,2959,17303,29,1,17319,0,false,false,false,false,false,false,false,false,false,false,0,0,0,0,49,61,61,48,945,944,943,945,940,940,940,940,0.0,0.0,0.0,0.0,1721.4,1715.9,1715.9,1720.8,0.0,0.0,0.0,0.0,0,0,0,0,-45.0,1.58803911447655E-9,8.568865501251897E-9,0,9.182061,7.9461617,-0.06759842,0.086293206,-1.0446849,1.0504202,-7.3960876,26.87486,13.143762,30.817507,607,-11,1461,1582.0,0.19048995,0.035370085,0.15527172,0.24828768,0.19374587223824266,-0.1932303754935693,-5.098943762568487,-3.2092059443504213,-24.19007245102586,335.80992754897414,-15.913513882646942,11.202924922464229,12.19357729893451,-12.77107497520464,,0.013029392396495915,,,51.06,NONE,0.0,0.0,0.0,NONE,2.2486846472297717E-9,1.0020568877795298E-8,0.0011644363,17.306,17.306,6.184,1.2881027,0,3459,4.321,12.0,1.237,99,23.4,OK,84,0,0,0,0,0,65,100,0.0,0,0.0,589232.0,2.69E-43,0.0,-5.9807744E7,62,3.026841E-10,-3.0268596E-10,9.4E-44,False,False,0,None,0.0,1.0842022E-19,
345650012,89.833,0.0,0.0,0,9.28247,9.250857,0.11436699,0.11587253,-0.9860988,0.9994484,-0.16223042,-2.3461256,-2.471561,3.4116328,387,-63,1497,1547.0,0.26259682,0.046386864,0.20974693,0.33926776,0.26666239509042217,-0.26666239509042217,-5.734192381513933,3.744850471993739,-16.06976852063186,343.93023147936816,-12.133817316508175,1.2689240974577487,3.4537744079326926,-10.179802238912963,,0.0,,,51.41,0.603759749450683,,17.317625,41.2054867,20190521,191517,2019-05-21T19:15:17Z,9198.402,99.99,99.99,3.75E7,0,0,0,0.0,0.0,0.0,0,0,0,0,0,0,,,,2178775,48,99,250,3501,3501,4386,4394,171,17544,27,212,17543,0,false,false,false,false,false,false,false,false,false,false,0,0,0,0,48,62,62,49,944,944,943,944,940,940,940,940,0.0,0.0,0.0,0.0,1719.6,1715.3,1715.3,1720.2,0.0,0.0,0.0,0.0,0,0,0,0,-45.0,1.9993886596920906E-9,8.400203257143069E-9,0,9.261331,7.642073,0.08417701,0.11845736,-0.94781005,0.9588857,5.026366,-3.1751807,-2.1725593,6.329782,375,-79,1494,1542.0,0.18755232,0.044813488,0.46093345,0.49964362,0.19283184183258828,-0.19278519560633214,-5.698707979811542,3.914028014211129,-21.957236763002083,338.0427632369979,-13.61642290142069,9.15945672103224,19.114233827220062,-8.33296530075805,,0.013465224209095112,,,51.29,NONE,0.0,0.0,0.0,NONE,1.9567879877445686E-9,1.0933355857438535E-8,0.0024991035,17.304,17.304,6.184,1.286393,0,3459,4.321,12.0,1.25,99,23.4,OK,85,0,0,0,0,0,65,100,0.0,0,0.0,589232.0,2.69E-43,0.0,-5.9807744E7,62,3.026841E-10,-3.0268596E-10,9.4E-44,False,False,0,None,0.0,1.0842022E-19,
349561635,90.850,0.0,0.0,0,9.263973,9.271969,0.04468243,0.13294119,-0.9539528,0.96420735,-0.20354426,-1.7108641,-1.5752224,2.3344831,392,-150,1482,1540.0,0.23878126,0.056425937,0.14251167,0.28374276,0.24535764625026293,-0.24535764625026293,-8.434964268567272,3.099295566497957,-18.405802434061133,341.5941975659389,-14.433491970739496,0.54693750720211,2.9346620644499315,-8.320561087396678,,0.0,,,51.7,0.5852632360839838,,17.3226827,41.2010282,20190521,191518,2019-05-21T19:15:18Z,9196.762,99.99,99.99,3.75E7,0,0,0,0.0,0.0,0.0,0,0,0,0,0,0,,,,2178775,48,99,251,3501,3501,4386,4394,171,17544,27,212,17543,0,false,false,false,false,false,false,false,false,false,false,0,0,0,0,48,62,62,49,944,944,944,944,940,940,940,940,0.0,0.0,0.0,0.0,1719.6,1714.6,1715.3,1720.2,0.0,0.0,0.0,0.0,0,0,0,0,-45.0,1.3772110519494436E-9,-2.3616800650245786E-10,0,9.100149,6.819733,0.04108015,0.13302778,-0.9529281,0.9630452,1.0182997,-1.9765978,-1.2554057,2.5534127,392,-150,1482,1540.0,-0.005678427,0.030564362,0.6727113,0.67342925,0.03108737304335968,-0.030140297623518632,-8.097833621142506,2.625696442691415,-25.01694517873931,334.9830548212607,-13.546092870287865,8.495950897787814,17.420542127738695,-7.46640335782502,,0.016912768399493915,,,51.72,NONE,0.0,0.0,0.0,NONE,1.911614826877297E-9,-4.8233172924739615E-9,0.0032110214,17.305,17.305,6.185,1.2824332,0,3458,4.32,12.0,1.266,99,23.5,OK,86,0,0,0,0,0,65,100,0.0,0,0.0,589232.0,2.69E-43,0.0,-1.05007105E-23,62,3.026841E-10,-3.0268596E-10,9.4E-44,False,False,0,None,0.0,1.0842022E-19,
353476322,91.867,0.0,0.0,0,8.970675,9.224889,0.21741362,-0.24602889,-0.8128763,0.87667936,48.014317,7.890726,-4.9238405,48.906876,441,226,1422,1505.0,0.0,0.0,0.89921093,0.89921093,0.0,0.0,7.805829691936354,3.021390269330911,-8.237554312042265,351.7624456879577,-3.7446219987738685,17.558481852951232,2.421995471844968,-3.411432121226964,,0.0,,,52.08,0.29196546844482363,,17.3277391,41.196569,20190521,191519,2019-05-21T19:15:19Z,9195.122,99.99,99.99,3.75E7,0,0,0,0.0,0.0,0.0,0,0,0,0,0,0,,,,2178775,48,99,252,3501,3501,4386,4394,171,17544,27,212,17543,0,false,false,false,false,false,false,false,false,false,false,0,0,0,0,49,63,61,48,944,945,943,945,940,940,940,940,0.0,0.0,0.0,0.0,1720.2,1714.6,1714.6,1720.2,0.0,0.0,0.0,0.0,0,0,0,0,-45.0,8.127868577906728E-9,5.949049436596249E-9,0,8.957464,6.103161,0.17773348,-0.096880764,-0.80291766,0.82804096,18.170357,-6.641014,16.109873,25.175245,407,192,1434,1502.0,0.13719681,0.17829262,1.4290313,1.4466311,0.2249693763608674,-0.22396872119734426,4.845553246018659,2.3601497700793863,-15.30578318380896,344.69421681619104,-2.52861105559444,23.742817415971455,17.346935503777587,-8.561894115198047,,0.019400414372591077,-20.245544919597364,-20.245544919597364,52.05,NONE,0.0,0.0,0.0,NONE,1.2638390673667561E-8,-1.140773866782957E-9,0.006389618,17.304,17.304,6.181,1.2779706,0,3458,4.321,12.0,1.252,99,23.4,OK,87,0,0,0,0,0,65,100,0.0,0,0.0,589232.0,2.69E-43,0.0,-1.05007105E-23,62,3.026841E-10,-3.0268596E-10,9.4E-44,False,False,0,None,0.0,1.0842022E-19,
357342788,92.872,0.0,0.0,0,8.592824,8.882604,-0.058798306,-0.52034974,-0.7360511,0.9033229,-7.596781,-21.032837,-27.786955,35.668,344,976,916,1382.0,0.31723744,0.037995454,-0.17143093,0.36259043,0.3195046845191175,-0.3195046845191175,34.16069616454455,0.41191904894230025,-35.11978426426328,324.8802157357367,-26.94312079391537,43.52204422536286,-12.320354309170327,-39.6881201846339,,0.0,,,52.33,-0.08588601776123106,,17.3327944,41.192109,20190521,191520,2019-05-21T19:15:20Z,9193.482,99.99,99.99,3.7500004E7,0,0,0,0.0,0.0,0.0,0,0,0,0,0,0,,,,2178775,48,99,253,3501,3501,4386,4394,171,17544,27,212,17543,0,false,false,false,false,false,false,false,false,false,false,0,0,0,0,48,63,62,48,944,944,943,945,940,940,940,940,0.0,0.0,0.0,0.0,1718.9,1715.9,1714.6,1719.6,0.0,0.0,0.0,0.0,0,0,0,0,-45.0,-1.4160973986517571E-9,1.1347854137631477E-8,0,8.529408,5.7833247,-0.043862026,-0.53488016,-0.7490461,0.92146116,-0.47405836,-8.540752,-29.266626,30.491058,390,979,910,1392.0,0.2517336,-0.03021758,0.0111837275,0.25378728,0.2535407443305369,-0.25232739372181895,35.06497506843679,-0.5741373744178245,-38.25271348873102,321.74728651126895,-20.259441728974856,52.86488169819669,-0.007882914592528323,-36.46419987757166,,0.02729954350528285,0.8590575203178763,0.8590575203178763,52.32,NONE,0.0,0.0,0.0,NONE,-6.616999190833836E-10,9.62086851449553E-9,2.3269653E-4,17.304,17.304,6.184,1.2779706,0,3458,4.321,12.0,1.252,99,23.4,OK,87,0,0,0,0,0,65,100,0.0,0,0.0,589232.0,2.69E-43,0.0,-1.05007105E-23,62,3.026841E-10,-3.0268596E-10,9.4E-44,False,False,0,None,0.0,1.0842022E-19,
361213793,93.878,0.0,0.0,0,8.397292,8.740536,-0.18426694,-0.56844735,-0.8012598,0.9995519,3.5500855,5.3860598,-2.1552541,6.8013134,650,966,845,1438.0,0.24408841,-0.08490113,-0.008334596,0.25856686,0.25843249534087864,-0.25843249534087864,34.36348433809249,-15.049639563364538,-26.38518823345047,333.6148117665495,-20.06014126156733,45.488511605112556,-22.863298056193877,-46.414328024616594,,0.0,,,52.62,-0.2814178628540045,,17.3348161,41.1903248,20190521,191522,2019-05-21T19:15:22Z,9192.826,99.99,99.99,3.7500004E7,0,0,0,0.0,0.0,0.0,0,0,0,0,0,0,,,,2178776,19,100,254,3501,3501,4380,4389,132,17538,27,1,17543,0,false,false,false,false,false,false,false,false,false,false,0,0,0,0,48,63,63,49,944,944,943,944,940,940,940,940,0.0,0.0,0.0,0.0,1722.0,1715.3,1714.6,1720.2,0.0,0.0,0.0,0.0,0,0,0,0,-45.0,-1.0478906806661902E-8,8.51037208649571E-9,0,8.376154,5.64242,-0.18547754,-0.5666962,-0.7980213,0.996185,2.1752527,5.437151,-2.5213928,6.375873,650,966,845,1438.0,0.19071873,-0.23381932,0.11009159,0.32119352,0.30173682476252445,-0.30068720603730653,34.34390281903925,-15.366915469781443,-32.56502057900908,327.43497942099094,-16.618311215490618,54.0158823807688,-12.004527184709907,-47.1693998089318,,0.029966105549049098,-61.19675053554958,-61.19675053554958,52.63,NONE,0.0,0.0,0.0,NONE,-6.32766246849367E-9,6.333819995805357E-9,6.8569183E-4,17.304,17.304,6.185,1.2688266,0,3457,4.32,12.0,1.242,99,23.5,OK,89,0,0,0,0,0,65,100,0.0,0,0.0,589232.0,2.69E-43,0.0,-1.05007105E-23,62,3.026841E-10,-3.0268596E-10,9.4E-44,False,False,0,None,0.0,1.0842022E-19,
365272422,94.933,0.0,0.0,0,8.598108,8.7310505,-0.22619967,-0.58214855,-0.76711285,0.9892044,1.7027309,-1.8438977,1.4102441,2.8788955,650,991,830,1446.0,0.038873404,0.004646042,-0.007757889,0.039911304,0.0391500609244368,-0.0391500609244368,35.38119955854239,-16.00170492749598,-27.03350976806237,332.96649023193766,-20.87815036855297,46.2606653955043,-24.457283508677314,-49.452965382638276,,0.0,,,52.91,-0.08060170837402403,,17.3348161,41.1903248,20190521,191523,2019-05-21T19:15:23Z,9192.826,99.99,99.99,3.7500004E7,0,0,0,0.0,0.0,0.0,0,0,0,0,0,0,,,,2178777,114,100,255,3501,3501,4379,4387,0,17518,27,3533,676,0,false,false,false,false,false,false,false,false,false,false,0,0,0,0,49,62,63,48,944,945,944,945,940,940,940,940,0.0,0.0,0.0,0.0,1719.6,1715.3,1715.9,1720.2,0.0,0.0,0.0,0.0,0,0,0,0,-45.0,-4.7420992922397734E-9,1.878581309413792E-9,0,8.513555,5.533119,-0.22657143,-0.5817565,-0.7655694,0.98786217,1.8379002,-1.2718635,1.2909237,2.5810847,650,991,830,1446.0,0.04183196,-0.10567932,0.08749612,0.143435,0.11365751555941514,-0.11273314459083808,35.29909331269358,-16.673373675271055,-33.084111549654104,326.9158884503459,-17.62731074203748,54.487429043491716,-13.86652521924986,-51.27003239180138,,0.031138007783594827,,,52.93,NONE,0.0,0.0,0.0,NONE,-4.726303894759593E-9,1.8744316709617814E-9,4.4202805E-4,17.305,17.305,6.184,1.2636226,0,3457,4.32,12.0,1.221,99,23.5,OK,90,0,0,0,0,0,65,100,0.0,0,0.0,589232.0,2.69E-43,0.0,-1.05007105E-23,62,3.026841E-10,-3.0268596E-10,9.4E-44,False,False,0,None,0.0,1.0842022E-19,
369145424,95.939,0.0,0.0,0,8.598108,8.7167015,-0.32173625,-0.5902595,-0.7089691,0.97701466,9.580593,-9.363832,13.037816,18.693682,736,1000,774,1463.0,-0.07452254,0.10361351,0.02559275,0.1301705,0.12762980949538277,-0.12762980949538277,36.19636694946238,-21.535640531232733,-23.033535486836843,336.96646451316315,-18.013384678122108,48.124809893590566,-27.731968841308362,-55.71529274028118,,0.0,,,53.22,-0.08060170837402403,,17.3348161,41.1903248,20190521,191524,2019-05-21T19:15:24Z,9192.826,99.99,99.99,3.7500004E7,0,0,0,0.0,0.0,0.0,0,0,0,0,0,0,,,,2250214,48,100,256,3500,3514,4369,4377,0,17471,22,212,4,0,false,false,false,false,false,false,false,false,false,false,0,0,0,0,49,62,63,50,944,945,944,945,940,940,940,940,0.0,0.0,0.0,0.0,1720.2,1714.6,1714.6,1720.2,0.0,0.0,0.0,0.0,0,0,0,0,-45.0,3.134716918412114E-9,-2.6208310934149275E-9,0,8.299526,5.5143957,-0.3280557,-0.5953381,-0.70659417,0.98047096,9.402396,-11.596592,11.988691,19.147184,736,1000,774,1463.0,-0.059374973,0.07055024,0.07236821,0.11721724,0.09221021445124272,-0.09120811873987249,36.31821630205485,-22.348930440075804,-28.937734214241644,331.06226578575837,-14.775670819185617,56.5739898467643,-17.407352818861455,-57.84155106969685,,0.03220986400649412,,,53.23,NONE,0.0,0.0,0.0,NONE,1.2717971399822894E-9,-2.0119051693436282E-10,2.2125244E-4,17.305,17.305,6.186,1.257323,0,3457,4.321,12.0,1.223,99,23.5,OK,91,0,0,0,0,0,65,100,0.0,0,0.0,589232.0,2.69E-43,0.0,-1.05007105E-23,62,3.026841E-10,-3.0268596E-10,9.4E-44,False,False,0,None,0.0,1.0842022E-19,
373060430,96.957,0.0,0.0,0,8.687947,8.693884,-0.46210238,-0.5916902,-0.6383455,0.9854546,-0.45166606,-1.6898313,-3.0625353,3.5268478,971,1000,581,1510.0,0.050842684,0.08240096,-0.053034946,0.11039747,0.09682405174192643,-0.09682405174192643,37.903697707005946,-33.95315581614298,-11.12067656501441,348.87932343498557,-10.108084119082047,54.59550362515,-32.89286323587003,-64.48139936918376,,0.0,,,53.59,0.00923727325439394,,17.3348161,41.1903248,20190521,191525,2019-05-21T19:15:25Z,9192.826,99.99,99.99,3.7500004E7,0,0,0,0.0,0.0,0.0,0,0,0,0,0,0,,,,2250214,48,100,257,3500,3514,4369,4377,0,17471,22,212,4,0,false,false,false,false,false,false,false,false,false,false,0,0,0,0,49,63,63,49,944,945,944,944,940,940,940,940,0.0,0.0,0.0,0.0,1720.2,1714.6,1715.3,1719.6,0.0,0.0,0.0,0.0,0,0,0,0,-45.0,-9.905587688258988E-11,2.085527786257771E-9,0,8.339161,5.5000663,-0.46359605,-0.5967338,-0.63996404,0.99023557,0.4754016,0.1255468,-6.0339646,6.0539656,979,994,578,1510.0,0.046088748,-0.001250311,-0.023392508,0.051700532,0.0461057031213921,-0.045481666848472525,37.76000106963912,-34.166145531507,-16.952835761274088,343.04716423872594,-6.26086162579996,63.291833970317946,-22.43705528383241,-63.900447913566815,,0.033657360529564834,,,53.56,NONE,0.0,0.0,0.0,NONE,-2.6838788264903155E-10,2.145028242149329E-9,-1.1301041E-4,17.303,17.303,6.184,1.2505656,0,3456,4.32,12.0,1.227,99,23.5,OK,92,0,0,0,0,0,65,100,0.0,0,0.0,589232.0,2.69E-43,0.0,-1.05007105E-23,62,3.026841E-10,-3.0268596E-10,9.4E-44,False,False,0,None,0.0,1.0842022E-19,
376957792,97.970,0.0,0.0,0,8.3603,8.748369,-0.45698905,-0.62548363,-0.6351392,1.0017338,0.82933956,0.99383605,1.1230513,1.7136973,979,1003,561,1509.0,0.024291603,0.13084017,-0.08266708,0.1566623,0.1330760346723591,-0.1330760346723591,38.218493997458026,-35.29072809196708,-9.908818200837004,350.091181799163,-9.660102281787593,55.449416042030855,-33.3957707898485,-67.132638089022,,0.0,,,53.88,-0.31840993591308653,,-21.8112176,52.4699094,20190521,191526,2019-05-21T19:15:26Z,13345.108,99.99,99.99,3.7500004E7,0,0,0,0.0,0.0,0.0,0,0,0,0,0,0,,,,2250214,48,100,258,3500,3514,4369,4377,0,17471,22,212,4,0,false,false,false,false,false,false,false,false,false,false,0,0,0,0,49,63,62,48,944,945,944,945,940,940,940,940,0.0,0.0,0.0,0.0,1720.2,1715.9,1715.9,1719.6,0.0,0.0,0.0,0.0,0,0,0,0,-45.0,2.9926922156810335E-9,-8.506758076062515E-10,0,8.590181,5.4996634,-0.4565877,-0.6260134,-0.63594556,1.002393,-0.029829096,0.9741993,0.31993794,1.0258237,979,1003,561,1509.0,-0.01888394,0.06681629,-0.03765046,0.07898466,0.06943356665545014,-0.06896549242520082,38.25930980297343,-35.26126855645139,-16.248340976181318,343.75165902381866,-6.253542871572284,64.1058789622185,-22.913047255517647,-67.03613697736351,,0.03423917806339281,,,53.87,NONE,0.0,0.0,0.0,NONE,2.2828363833148493E-9,-7.978683160987546E-10,-2.0265579E-4,17.302,17.302,6.184,1.2444392,0,3456,4.32,12.0,1.236,99,23.5,OK,93,0,0,0,0,0,65,100,0.0,0,0.0,589232.0,2.69E-43,0.0,-1.05007105E-23,62,3.026841E-10,-3.0268596E-10,9.4E-44,False,False,0,None,0.0,1.0842022E-19,
380819033,98.973,0.0,0.0,0,8.891406,8.964294,-0.18976824,-0.4373709,-1.005932,1.1131955,-107.97287,47.088093,-40.272038,124.488014,647,738,1079,1458.0,0.18130742,-0.14375818,-0.92405343,0.95258254,0.2313845107938474,-0.2313845107938474,17.601757140003322,-6.823810663226901,-30.107118358757912,329.89288164124207,-19.13433213910563,31.297577109418874,-14.526604090591425,-37.37782881161579,,0.0,,,54.13,2.890887059265137,,7.1410008,45.7860175,20190521,191527,2019-05-21T19:15:27Z,10893.614,99.99,99.99,3.75E7,0,0,0,0.0,0.0,0.0,0,0,0,0,0,0,,,,2250214,48,100,259,3500,3514,4369,4377,0,17471,22,212,4,0,false,false,false,false,false,false,false,false,false,false,0,0,0,0,49,63,63,49,944,945,944,944,940,940,940,940,0.0,0.0,0.0,0.0,1720.8,1714.6,1715.3,1719.6,0.0,0.0,0.0,0.0,0,0,0,0,-45.0,-1.0328181198587463E-8,5.699393897933534E-9,0,8.658882,5.671707,-0.17652996,-0.41341132,-1.0085362,1.1041816,-108.40082,45.661194,-39.2463,123.99982,647,738,1079,1458.0,0.12271145,-0.23143455,-0.8589357,0.89799255,0.2619543011937868,-0.2603094944066084,16.143716108561843,-5.884885308987593,-37.11947885927486,322.88052114072514,-16.072066300838067,37.76056693333199,-3.8639798743754454,-38.378450579196794,,0.03632034693830145,,,54.14,NONE,0.0,0.0,0.0,NONE,-9.131746990226897E-9,7.947962348000074E-9,-0.0033607483,17.3,17.3,6.183,1.2395911,0,3456,4.32,12.0,1.233,99,23.5,OK,94,0,0,0,0,0,65,100,0.0,0,0.0,589232.0,2.69E-43,0.0,-1.05007105E-23,62,3.026841E-10,-3.0268596E-10,9.4E-44,False,False,0,None,0.0,1.0842022E-19,
