Tick#,offsetTime,IMU_ATTI(0):Longitude,IMU_ATTI(0):Latitude,IMU_ATTI(0):numSats,IMU_ATTI(0):barometer:Raw,IMU_ATTI(0):barometer:Smooth,IMU_ATTI(0):accel:X,IMU_ATTI(0):accel:Y,IMU_ATTI(0):accel:Z,IMU_ATTI(0):accel:Composite,IMU_ATTI(0):gyro:X,IMU_ATTI(0):gyro:Y,IMU_ATTI(0):gyro:Z,IMU_ATTI(0):gyro:Composite,IMU_ATTI(0):mag:X,IMU_ATTI(0):mag:Y,IMU_ATTI(0):mag:Z,IMU_ATTI(0):mag:Mod,IMU_ATTI(0):velN,IMU_ATTI(0):velE,IMU_ATTI(0):velD,IMU_ATTI(0):velComposite,IMU_ATTI(0):velH,IMU_ATTI(0):GPS-H,IMU_ATTI(0):roll,IMU_ATTI(0):pitch,IMU_ATTI(0):yaw,IMU_ATTI(0):yaw360,IMU_ATTI(0):totalGyro:Z,IMU_ATTI(0):totalGyro:X,IMU_ATTI(0):totalGyro:Y,IMU_ATTI(0):magYaw,IMU_ATTI(0):distanceHP,IMU_ATTI(0):distanceTravelled,IMU_ATTI(0):directionOfTravel[mag],IMU_ATTI(0):directionOfTravel[true],IMU_ATTI(0):temperature,General:relativeHeight,General:absoluteHeight,GPS(0):Long,GPS(0):Lat,GPS(0):Date,GPS(0):Time,GPS:dateTimeStamp,GPS(0):heightMSL,GPS(0):hDOP,GPS(0):pDOP,GPS(0):sAcc,GPS(0):numGPS,GPS(0):numGLNAS,GPS(0):numSV,GPS(0):velN,GPS(0):velE,GPS(0):velD,RC:Aileron,RC:Elevator,RC:Rudder,RC:Throttle,Controller:navHealth,Controller:ctrl_level,HP:Longitude,HP:Latitude,HP:rthHeight,OA:avoidObst,OA:emergBrake,OA:radiusLimit,OA:airportLimit,OA:groundForceLanding,OA:horizNearBoundary,OA:vertLowLimit,OA:vertAirportLimit,OA:roofLimit,OA:hitGroundLimit,Motor:Speed:RFront,Motor:Speed:LFront,Motor:Speed:LBack,Motor:Speed:RBack,Motor:EscTemp:RFront,Motor:EscTemp:LFront,Motor:EscTemp:LBack,Motor:EscTemp:RBack,Motor:PPMrecv:RFront,Motor:PPMrecv:LFront,Motor:PPMrecv:LBack,Motor:PPMrecv:RBack,Motor:PPMsend:RFront,Motor:PPMsend:LFront,Motor:PPMsend:LBack,Motor:PPMsend:RBack,Motor:V_out:RFront,Motor:V_out:LFront,Motor:V_out:LBack,Motor:V_out:RBack,Motor:Volts:RFront,Motor:Volts:LFront,Motor:Volts:LBack,Motor:Volts:RBack,Motor:Current:RFront,Motor:Current:LFront,Motor:Current:LBack,Motor:Current:RBack,Motor:Status:RFront,Motor:Status:LFront,Motor:Status:LBack,Motor:Status:RBack,Motor:thrustAngle,IMU_ATTI(1):Longitude,IMU_ATTI(1):Latitude,IMU_ATTI(1):numSats,IMU_ATTI(1):barometer:Raw,IMU_ATTI(1):barometer:Smooth,IMU_ATTI(1):accel:X,IMU_ATTI(1):accel:Y,IMU_ATTI(1):accel:Z,IMU_ATTI(1):accel:Composite,IMU_ATTI(1):gyro:X,IMU_ATTI(1):gyro:Y,IMU_ATTI(1):gyro:Z,IMU_ATTI(1):gyro:Composite,IMU_ATTI(1):mag:X,IMU_ATTI(1):mag:Y,IMU_ATTI(1):mag:Z,IMU_ATTI(1):mag:Mod,IMU_ATTI(1):velN,IMU_ATTI(1):velE,IMU_ATTI(1):velD,IMU_ATTI(1):velComposite,IMU_ATTI(1):velH,IMU_ATTI(1):GPS-H,IMU_ATTI(1):roll,IMU_ATTI(1):pitch,IMU_ATTI(1):yaw,IMU_ATTI(1):yaw360,IMU_ATTI(1):totalGyro:Z,IMU_ATTI(1):totalGyro:X,IMU_ATTI(1):totalGyro:Y,IMU_ATTI(1):magYaw,IMU_ATTI(1):distanceHP,IMU_ATTI(1):distanceTravelled,IMU_ATTI(1):directionOfTravel[mag],IMU_ATTI(1):directionOfTravel[true],IMU_ATTI(1):temperature,BattInfo:Voltage,BattInfo:BatVoltage,BattInfo:AdVoltage,BattInfo:AvgCurrent,BattInfo:R_time,BattInfo:R_CAP_MAH,BattInfo:LowCellVoltage,BattInfo:LowCellVolThreshold,BattInfo:BatCurrent,BattInfo:Remaining%,BattInfo:Temp,BattInfo:status,battery_info:BatDynCnt,battery_info:Vol1Protect,battery_info:Vol2Protect,battery_info:Cap1Protect,battery_info:Cap2Protect,battery_info:Batpresent,battery_info:sopPercentage,battery_info:sopValue,battery_info:sopScale,battery_info:sopFlg,BattInfo:WindHeading:WindDir,battery_info:home_dir,BattInfo:Wind:rangeMin,BattInfo:Wind:rangeMax,battery_info:cap_speed,battery_info:against_wind,battery_info:emergency_land_cap,battery_info:intel_bat_land_cap,battery_info:intel_bat_gh_cap,BattInfo:Smart:SmartGh,BattInfo:Smart:SmartLand,BattInfo:GoHome:CntDown,BattInfo:GoHome:GhCmd,BattInfo:GoHome:CapLevel,BattInfo:GoHome:LandCapLv,IMUEX(0):err,IMUEX(0):rtk_Longitude,IMUEX(0):rtk_Latitude,IMUEX(0):rtk_Alti,IMUEX(1):err,IMUEX(1):rtk_Longitude,IMUEX(1):rtk_Latitude,IMUEX(1):rtk_Alti,Attribute|Value,ConvertDatV3,3.6.6-Tablet
7042383,1.830,,,,,,,,,,,,,,,,,,,,,,,,,,,,,,,,,,,,,,,,,,,,,,,,,,,,,,,,,,,,,,,,,,,,,,,,,,,,,,,,,,,,,,,,,,,,,,,,,,,,,,,,,,,,,,,,,,,,,,,,,,,,,,,,,,,,,,,,,,,,,,,,,,,,,,,,,OK,,,,,,,,,,,,,,,,,,,,,,,,,,,,,,,,,,Firmware Date| Oct 17 2018
612571081,159.204,,,,,,,,,,,,,,,,,,,,,,,,,,,,,,,,,,,,,,,,,,,,,,,,,,,,,,,,,,,,,,,,,,,,,,,,,,,,,,,,,,,,,,,,,,,,,,,,,,,,,,,,,,,,,,,,,,,,,,,,,,,,,,,,,,,,,,,,,,,,,,17.277,17.277,6.172,1.265718,0,3382,4.318,12.0,1.233,98,24.5,OK,152,0,0,0,0,0,65,100,0.0,0,0.0,1.1478091E-32,2.69E-43,0.0,-1.05007105E-23,62,5.093148E-12,-5.093177E-12,2.8134528E-37,False,False,0,None,3.8841142E30,1.0842106E-19,,,,,,,,,ACType|MavicEnterprise
616484246,160.221,13.992579652840247,66.38514026199512,17,-112.66323,-112.33885,0.07380514,-0.048810832,-0.985434,0.9893987,0.27879173,-0.030375293,-0.019095248,0.28109095,357,-26,1493,1535.0,0.010331066,0.012382164,0.0014949924,0.016195182,0.01612603159934187,-0.01612603159934187,2.7997798919531998,4.287364455510957,16.949053092621572,16.94905309262157,-0.0439482309077249,0.18962955198194872,-0.005911403666967472,11.947164853383068,0.9165511938457742,0.039629513009337536,-111.4332816830729,-106.15827534735578,64.95,,,13.9925801,66.3851406,20190516,110012,2019-05-16T11:00:12Z,66.648,0.71,1.54,8.59,9,8,17,-0.01,0.0,0.0,0,0,0,0,5,5,13.992562889654794,66.38513548181561,50,false,false,false,false,false,false,false,false,false,false,0,0,0,0,49,63,62,49,946,945,944,946,940,940,940,940,0.0,0.0,0.0,0.0,1716.5,1711.6,1711.6,1715.9,0.0,0.0,0.0,0.0,0,0,0,0,-45.0,13.992579583727451,66.38513972664678,0,-112.626236,-111.60848,0.0748455,-0.04697725,-0.9850492,0.98900485,0.24362841,-0.18083331,0.1445263,0.33607045,351,-26,1490,1531.0,-2.9713425E-4,0.0011045883,9.388887E-4,0.0014798364,0.0011438548712597051,-0.0011438548712597051,2.7345681918326497,4.304549069448009,11.929242585850925,11.929242585850943,-0.01448391965553941,0.196461288569711,-0.05351575069227351,11.873515092776817,0.8807608941689175,0.03369021904847411,-97.25145121745325,-91.97644488173613,64.97,17.276,17.276,6.171,1.2610241,0,3382,4.318,12.0,1.235,98,24.5,OK,153,0,0,0,0,0,65,100,0.0,0,0.0,7.5100735E-32,2.69E-43,0.0,-5.9807744E7,62,5.093148E-12,-5.093177E-12,2.6960182E-37,False,False,0,None,3.5908772E30,1.0842106E-19,NONE,0.0,0.0,0.0,NONE,4.7451323818610733E-11,-5.0867465345356835E-12,0.0,geoDeclination|528 degrees
620437471,161.249,13.992579316423782,66.38514025735039,17,-112.38315,-112.33832,0.07322418,-0.047735155,-0.9834927,0.98736936,0.074892774,-0.035285663,-0.05599711,0.0999484,349,-26,1499,1539.0,0.007954121,0.014502131,-0.001112551,0.016577624,0.01654024933303356,-0.0019465236823626476,2.7960387469143844,4.281650834089959,16.958533407723966,16.958533407723962,-0.10396596441538258,0.39037656297442747,-0.057081311953309205,12.164035403005405,0.9040816242945704,0.05614811214484445,-92.50314678271995,-87.22814044700283,65.02,,,13.9925796,66.3851406,20190516,110012,2019-05-16T11:00:12Z,66.606,0.71,1.54,8.61,9,8,17,0.0,0.0,0.0,0,0,0,0,5,5,13.992562889654794,66.38513548181561,50,false,false,false,false,false,false,false,false,false,false,0,0,0,0,48,63,62,49,945,945,944,947,940,940,940,940,0.0,0.0,0.0,0.0,1717.1,1712.2,1711.6,1717.1,0.0,0.0,0.0,0.0,0,0,0,0,-45.0,13.992579059821043,66.38513974197983,0,-112.35672,-111.60665,0.07466691,-0.04724549,-0.9842474,0.98820555,0.32532966,-0.25845572,0.0033837918,0.41551197,346,-26,1496,1535.0,6.6561234E-4,3.3532694E-4,-4.5188682E-4,8.715995E-4,7.453079567487217E-4,0.02202877274428163,2.7221437285015893,4.289493569018661,11.938463732311586,11.938463732311561,-0.06130222425041754,0.42566449504992887,-0.14066135981336148,11.993207422571928,0.8620849043529523,0.05983277349247853,-89.66763615414874,-84.39262981843162,65.04,17.276,17.276,6.172,1.2559831,0,3382,4.318,12.0,1.24,98,24.5,OK,154,0,0,0,0,0,65,100,0.0,0,0.0,2.641774E-31,2.69E-43,0.0,-5.9807744E7,62,5.093148E-12,-5.093177E-12,2.6146864E-37,False,False,0,None,3.387623E30,1.0842106E-19,NONE,0.0,0.0,0.0,NONE,2.1954591379343678E-10,1.4109028543664551E-10,0.0,geoInclination|7646 degrees
624473847,162.298,13.992578637434386,66.38514026458923,17,-112.28274,-112.35185,0.074961446,-0.047933757,-0.9853247,0.9893339,0.26965955,0.084148675,-0.078067034,0.2930729,351,-26,1499,1539.0,0.0069617354,0.01373651,0.006835136,0.016848637,0.015399917742381825,0.013440915791923767,2.79396907726559,4.280611197769012,16.958434149036126,16.958434149036123,-0.21628244092672427,0.661853683454152,-0.0837781146095109,12.107305083907908,0.8802693536139775,0.08683680572352612,-90.92826195450178,-85.65325561878466,65.01,,,13.9925791,66.3851406,20190516,110014,2019-05-16T11:00:14Z,66.546,0.71,1.54,8.65,9,8,17,-0.01,0.01,0.01,0,0,0,0,5,5,13.992562889654794,66.38513548181561,50,false,false,false,false,false,false,false,false,false,false,0,0,0,0,49,63,63,49,945,945,945,947,940,940,940,940,0.0,0.0,0.0,0.0,1717.1,1712.2,1710.9,1715.3,0.0,0.0,0.0,0.0,0,0,0,0,-45.0,13.992578619480595,66.38513973570136,0,-112.63681,-111.60537,0.07542971,-0.04864798,-0.9845336,0.9886165,0.29888642,0.042626422,0.029506657,0.30334923,349,-26,1499,1539.0,5.978927E-4,2.8754526E-4,4.8588298E-4,8.223382E-4,6.634439833185987E-4,0.018045728545453096,2.7370344292277435,4.2910908644461765,11.937668298504788,11.937668298504775,-0.15443545594063227,0.6703825607176102,-0.19360175858844406,11.974122522794659,0.8453751299730315,0.0795815847414629,-95.43093894190346,-90.15593260618634,65.02,17.277,17.277,6.173,1.2513055,0,3381,4.317,12.0,1.237,98,24.5,OK,155,0,0,0,0,0,65,100,0.0,0,0.0,1.0722856E-30,2.69E-43,0.0,-5.9807744E7,62,5.093148E-12,-5.093177E-12,2.5172834E-37,False,False,0,None,3.1443677E30,1.0842106E-19,NONE,0.0,0.0,0.0,NONE,5.714208712626242E-11,2.9583446936803345E-11,0.0,geoIntensity|5257906 nanoTesla
628388378,163.315,13.992578464342145,66.38514047510672,17,-112.35672,-112.33684,0.074498184,-0.04827858,-0.9841314,0.98812723,0.15962644,-0.054706153,-0.1219837,0.20821476,346,-26,1493,1532.0,0.007874634,0.015899392,-0.0011775206,0.01778165,0.017742619152688918,0.006482151012789664,2.78038168468925,4.292900665445192,16.956452638100984,16.956452638100984,-0.3302094348997414,0.8655608768578094,-0.1128281496310942,12.161543826375944,0.8885736632320229,0.121438187714543,-24.965464346598083,-19.69045801088096,65.01,,,13.9925788,66.3851407,20190516,110015,2019-05-16T11:00:15Z,66.514,0.71,1.54,8.68,9,8,17,-0.01,0.0,0.02,0,0,0,0,5,5,13.992562889654794,66.38513548181561,50,false,false,false,false,false,false,false,false,false,false,0,0,0,0,49,62,62,49,945,945,944,946,940,940,940,940,0.0,0.0,0.0,0.0,1715.3,1710.9,1710.9,1717.1,0.0,0.0,0.0,0.0,0,0,0,0,-45.0,13.992578443124172,66.38513989027565,0,-112.494125,-111.604324,0.07511127,-0.047531802,-0.98460954,0.9886136,0.20820756,-0.059795063,-0.14987335,0.26341575,349,-26,1499,1539.0,-8.9530385E-4,6.4095104E-4,-1.3101038E-4,0.0011088512,0.0011010845774037234,0.017474208410571106,2.720192472961346,4.323755760420043,11.93747831565474,11.937478315654744,-0.19026436600612756,0.8293658347161051,-0.22148224093947103,11.90063577529414,0.8486862420929694,0.11106369055053966,-20.914231842127382,-15.63922550641026,65.01,17.276,17.276,6.172,1.2472165,0,3381,4.317,12.0,1.237,98,24.6,OK,156,0,0,0,0,0,65,100,0.0,0,0.0,5.8578122E-30,2.69E-43,0.0,-5.9807744E7,62,5.093148E-12,-5.093177E-12,2.523597E-37,False,False,0,None,3.1602288E30,1.0842106E-19,NONE,0.0,0.0,0.0,NONE,4.76184059353195E-11,2.583531791050909E-11,0.0,dateTime|2019-5-16 11:0:11 GMT
632343740,164.343,13.992578205409522,66.3851405449633,17,-112.45184,-112.35684,0.07589639,-0.048207812,-0.98454064,0.98863775,0.30168477,-0.10197284,-0.16519465,0.3587498,351,-26,1496,1536.0,0.008134413,0.014319177,0.0035295258,0.016842358,0.016468378133959242,-0.0029413690523412677,2.770157771795256,4.289693029176889,16.954942731632528,16.954942731632514,-0.4250775302722257,1.075070732022222,-0.15637327722718183,12.016027490255073,0.8845220725768916,0.1553709423702174,-146.4341316279117,-141.15912529219457,64.97,,,13.9925784,66.3851407,20190516,110016,2019-05-16T11:00:16Z,66.472,0.71,1.54,8.7,9,8,17,0.0,0.0,0.01,0,0,0,0,5,5,13.992562889654794,66.38513548181561,50,false,false,false,false,false,false,false,false,false,false,0,0,0,0,49,63,63,48,946,944,944,947,940,940,940,940,0.0,0.0,0.0,0.0,1717.1,1712.2,1711.6,1716.5,0.0,0.0,0.0,0.0,0,0,0,0,-45.0,13.992578025632898,66.38513980683526,0,-112.35144,-111.60234,0.07491689,-0.04763402,-0.98451334,0.988508,0.13894562,-0.076819055,0.048023507,0.16587137,349,-26,1496,1536.0,0.001192442,-3.1620782E-4,-8.802983E-4,0.0015155297,0.0012336552786882248,0.01898311032937794,2.7009589581380453,4.294968823697998,11.936646037233515,11.936646037233515,-0.2805842817868422,1.1384190882812968,-0.44181546992980475,11.847939841167321,0.8281526142083633,0.16772508926758972,-164.6126920847919,-159.33768574907475,65.0,17.275,17.275,6.173,1.2437531,0,3381,4.317,12.0,1.236,98,24.6,OK,157,0,0,0,0,0,65,100,0.0,0,0.0,9.620598E-30,2.69E-43,0.0,-5.9807744E7,62,5.093148E-12,-5.093177E-12,2.4512766E-37,False,False,0,None,2.9794896E30,1.0842106E-19,NONE,0.0,0.0,0.0,NONE,-7.100990439821346E-11,-2.1284018376631688E-11,-7.6293945E-6,
636379023,165.392,13.992577307298717,66.38513977285614,17,-112.034355,-112.38715,0.07537659,-0.048345555,-0.9846428,0.9887064,0.07098503,-0.075083695,-0.10532937,0.14754902,351,-26,1499,1539.0,0.013201616,0.011180268,0.014574784,0.022620905,0.017299740842614732,0.07301450839734044,2.7589364232540987,4.275982335174186,16.947212098762158,16.94721209876218,-0.5132693894946241,1.2961798392809594,-0.20465469956162177,12.001614124932093,0.8000598375882165,0.2506808348231885,-155.92289660274076,-150.64789026702363,65.0,,,13.9925775,66.38514,20190516,110017,2019-05-16T11:00:17Z,66.415,0.71,1.54,8.72,9,8,17,0.0,0.0,0.01,0,0,0,0,5,5,13.992562889654794,66.38513548181561,50,false,false,false,false,false,false,false,false,false,false,0,0,0,0,50,63,62,50,945,945,944,946,940,940,940,940,0.0,0.0,0.0,0.0,1715.9,1712.2,1710.9,1715.9,0.0,0.0,0.0,0.0,0,0,0,0,-45.0,13.992577338195606,66.38513923799727,0,-112.3303,-111.60151,0.074726485,-0.047846165,-0.98440987,0.98840076,-0.0027422276,-0.029502975,0.018327752,0.034840375,349,-26,1493,1533.0,-3.366499E-5,-8.5738994E-4,0.0011695728,0.0014505694,8.580506127618154E-4,0.06614916231040159,2.707607613311676,4.306930728007516,11.944346844169132,11.944346844169104,-0.34994274401964814,1.3403673667706542,-0.5082126220013437,11.849713938337949,0.767233822350222,0.23892236475843948,-175.48269692372463,-170.2076905880075,64.97,17.276,17.276,6.177,1.2410696,0,3380,4.317,12.0,1.243,98,24.6,OK,158,0,0,0,0,0,65,100,0.0,0,0.0,2.5597415E-31,2.69E-43,0.0,-5.9807744E7,62,5.093148E-12,-5.093177E-12,2.0679782E-37,False,False,0,None,2.2787381E30,1.0842106E-19,NONE,0.0,0.0,0.0,NONE,-1.5037391016064177E-11,2.543373264481019E-12,0.0,
640292253,166.409,13.992576053041606,66.38513874073041,17,-112.61567,-112.34921,0.075455345,-0.047887947,-0.983975,0.98802507,0.105322234,-9.818664E-4,-0.15797794,0.18987039,346,-26,1499,1538.0,0.016090946,0.007347733,-0.0081623765,0.019481584,0.017689198333440088,0.10781657802610208,2.755176283091597,4.271191933069798,16.938621190304513,16.938621190304502,-0.5934893165855575,1.4667425968620873,-0.3076732572401456,12.120185446298999,0.6892818974563681,0.3787953526489007,-160.93910406679097,-155.66409773107384,65.01,,,13.9925766,66.3851393,20190516,110018,2019-05-16T11:00:18Z,66.374,0.71,1.54,8.74,9,8,17,0.01,0.0,0.0,0,0,0,0,5,5,13.992562889654794,66.38513548181561,50,false,false,false,false,false,false,false,false,false,false,0,0,0,0,49,63,63,49,945,944,944,946,940,940,940,940,0.0,0.0,0.0,0.0,1715.3,1710.3,1710.9,1715.9,0.0,0.0,0.0,0.0,0,0,0,0,-45.0,13.992576383094235,66.38513849695896,0,-112.35672,-111.600334,0.07519072,-0.047358047,-0.98672014,0.9907134,0.23376082,-0.16135429,-0.04069464,0.28694144,357,-26,1496,1538.0,5.182162E-4,-4.8228673E-4,-6.0196896E-4,9.292552E-4,7.079184817894804E-4,0.09047342752015937,2.702817140493513,4.287775616343595,11.940136788243736,11.940136788243763,-0.41388626411794427,1.4523222194978775,-0.5392876837055526,11.661616406757625,0.6882263513333263,0.3359968070010986,-90.89231749476964,-85.61731115905252,64.98,17.273,17.273,6.173,1.2392825,0,3380,4.317,12.0,1.239,98,24.6,OK,159,0,0,0,0,0,65,100,0.0,0,0.0,2.7866857E-34,2.69E-43,0.0,-5.9807744E7,62,5.093148E-12,-5.093177E-12,1.7363298E-37,False,False,0,None,1.6841014E30,1.0842106E-19,NONE,0.0,0.0,0.0,NONE,-4.1436365061220383E-11,1.780361284744854E-11,0.0,
644254987,167.439,13.992575569678518,66.38513823814456,17,-112.414856,-112.36152,0.07566915,-0.047692183,-0.98435766,0.98841304,0.19638085,-0.03427334,-0.033097904,0.20207813,346,-26,1499,1538.0,0.01734234,0.003531771,-0.0015526698,0.017766288,0.017698310061059777,0.0404522151013243,2.748899114500546,4.273206921377768,16.92258327213963,16.922583272139605,-0.7011981217092235,1.6534128559520147,-0.35956446037134593,12.09917084234967,0.6426081157412682,0.4511057532473156,-171.6002378834494,-166.32523154773227,65.03,,,13.9925759,66.3851387,20190516,110019,2019-05-16T11:00:19Z,66.338,0.71,1.54,8.76,9,8,17,-0.01,0.0,0.01,0,0,0,0,5,5,13.992562889654794,66.38513548181561,50,false,false,false,false,false,false,false,false,false,false,0,0,0,0,49,63,63,49,945,945,944,945,940,940,940,940,0.0,0.0,0.0,0.0,1716.5,1712.2,1710.9,1715.9,0.0,0.0,0.0,0.0,0,0,0,0,-45.0,13.99257542706576,66.38513770380943,0,-112.50998,-111.598526,0.07528614,-0.04759203,-0.9853515,0.9893688,0.22429213,-0.14498073,-0.054264065,0.272527,346,-26,1496,1535.0,4.0011847E-4,0.0010991832,-0.002182582,0.0024762799,0.0011697429745046453,0.09392428623633636,2.720060675828021,4.2827727815045185,11.931217063232944,11.931217063232964,-0.5449611800789472,1.7133200025983892,-0.7004133539898648,11.991060100931962,0.6106713645095321,0.43953724872747685,-91.75750093253414,-86.48249459681702,65.06,17.273,17.273,6.171,1.2385151,0,3380,4.317,12.0,1.255,98,24.7,OK,160,0,0,0,0,0,65,100,0.0,0,0.0,1.2725415E-36,2.69E-43,0.0,-5.9807744E7,62,5.093148E-12,-5.093177E-12,1.6009872E-37,False,False,0,None,1.346105E30,1.0842106E-19,NONE,0.0,0.0,0.0,NONE,5.747624648721573E-11,8.031705042040244E-12,-7.6293945E-6,
648128137,168.446,13.992574934563661,66.3851377907833,17,-112.319725,-112.3518,0.07358913,-0.046968956,-0.9857281,0.9895864,0.077335335,0.039241754,-0.117222294,0.14581405,346,-26,1496,1535.0,0.017654097,0.0022042403,-0.0025278798,0.017969863,0.01779117223419634,0.03905886888320706,2.7483479432829956,4.278557682434662,16.913955771976198,16.91395577197619,-0.7574867668899703,1.8110641507923713,-0.4243299950948197,12.082405784274782,0.5947863657986606,0.5106156503427165,-146.62663830144567,-141.35163196572853,64.99,,,13.9925753,66.3851381,20190516,110020,2019-05-16T11:00:20Z,66.294,0.71,1.54,8.78,9,8,17,-0.01,0.0,0.0,0,0,0,0,5,5,13.992562889654794,66.38513548181561,50,false,false,false,false,false,false,false,false,false,false,0,0,0,0,49,63,64,49,945,945,944,946,940,940,940,940,0.0,0.0,0.0,0.0,1716.5,1712.2,1710.9,1715.9,0.0,0.0,0.0,0.0,0,0,0,0,-45.0,13.992574839121751,66.38513706378346,0,-112.55754,-111.597374,0.07553091,-0.046706643,-0.98363525,0.9876359,0.23961395,-0.12710473,-0.08426002,0.284025,349,-26,1496,1536.0,-0.0024936025,0.0013596315,-8.3816185E-4,0.002961278,0.0028401850977580086,0.07249484270710152,2.7192228784423245,4.307603046454562,11.936769153676524,11.93676915367655,-0.698290080509089,1.8598087913185126,-0.765909942690529,11.896682416448094,0.5605818956386235,0.5154310673341456,-165.73548818725098,-160.46048185153384,64.99,17.274,17.274,6.174,1.2386442,0,3379,4.317,12.0,1.236,98,24.7,OK,161,0,0,0,0,0,65,100,0.0,0,0.0,-3.5849565E37,2.68E-43,0.0,-5.9807744E7,62,5.093148E-12,-5.093177E-12,1.4826055E-37,False,False,0,None,1.15902136E30,1.0842106E-19,NONE,0.0,0.0,0.0,NONE,5.747624648721573E-11,8.031705042040244E-12,-7.6293945E-6,
652108136,169.480,13.992574455352115,66.38513716113913,17,-112.58925,-112.35883,0.07481009,-0.047781352,-0.9870942,0.9910775,0.21074659,-0.06242338,-0.08015863,0.23395771,354,-26,1496,1537.0,0.018211545,0.0030418502,0.005030891,0.019136956,0.01846383621522724,0.05229796665398226,2.7449023854061556,4.280242462553911,16.920091892530092,16.92009189253008,-0.825264806692323,2.005913559450168,-0.4534795446605541,11.869109657406206,0.5479712481592441,0.5839871529384837,-161.56548515734215,-156.29047882162502,64.95,,,13.9925748,66.3851375,20190516,110021,2019-05-16T11:00:21Z,66.255,0.71,1.54,8.79,9,8,17,-0.01,0.0,0.0,0,0,0,0,5,5,13.992562889654794,66.38513548181561,50,false,false,false,false,false,false,false,false,false,false,0,0,0,0,48,63,63,50,945,945,944,947,940,940,940,940,0.0,0.0,0.0,0.0,1717.1,1711.6,1710.9,1716.5,0.0,0.0,0.0,0.0,0,0,0,0,-45.0,13.992574391041092,66.38513647688039,0,-112.472984,-111.59653,0.07572487,-0.0489947,-0.98500365,0.9891243,0.22613302,-0.17351153,-0.18245226,0.33842462,354,-26,1496,1537.0,5.118302E-5,-0.002039342,6.402625E-4,0.0021380999,0.0020399841528509137,0.06393600062582885,2.6859951752876428,4.3019178230023165,11.94877787976783,11.948777879767817,-0.7635705192698269,2.010897021284203,-0.8776881525888385,11.673921435489678,0.5241209662779915,0.5843472831304435,-179.85896374470903,-174.5839574089919,64.98,17.271,17.271,6.172,1.2389363,0,3379,4.317,12.0,1.238,98,24.7,OK,162,0,0,0,0,0,65,100,0.0,0,0.0,-1.6500967E30,2.68E-43,0.0,-5.9807744E7,62,5.093148E-12,-5.093177E-12,1.3794628E-37,False,False,0,None,1.0302176E30,1.0842106E-19,NONE,0.0,0.0,0.0,NONE,-7.234655167320022E-11,1.3653898567107555E-11,7.6293945E-6,
655961691,170.482,13.992574149679237,66.38513637955623,17,-112.45184,-112.3854,0.07437902,-0.047439143,-0.98512954,0.9890717,0.30801558,-0.22655529,-0.10825474,0.39739147,346,-26,1496,1535.0,0.019790579,0.004094984,0.0112738665,0.02314165,0.020209797370978687,0.0676246965965226,2.749895041054288,4.282896773577472,16.924913268367014,16.924913268366993,-0.8957536148205726,2.18537482890496,-0.5181387006194422,12.084402548657993,0.5113951284312501,0.673583507643363,165.611178039103,170.88618437482015,64.99,,,13.9925745,66.3851369,20190516,110022,2019-05-16T11:00:22Z,66.205,0.71,1.54,8.81,9,8,17,-0.01,-0.01,0.0,0,0,0,0,5,5,13.992562889654794,66.38513548181561,50,false,false,false,false,false,false,false,false,false,false,0,0,0,0,50,63,62,50,945,946,945,946,940,940,940,940,0.0,0.0,0.0,0.0,1715.9,1712.2,1711.6,1716.5,0.0,0.0,0.0,0.0,0,0,0,0,-45.0,13.992574164889586,66.38513597501853,0,-112.33558,-111.59517,0.074657306,-0.047694188,-0.98513216,0.9891076,0.15501288,-0.18362756,-0.14428668,0.28029755,343,-26,1496,1535.0,1.9063293E-4,9.299357E-4,1.970734E-4,9.6951495E-4,9.492741043103505E-4,0.055670979092404746,2.7167242380742334,4.312866512972911,11.951095959128086,11.95109595912811,-0.8508607444376527,2.134909804638613,-0.9565953297003761,12.03752747706923,0.5052205511957037,0.6423933114114891,-175.13632771126305,-169.8613213755459,65.04,17.271,17.271,6.175,1.2390684,0,3379,4.317,12.0,1.241,98,24.7,OK,163,0,0,0,0,0,65,100,0.0,0,0.0,-2.566115E21,2.68E-43,0.0,-1.05007105E-23,62,5.093148E-12,-5.093177E-12,1.3180765E-37,False,False,0,None,9.5354266E29,1.0842106E-19,NONE,0.0,0.0,0.0,NONE,5.346627230123215E-11,4.444210121034795E-11,0.0,
659819064,171.484,13.992574192694331,66.38513599808998,17,-112.50998,-112.363686,0.075064525,-0.048454087,-0.9840873,0.98813474,0.14974143,-0.18483917,0.06564951,0.24677496,349,-26,1496,1536.0,0.018665595,0.007118172,0.0036610868,0.020309513,0.01997680655321214,0.022377082827226297,2.7346171774293837,4.291529877744236,16.922359780255736,16.92235978025576,-0.9328412907153157,2.4060597437334637,-0.5657098110006327,11.954904055037186,0.506735980983723,0.7172866493142456,168.70694613785665,173.98195247357378,64.98,,,13.9925744,66.3851364,20190516,110023,2019-05-16T11:00:23Z,66.172,0.71,1.54,8.82,9,8,17,-0.02,0.0,-0.01,0,0,0,0,5,5,13.992562889654794,66.38513548181561,50,false,false,false,false,false,false,false,false,false,false,0,0,0,0,49,62,63,49,945,946,945,946,940,940,940,940,0.0,0.0,0.0,0.0,1716.5,1710.3,1711.6,1716.5,0.0,0.0,0.0,0.0,0,0,0,0,-45.0,13.9925740400859,66.385135439729,0,-112.573395,-111.59406,0.07565399,-0.047807615,-0.9841389,0.9881996,0.19579914,-0.041594822,-0.0053722104,0.2002406,349,-26,1493,1533.0,8.1949885E-4,-0.0022031663,0.0017624609,0.0029379905,0.002350642370671111,0.057279971352947115,2.6681909501872325,4.307149856851047,11.956716137066273,11.95671613706628,-0.9202076474660958,2.309082430985533,-0.9900917014297412,11.72707338816925,0.4966980959389798,0.7038123647358083,-165.6614754336255,-160.38646909790836,64.98,17.27,17.27,6.172,1.2391675,0,3378,4.316,12.0,1.237,98,24.7,OK,164,0,0,0,0,0,65,100,0.0,0,0.0,-1.08520939E14,2.68E-43,0.0,-1.05007105E-23,62,5.093148E-12,-5.093177E-12,1.2800508E-37,False,False,0,None,9.0605605E29,1.0842106E-19,NONE,0.0,0.0,0.0,NONE,-4.243885276055349E-11,-9.370322543027835E-13,7.6293945E-6,
663716338,172.497,13.992573941559545,66.38513543056797,17,-112.48884,-112.41045,0.073996544,-0.0471418,-0.98343414,0.98734015,0.2760182,-0.14511406,-0.04657534,0.3152989,349,-28,1499,1539.0,0.016870698,0.00673668,0.011383471,0.021437973,0.01816599291495608,0.04510814632177551,2.746755257379974,4.296740684777805,16.921281346814414,16.921281346814396,-0.9828565871360895,2.6240858755984515,-0.6556964831104346,12.238733580154104,0.4923203489387236,0.782356393411395,178.6916339137658,-176.03335975051706,64.97,,,13.9925743,66.3851359,20190516,110024,2019-05-16T11:00:24Z,66.133,0.71,1.54,8.82,9,8,17,0.0,0.0,0.0,0,0,0,0,5,5,13.992562889654794,66.38513548181561,50,false,false,false,false,false,false,false,false,false,false,0,0,0,0,50,63,62,49,945,946,945,945,940,940,940,940,0.0,0.0,0.0,0.0,1715.9,1710.3,1711.6,1715.3,0.0,0.0,0.0,0.0,0,0,0,0,-45.0,13.992573966853199,66.38513494566342,0,-112.48355,-111.59264,0.07479374,-0.047801223,-0.98418695,0.98818165,0.25892067,-0.13441996,0.061891146,0.29822668,346,-26,1493,1532.0,0.0015996669,9.4770145E-4,0.001621415,0.0024669939,0.0018593204007998291,0.052474977078070736,2.712722276808898,4.295879321471425,11.959277985542101,11.959277985542087,-1.0004444731398578,2.471641903473166,-1.0024663674090926,11.948215147938757,0.4970026597036989,0.7598604296800837,161.9862570844632,167.26126342018034,64.95,17.271,17.271,6.173,1.2391169,0,3378,4.316,12.0,1.236,98,24.7,OK,165,0,0,0,0,0,65,100,0.0,0,0.0,-404248.0,2.68E-43,0.0,-1.05007105E-23,62,5.093148E-12,-5.093177E-12,1.2642379E-37,False,False,0,None,8.863264E29,1.0842106E-19,NONE,0.0,0.0,0.0,NONE,-7.334904023569132E-11,1.8071336330366606E-11,7.6293945E-6,
667671657,173.525,13.992574048424956,66.38513510770346,17,-112.59453,-112.43428,0.0749262,-0.047785882,-0.9843889,0.9883921,0.25762042,-0.13225524,0.018693615,0.2901882,351,-26,1493,1533.0,0.013213505,0.004930968,0.011952456,0.018487087,0.014103586864430187,0.021126144388926835,2.742587993494477,4.307858378294387,16.9210348170762,16.92103481707619,-1.0526129078335196,2.8350894866503236,-0.6890682519494179,11.907589323299446,0.4987852502895013,0.8294660117672824,166.0340989656468,171.30910530136393,64.97,,,13.9925744,66.3851355,20190516,110025,2019-05-16T11:00:25Z,66.075,0.71,1.54,8.83,9,8,17,-0.02,0.0,0.01,0,0,0,0,5,5,13.992562889654794,66.38513548181561,50,false,false,false,false,false,false,false,false,false,false,0,0,0,0,51,63,63,50,945,946,945,947,940,940,940,940,0.0,0.0,0.0,0.0,1715.9,1712.2,1712.2,1715.9,0.0,0.0,0.0,0.0,0,0,0,0,-45.0,13.99257417478909,66.385134536742,0,-112.61567,-111.59164,0.07498493,-0.04670802,-0.9851468,0.9890999,0.17178392,-0.037119556,-0.042966727,0.18092461,351,-26,1493,1533.0,9.436744E-5,-6.493332E-4,0.0021575221,0.0022550921,6.561545259884941E-4,0.044484998876164764,2.7112745826011904,4.301060040043426,11.961700981018573,11.961700981018566,-1.095555834692148,2.716746096385932,-1.021303055703739,11.815052857810183,0.5135432725766631,0.8073999468962776,149.20445955885057,154.4794658945677,64.98,17.27,17.27,6.17,1.2388943,0,3378,4.316,12.0,1.238,98,24.7,OK,166,0,0,0,0,0,65,100,0.0,0,0.0,-0.22122574,2.68E-43,0.0,-1.05007105E-23,62,5.093148E-12,-5.093177E-12,1.2878856E-37,False,False,0,None,9.158435E29,1.0842106E-19,NONE,0.0,0.0,0.0,NONE,5.196253102754684E-11,5.354470022736285E-13,0.0,
671705582,174.573,13.992574120687959,66.38513474302623,17,-112.37786,-112.440346,0.076069735,-0.047875114,-0.98374265,0.9878402,0.17708302,0.03367938,-0.08232299,0.19816601,343,-26,1502,1540.0,0.012844528,0.0017702573,0.010446353,0.016650585,0.012965944450607602,0.0258339868444604,2.7396772556029445,4.304854115372813,16.916023377890127,16.916023377890156,-1.1341604840546502,3.034591821198298,-0.7706675527775663,12.137950405828159,0.506966432648883,0.8839548637906334,178.34489242756453,-176.38010123671833,64.97,,,13.9925744,66.385135,20190516,110026,2019-05-16T11:00:26Z,66.039,0.71,1.54,8.83,9,8,17,-0.01,0.01,0.01,0,0,0,0,5,5,13.992562889654794,66.38513548181561,50,false,false,false,false,false,false,false,false,false,false,0,0,0,0,50,63,62,51,944,946,945,945,940,940,940,940,0.0,0.0,0.0,0.0,1715.9,1712.2,1710.9,1717.1,0.0,0.0,0.0,0.0,0,0,0,0,-45.0,13.992574151748443,66.38513446611255,0,-112.64209,-111.59138,0.07380044,-0.04842876,-0.9834896,0.987443,0.23996267,0.08184154,-0.08640029,0.2678528,351,-26,1496,1536.0,-0.0013028233,5.351893E-4,0.0018379389,0.0023155552,0.0014084659034164031,0.006146302259329543,2.7265189805225196,4.3085077917557095,11.961542039365465,11.96154203936544,-1.102010266406665,2.7372891233589622,-1.0190717682891075,11.86882107897982,0.5142064423694733,0.8153203586126029,-177.82984747542608,-172.55484113970894,64.96,17.27,17.27,6.173,1.2386394,0,3377,4.316,12.0,1.238,98,24.7,OK,167,0,0,0,0,0,65,100,0.0,0,0.0,-5.4219527E-8,2.68E-43,0.0,-1.05007105E-23,62,5.093148E-12,-5.093177E-12,1.2980162E-37,False,False,0,None,9.284744E29,1.0842106E-19,NONE,0.0,0.0,0.0,NONE,-5.430167874720391E-11,7.978160330527304E-11,0.0,
675620242,175.591,13.992573678403202,66.3851343470156,17,-112.63152,-112.4473,0.07408159,-0.048010062,-0.98533314,0.98927975,0.15794948,-0.10143135,0.06846744,0.19981028,351,-26,1496,1536.0,0.0076368824,-0.0021301836,0.006555283,0.0102874385,0.00792840800876568,0.03948695326197938,2.7345138137300324,4.311389342775328,16.91100130656798,16.911001306567982,-1.2365066881537283,3.2468458350270626,-0.8353377774032279,11.891740524449357,0.49685576420338207,0.9467931358286846,,,64.98,,,13.9925742,66.3851347,20190516,110027,2019-05-16T11:00:27Z,65.997,0.71,1.54,8.84,9,8,17,0.0,0.0,0.01,0,0,0,0,5,5,13.992562889654794,66.38513548181561,50,false,false,false,false,false,false,false,false,false,false,0,0,0,0,49,63,62,50,945,945,944,945,940,940,940,940,0.0,0.0,0.0,0.0,1716.5,1710.9,1710.9,1716.5,0.0,0.0,0.0,0.0,0,0,0,0,-45.0,13.992573825985358,66.38513383815797,0,-112.367294,-111.58875,0.07503409,-0.047907073,-0.9850008,0.9890155,0.2646205,0.072147675,-0.14446339,0.30999833,346,-26,1496,1535.0,-2.8530238E-4,3.0594718E-4,-6.2723586E-5,4.2300753E-4,4.183313511721528E-4,0.06967895026658827,2.7209344081014155,4.290419503586346,11.962199848938617,11.96219984893861,-1.2448201975537805,3.1580440574846236,-1.1079176074673953,11.98881794541635,0.5202963466129762,0.9086990067931817,165.81625318121596,171.0912595169331,64.95,17.269,17.269,6.171,1.2386394,0,3377,4.316,12.0,1.238,98,24.7,OK,167,0,0,0,0,0,65,100,0.0,0,0.0,-3.2718717E-11,2.68E-43,0.0,-1.05007105E-23,62,5.093148E-12,-5.093177E-12,1.289464E-37,False,False,0,None,9.178165E29,1.0842106E-19,NONE,0.0,0.0,0.0,NONE,-1.572242433710319E-10,4.015852515001006E-13,0.0,
679575522,176.619,13.992573568677425,66.38513398478084,17,-112.599815,-112.46393,0.075847454,-0.04813838,-0.9850368,0.98912466,0.16351995,-0.052835423,-0.03406949,0.17518872,343,-26,1493,1532.0,0.006608995,-0.0046900846,0.0052666734,0.009665069,0.008104055224677513,0.031366483009110845,2.7244820810109984,4.315829087768508,16.909494861461486,16.909494861461496,-1.3054671512624452,3.471579441259931,-0.8580631825210925,12.048596044462794,0.5039636829108274,0.9979594869081239,153.89052134501551,159.16552768073265,65.0,,,13.9925741,66.3851344,20190516,110028,2019-05-16T11:00:28Z,65.973,0.71,1.54,8.84,9,8,17,0.0,0.0,0.01,0,0,0,0,5,5,13.992562889654794,66.38513548181561,50,false,false,false,false,false,false,false,false,false,false,0,0,0,0,50,63,61,50,945,944,944,945,940,940,940,940,0.0,0.0,0.0,0.0,1715.9,1711.6,1710.9,1715.3,0.0,0.0,0.0,0.0,0,0,0,0,-45.0,13.992573739700044,66.38513338441903,0,-112.48884,-111.58746,0.07564225,-0.04729327,-0.9823428,0.9863852,0.26451147,-0.06823308,0.019891672,0.27389368,343,-26,1493,1532.0,0.0010079589,-0.0015356045,-7.082504E-4,0.0019686748,0.0018368620223845327,0.04738652128612284,2.6985445243713593,4.2998260271793995,11.958849458492109,11.958849458492125,-1.3783118426656216,3.307344260491294,-1.0853887992200002,11.977539830068004,0.5366250512783161,0.9692588436741926,-177.50160824857699,-172.22660191285985,64.98,17.269,17.269,6.17,1.2383958,0,3376,4.316,12.0,1.238,98,24.7,OK,169,0,0,0,0,0,65,100,0.0,0,0.0,-1.1184144E-19,2.68E-43,0.0,-1.05007105E-23,62,5.093148E-12,-5.093177E-12,1.303268E-37,False,False,0,None,9.350316E29,1.0842106E-19,NONE,0.0,0.0,0.0,NONE,-9.607219822132921E-11,-2.007926257008117E-12,-7.6293945E-6,
