Tick#,offsetTime,IMU_ATTI(0):Longitude,IMU_ATTI(0):Latitude,IMU_ATTI(0):numSats,IMU_ATTI(0):barometer:Raw,IMU_ATTI(0):barometer:Smooth,IMU_ATTI(0):accel:X,IMU_ATTI(0):accel:Y,IMU_ATTI(0):accel:Z,IMU_ATTI(0):accel:Composite,IMU_ATTI(0):gyro:X,IMU_ATTI(0):gyro:Y,IMU_ATTI(0):gyro:Z,IMU_ATTI(0):gyro:Composite,IMU_ATTI(0):mag:X,IMU_ATTI(0):mag:Y,IMU_ATTI(0):mag:Z,IMU_ATTI(0):mag:Mod,IMU_ATTI(0):velN,IMU_ATTI(0):velE,IMU_ATTI(0):velD,IMU_ATTI(0):velComposite,IMU_ATTI(0):velH,IMU_ATTI(0):GPS-H,IMU_ATTI(0):roll,IMU_ATTI(0):pitch,IMU_ATTI(0):yaw,IMU_ATTI(0):yaw360,IMU_ATTI(0):totalGyro:Z,IMU_ATTI(0):totalGyro:X,IMU_ATTI(0):totalGyro:Y,IMU_ATTI(0):magYaw,IMU_ATTI(0):distanceHP,IMU_ATTI(0):distanceTravelled,IMU_ATTI(0):directionOfTravel[mag],IMU_ATTI(0):directionOfTravel[true],IMU_ATTI(0):temperature,General:relativeHeight,General:absoluteHeight,GPS(0):Long,GPS(0):Lat,GPS(0):Date,GPS(0):Time,GPS:dateTimeStamp,GPS(0):heightMSL,GPS(0):hDOP,GPS(0):pDOP,GPS(0):sAcc,GPS(0):numGPS,GPS(0):numGLNAS,GPS(0):numSV,GPS(0):velN,GPS(0):velE,GPS(0):velD,RC:Aileron,RC:Elevator,RC:Rudder,RC:Throttle,Controller:navHealth,Controller:ctrl_level,HP:Longitude,HP:Latitude,HP:rthHeight,BatBlackBox:tick,BatBlackBox:id,BatBlackBox:rsoc,BatBlackBox:index,BatBlackBox:rm,BatBlackBox:fcc,BatBlackBox:cell_min,BatBlackBox:cell_max,BatBlackBox:current,BatBlackBox:voltage,BatBlackBox:temp,BatBlackBox:flag,BatBlackBox:reserve,BatBlackBox:user_data,OA:avoidObst,OA:emergBrake,OA:radiusLimit,OA:airportLimit,OA:groundForceLanding,OA:horizNearBoundary,OA:vertLowLimit,OA:vertAirportLimit,OA:roofLimit,OA:hitGroundLimit,Motor:Speed:RFront,Motor:Speed:LFront,Motor:Speed:LBack,Motor:Speed:RBack,Motor:EscTemp:RFront,Motor:EscTemp:LFront,Motor:EscTemp:LBack,Motor:EscTemp:RBack,Motor:PPMrecv:RFront,Motor:PPMrecv:LFront,Motor:PPMrecv:LBack,Motor:PPMrecv:RBack,Motor:PPMsend:RFront,Motor:PPMsend:LFront,Motor:PPMsend:LBack,Motor:PPMsend:RBack,Motor:V_out:RFront,Motor:V_out:LFront,Motor:V_out:LBack,Motor:V_out:RBack,Motor:Volts:RFront,Motor:Volts:LFront,Motor:Volts:LBack,Motor:Volts:RBack,Motor:Current:RFront,Motor:Current:LFront,Motor:Current:LBack,Motor:Current:RBack,Motor:Status:RFront,Motor:Status:LFront,Motor:Status:LBack,Motor:Status:RBack,Motor:thrustAngle,IMU_ATTI(1):Longitude,IMU_ATTI(1):Latitude,IMU_ATTI(1):numSats,IMU_ATTI(1):barometer:Raw,IMU_ATTI(1):barometer:Smooth,IMU_ATTI(1):accel:X,IMU_ATTI(1):accel:Y,IMU_ATTI(1):accel:Z,IMU_ATTI(1):accel:Composite,IMU_ATTI(1):gyro:X,IMU_ATTI(1):gyro:Y,IMU_ATTI(1):gyro:Z,IMU_ATTI(1):gyro:Composite,IMU_ATTI(1):mag:X,IMU_ATTI(1):mag:Y,IMU_ATTI(1):mag:Z,IMU_ATTI(1):mag:Mod,IMU_ATTI(1):velN,IMU_ATTI(1):velE,IMU_ATTI(1):velD,IMU_ATTI(1):velComposite,IMU_ATTI(1):velH,IMU_ATTI(1):GPS-H,IMU_ATTI(1):roll,IMU_ATTI(1):pitch,IMU_ATTI(1):yaw,IMU_ATTI(1):yaw360,IMU_ATTI(1):totalGyro:Z,IMU_ATTI(1):totalGyro:X,IMU_ATTI(1):totalGyro:Y,IMU_ATTI(1):magYaw,IMU_ATTI(1):distanceHP,IMU_ATTI(1):distanceTravelled,IMU_ATTI(1):directionOfTravel[mag],IMU_ATTI(1):directionOfTravel[true],IMU_ATTI(1):temperature,IMUEX(0):err,IMUEX(0):rtk_Longitude,IMUEX(0):rtk_Latitude,IMUEX(0):rtk_Alti,IMUEX(1):err,IMUEX(1):rtk_Longitude,IMUEX(1):rtk_Latitude,IMUEX(1):rtk_Alti,MotorCtrl:Status,MotorCtrl:PWM:RFront,MotorCtrl:PWM:LFront,MotorCtrl:PWM:LBack,MotorCtrl:PWM:RBack,BattInfo:Voltage,BattInfo:BatVoltage,BattInfo:AdVoltage,BattInfo:AvgCurrent,BattInfo:R_time,BattInfo:R_CAP_MAH,BattInfo:LowCellVoltage,BattInfo:LowCellVolThreshold,BattInfo:BatCurrent,BattInfo:Remaining%,BattInfo:Temp,BattInfo:status,battery_info:BatDynCnt,battery_info:Vol1Protect,battery_info:Vol2Protect,battery_info:Cap1Protect,battery_info:Cap2Protect,battery_info:Batpresent,battery_info:sopPercentage,battery_info:sopValue,battery_info:sopScale,battery_info:sopFlg,BattInfo:WindHeading:WindDir,battery_info:home_dir,BattInfo:Wind:rangeMin,BattInfo:Wind:rangeMax,battery_info:cap_speed,battery_info:against_wind,battery_info:emergency_land_cap,battery_info:intel_bat_land_cap,battery_info:intel_bat_gh_cap,BattInfo:Smart:SmartGh,BattInfo:Smart:SmartLand,BattInfo:GoHome:CntDown,BattInfo:GoHome:GhCmd,BattInfo:GoHome:CapLevel,BattInfo:GoHome:LandCapLv,Attribute|Value,ConvertDatV3,3.6.6-Tablet
368192787,.000,14.090723312776069,66.33833741165668,13,-43.32876,-43.24974,0.053801168,-0.015639804,-0.9839242,0.98551816,0.41035333,-0.08327631,0.12702592,0.43756187,415,56,1707,1757.0,0.015169246,-0.0063089654,0.0077753,0.018175928,0.016428909555259615,-0.016428909555259615,0.7768788192749442,3.081336998839027,-35.31488823832831,324.6851117616717,-966.2059578308156,244.56347848683257,-151.31943563699605,-3.713116836221811,3.1450484680582553,35.06011774047987,-59.3806077664141,-54.060352809647796,50.79,-1.2681652397460965,,14.0907234,66.3383376,20190517,122948,2019-05-17T12:29:48Z,95.987,0.84,1.67,10.17,9,4,13,0.0,0.0,-0.01,-9994,-9984,9974,-9972,4,4,14.090789525134912,66.33834709919257,50,1841567,48,99,186,3545,3545,4387,4396,169,17547,28,212,17550,0,false,false,false,false,false,false,false,false,false,false,0,0,0,0,48,59,60,47,943,945,944,944,940,940,940,940,0.0,0.0,0.0,0.0,1720.8,1715.3,1716.5,1720.8,0.0,0.0,0.0,0.0,0,0,0,0,-45.0,14.090723847916824,66.33833682548263,0,-43.254776,-43.062904,0.05451395,-0.015478898,-0.9823615,0.98399466,0.36293992,-0.101742566,0.10625943,0.39162228,415,56,1710,1760.0,2.9739469E-5,8.8810065E-4,3.3839876E-4,9.5085276E-4,8.885984545292202E-4,-8.885984545292202E-4,0.28023764116809413,2.5528007435732376,-32.6710455760603,327.3289544239397,-966.3060802333836,229.8335705335766,-148.7955397794216,-5.544016190126867,3.1457021098586013,35.60424858337715,80.62712157295874,85.94737652972505,50.79,NONE,0.0,0.0,0.0,NONE,3.735620983758496E-11,2.041369762361847E-11,-3.8146973E-6,,,,,,17.31,17.31,6.184,1.2622002,0,3501,4.323,12.0,1.257,99,22.5,OK,91,0,0,0,0,0,65,100,0.0,0,0.0,-1.4012795E-23,8.8E-44,0.0,-1.05007105E-23,62,2.6076918E-9,-2.6077067E-9,1.5196147E-33,False,False,0,None,4.5654436E33,1.0842106E-19,Firmware Date| Oct 17 2018
372046945,1.002,14.090723598390182,66.33833741911984,13,-43.34144,-43.240704,0.054817636,-0.020467801,-0.98192817,0.9836701,0.29743472,-0.35654694,-0.8166471,0.9394177,418,53,1710,1761.0,0.012381374,-0.00888483,-0.004985686,0.016034205,0.01523937754918599,-0.0024878584311704387,0.8067127015807231,3.09207966243299,-35.36923370989694,324.63076629010305,-966.0599387549663,244.92831359968397,-151.06743861610687,-3.247583044321642,3.1327912920126018,35.12036367640882,-22.642867436929755,-17.32261248016345,51.07,-0.31526529345703125,,14.0907232,66.3383376,20190517,122949,2019-05-17T12:29:49Z,96.022,0.84,1.67,10.01,9,4,13,0.0,0.0,-0.01,0,0,0,0,4,4,14.090789525134912,66.33834709919257,50,1841567,48,99,187,3545,3545,4387,4396,169,17547,28,212,17550,0,false,false,false,false,false,false,false,false,false,false,545,551,565,554,52,64,64,53,1330,1340,1336,1333,1322,1322,1322,1322,0.1,0.1,0.1,0.1,1686.4,1680.9,1680.9,1686.4,7.89,7.36,8.01,7.58,0,0,0,0,36.469234390051895,14.090723631757086,66.33833684274816,0,-43.34144,-43.061535,0.05469299,-0.022188958,-0.98165315,0.9834259,0.96355337,-0.52573127,-0.87643474,1.4046233,421,53,1710,1761.0,0.002452785,0.0021923361,-9.6675847E-4,0.0034288648,0.003289755504058832,0.006529387232784899,0.28448903510971796,2.556321904173771,-32.67591612853769,327.32408387146234,-966.427236054678,230.37461546839216,-148.70901372810073,-5.118895547932928,3.15399719538994,35.67066429845193,-115.62537559350459,-110.30512063673828,51.02,NONE,0.0,0.0,0.0,NONE,1.06732028209032E-10,8.767850454273019E-11,3.8146973E-6,1,22.5,22.5,22.5,22.5,17.224,17.224,6.061,1.3051736,0,3500,4.321,12.0,3.513,99,22.5,OK,92,0,0,0,0,0,65,100,0.0,0,0.0,-1.8692343E-23,8.8E-44,0.0,-1.05007105E-23,62,2.6076918E-9,-2.6077067E-9,1.6932884E-33,False,False,0,None,5.158308E33,1.0842106E-19,ACType|MavicEnterprise
375915110,2.007,14.090723159827018,66.33833741876728,13,-43.34144,-43.238453,0.05288521,-0.0141037945,-0.98562366,0.98714226,-1.3179834,-0.853895,1.5299587,2.192485,424,56,1707,1759.0,0.014164083,-3.1500752E-4,-0.008160497,0.016349746,0.014167585356102384,0.005300410687490115,0.8463370393397596,3.0433199595170892,-35.08496086171267,324.91503913828734,-964.5718256280688,245.08688299552517,-151.25146210615966,-3.4265605500482916,3.1511918863251362,35.15601029709627,4.613887770892132,9.934142727658436,51.35,-0.31526529345703125,,14.0907228,66.3383376,20190517,122950,2019-05-17T12:29:50Z,96.001,0.84,1.67,9.88,9,4,13,0.0,-0.01,0.0,0,0,0,0,4,4,14.090789525134912,66.33834709919257,50,1841568,19,100,188,3545,3545,4382,4392,127,17542,28,1,17550,0,false,false,false,false,false,false,false,false,false,false,2097,2068,2144,2117,52,65,66,51,1206,1208,1210,1209,1201,1200,1202,1203,0.0,0.0,0.0,0.0,1713.4,1709.1,1709.1,1714.0,0.63,0.26,0.8,0.31,0,0,0,0,-1.1934894239820437,14.090723397821511,66.33833682837944,0,-43.34144,-43.061104,0.053369217,-0.012148468,-0.98269814,0.9842212,-0.2906316,0.40592384,1.7752564,1.8441193,424,53,1707,1759.0,-0.0023367277,0.0037365532,-0.002142426,0.0049002157,0.004407054182799937,0.006098329999080047,0.2798927916605893,2.5055849827282257,-32.42242496052762,327.5775750394724,-966.9328509626332,231.60835879653882,-149.43129282716683,-5.122225354377841,3.164309060539707,35.702563665510375,-102.11224124727642,-96.79198629051011,51.33,NONE,0.0,0.0,0.0,NONE,5.336601405995859E-11,-6.987508299533339E-11,-7.6293945E-6,2,10.0,10.03,10.53,10.5,17.065,17.065,6.161,1.4737259,0,3499,4.322,12.0,3.958,99,22.5,OK,93,0,0,0,0,0,65,100,0.0,0,0.0,-1.9902418E-23,8.8E-44,0.0,-1.05007105E-23,62,2.6076918E-9,-2.6077067E-9,1.727942E-33,False,False,0,None,5.3352245E33,1.0842106E-19,dateTime|2019-5-17 12:28:51 GMT
379766987,3.008,14.090723030641342,66.33833769608559,13,-43.34144,-43.188343,-0.029054388,0.020154152,-1.2976239,1.2981056,-3.2509837,12.81248,1.0139023,13.257319,570,44,1653,1749.0,0.07917036,0.07422827,-0.50358725,0.51514846,0.1085254938376904,-0.07718883785670937,0.17303996724848641,-1.4015681921834013,-35.016735950464266,324.9832640495357,-964.3557247691849,246.0245494890717,-154.89659943154257,-4.2141264952618345,0.08126235982207618,35.20306593880487,40.40367695799552,45.72393191476183,51.69,-0.31526529345703125,,14.0907224,66.3383377,20190517,122951,2019-05-17T12:29:51Z,95.967,0.84,1.67,9.81,9,4,13,-0.01,0.02,-0.03,0,0,0,10000,4,4,14.090722989975223,66.33833696545788,50,1841569,114,100,189,3545,3545,4381,4390,0,17524,28,3537,716,0,false,false,false,false,false,false,true,false,false,false,6008,6064,4983,5118,49,63,63,50,1586,1578,1484,1513,1570,1581,1492,1504,0.0,0.0,0.0,0.0,1649.0,1644.1,1644.7,1649.0,6.07,4.98,4.26,4.37,0,0,0,0,-177.70474629894372,14.090723209160771,66.33833696860908,0,-43.34144,-43.021763,-0.023859689,0.013164316,-1.281366,1.2816557,3.1865482,11.087216,9.566263,14.986455,576,53,1656,1754.0,0.038101047,0.07241169,-0.4272901,0.43505397,0.0818238531672602,-0.06412245909464805,-0.3495373396354704,-2.2722679490720483,-32.35486128548174,327.6451387145183,-965.7786531216592,233.09778104411407,-154.0162122632069,-7.054588902998982,0.009787739788427518,35.74893847859186,83.88894722355052,89.20920218031682,51.7,NONE,0.0,0.0,0.0,NONE,4.178558873405875E-9,1.0829299116543638E-9,-0.0016403198,2,59.98,59.51,45.02,47.78,17.147,17.147,6.017,1.7433997,0,3498,4.247,12.0,2.511,99,22.5,OK,94,0,0,0,0,0,65,100,0.0,0,0.0,-2.0158444E37,2.68E-43,0.0,-1.05007105E-23,62,2.6445264E-9,-2.626124E-9,5.4376956E-36,False,False,0,None,1.6045347E29,1.093872E-19,geoDeclination|532 degrees
383664591,4.021,14.09072517440952,66.33833701906163,13,-42.895443,-42.8139,-0.034214042,0.008377875,-0.9377512,0.9384125,-1.5288012,1.3667272,4.445476,4.8956547,544,41,1538,1631.0,-0.04251603,0.057312097,0.118748724,0.13854079,0.07136027815789966,0.04881772663610022,0.481165890451317,-3.428178504939541,-35.071883214256474,324.92811678574355,-963.3433520874698,245.76271569902434,-155.12891193752867,-3.562748430535366,0.09766552735730424,35.34000790829396,120.99920159779673,126.31945655456303,52.01,0.13073003735351563,,14.0907247,66.3383374,20190517,122952,2019-05-17T12:29:52Z,96.552,0.84,1.67,9.75,9,4,13,-0.05,0.16,-0.36,0,0,0,0,4,4,14.090722989975223,66.33833696545788,50,1918139,16,100,190,3534,3545,4356,4367,-612,17454,20,0,16132,0,false,false,false,false,false,false,true,false,false,false,5223,5175,4741,4840,51,64,63,51,1490,1499,1462,1453,1492,1493,1443,1451,0.0,0.0,0.0,0.0,1668.7,1664.4,1663.1,1669.3,3.82,3.4,3.64,3.23,0,0,0,0,-169.80010204566096,14.090725823671155,66.33833662873823,0,-42.57863,-42.48604,-0.03307371,0.005760151,-0.9483498,0.9489438,0.78321326,-0.50821114,8.458984,8.510353,541,38,1538,1630.0,-0.052221466,0.083767556,0.018432999,0.100418426,0.09871213386151823,0.022361646915713795,-0.3242057448400333,-3.659653943942199,-32.34772378270386,327.65227621729616,-965.1857748126981,234.32159170710622,-155.67092541136213,-6.035030115602173,0.13188410276770773,35.910572958142374,88.00103498853305,93.32128994529936,52.05,NONE,0.0,0.0,0.0,NONE,4.258607488369022E-9,-3.12796175491573E-9,-2.2888184E-4,2,46.26,47.56,41.26,41.34,17.147,17.147,6.017,2.1013515,0,3497,4.293,12.0,7.205,99,22.5,OK,95,0,0,0,0,0,65,100,0.0,0,0.0,-1.7423633E-38,2.68E-43,0.0,-1.05007105E-23,62,4.607614E-9,-3.3870868E-9,7.901574E-36,False,False,0,None,3.0521508E29,1.4938304E-19,geoInclination|7644 degrees
387546331,5.030,14.090728433535482,66.33833741129271,13,-42.551357,-42.88795,-0.03623564,0.0034003146,-1.1603425,1.1609131,3.1012075,-1.6020824,2.1172159,4.0824943,504,-23,1544,1624.0,0.04378222,0.080839664,0.044935036,0.10232835,0.09193440037623304,0.05857571949175375,-1.227167942439627,-1.840007463615686,-35.235738673374534,324.76426132662544,-968.6867744707927,239.93953306516323,-155.27094102569126,-1.2704934404655737,0.247933389219692,35.49796244543048,73.43427022396385,78.75452518073016,52.29,0.4748157307128906,,14.0907278,66.3383377,20190517,122953,2019-05-17T12:29:53Z,96.592,0.84,1.67,9.7,9,4,13,0.04,0.08,-0.12,0,0,0,480,4,4,14.090722989975223,66.33833696545788,50,1918139,20,100,191,3534,3545,4356,4367,-612,17454,20,2,16132,0,false,false,false,false,false,false,true,false,false,false,5995,5771,5396,5382,50,62,63,51,1607,1599,1544,1541,1606,1606,1549,1533,0.0,0.0,0.0,0.0,1630.6,1628.8,1627.6,1630.6,6.64,5.57,5.33,4.78,0,0,0,0,-168.0003264139276,14.09072880044888,66.33833688611873,0,-42.868835,-42.508083,-0.039627865,0.0065236976,-1.3020529,1.302672,-13.140732,-3.7344072,-19.46988,23.784466,507,-23,1544,1625.0,-0.011066783,0.029406566,-0.22486788,0.22705238,0.031420055013509585,0.1032790965374226,-1.4478678110027798,-2.3872193829279795,-32.609839783373246,327.3901602166268,-961.4737854603618,234.6810811873443,-157.1217733755252,-2.074614313801688,0.2594506541817405,36.054562708314066,85.02475073073055,90.34500568749685,52.28,NONE,0.0,0.0,0.0,NONE,1.8838201375705792E-9,-2.068810947075925E-10,-4.348755E-4,2,63.48,60.9,54.16,55.42,16.845,16.845,5.939,2.6422083,0,3495,4.218,12.0,6.984,99,22.6,OK,96,0,0,0,0,0,65,100,0.0,0,0.0,-1398.8125,2.68E-43,0.0,1.05007105E-23,63,4.5997695E-9,-3.3851542E-9,1.0153564E-35,False,False,0,None,5.076618E29,1.4928047E-19,geoIntensity|5257429 nanoTesla
391459743,6.047,14.090727095438075,66.33833692196076,13,-40.854305,-41.38536,-0.02601165,0.0037570056,-0.5936327,0.5942142,0.33883885,-2.3926759,-3.6448584,4.37318,424,72,1467,1528.0,-0.28487822,-0.32257894,-0.67422223,0.79986775,0.4303635394232099,-0.3509339053469384,-0.8805230514033309,-2.1647795623849335,-35.230503146201386,324.7694968537986,-966.9463341719355,241.77869329117377,-155.90734559672202,-14.394736516357966,0.18327592880952792,35.6511142582509,-142.85291293972958,-137.5326579829633,52.57,2.1718677326660156,,14.0907266,66.3383375,20190517,122954,2019-05-17T12:29:54Z,97.704,0.84,1.67,9.76,9,4,13,-0.21,-0.34,-0.96,0,0,0,0,4,4,14.090722989975223,66.33833696545788,50,1918141,114,100,192,3533,3545,4278,4302,-2944,17094,20,3545,17306,0,false,false,false,false,false,false,true,false,false,false,4265,4305,3801,4031,51,64,65,51,1394,1394,1333,1369,1387,1385,1339,1360,0.0,0.0,0.0,0.0,1689.5,1684.0,1684.0,1688.2,2.52,1.87,1.69,1.64,0,0,0,0,-165.5625832187776,14.09072717955494,66.33833666677818,0,-41.467274,-41.045258,-0.025484353,0.0061416095,-0.57190156,0.572502,-1.5034664,-2.1504047,-0.7347034,2.7247827,421,72,1470,1530.0,-0.018924238,-0.036155023,-0.8518317,0.8528086,0.040808239947162206,0.03424579086333916,-0.36601141469195075,-2.400906095746521,-32.50363570322205,327.4963642967779,-962.2359319028621,235.913778800859,-157.69588777788107,-12.771191375815324,0.18989279873344142,36.172098572461984,-117.8233490647756,-112.5030941080093,52.58,NONE,0.0,0.0,0.0,NONE,-2.3481039632985544E-9,-1.583232410734724E-10,-0.0042381287,2,34.82,34.05,27.9,31.34,16.849,16.849,6.053,3.3945136,0,3493,4.195,12.0,9.583,99,22.6,OK,97,0,0,0,0,0,65,100,0.0,0,0.0,-1.4257466E-8,2.68E-43,0.0,1.05007105E-23,63,2.1438609E-8,-7.1502497E-9,1.2577518E-35,False,False,0,None,7.910824E29,2.974823E-19,mcID(SN)|298DG13001W644
395403108,7.072,14.090724623961572,66.33833671266338,13,-41.178284,-41.324886,-0.028808765,0.010576035,-1.011967,1.0124321,-7.7792697,-3.2262702,-3.9669986,9.309293,407,75,1473,1530.0,0.09759118,0.010849177,-0.018195145,0.09986393,0.09819237411209589,0.011794809790876853,-0.5588570056019065,-1.5080585232175008,-35.20672230108202,324.79327769891796,-967.2767215701056,242.53561399457715,-156.04397743881427,-13.645199191321058,0.07814932145392403,35.80655392214872,-58.24597234283884,-52.925717386072535,52.86,1.84788930859375,,14.0907247,66.338337,20190517,122955,2019-05-17T12:29:55Z,98.129,0.84,1.67,9.83,9,4,13,0.07,0.02,-0.47,0,0,0,0,4,4,14.090722989975223,66.33833696545788,50,1918141,114,100,192,3533,3545,4278,4302,-2944,17094,20,3545,17306,0,false,false,false,false,false,false,true,false,false,false,5433,5492,4909,5033,51,64,64,50,1521,1530,1465,1487,1515,1515,1452,1476,0.0,0.0,0.0,0.0,1659.4,1655.2,1655.2,1658.2,4.36,3.96,3.65,3.24,0,0,0,0,-176.21687494231483,14.090725248413762,66.33833634030155,0,-40.966896,-41.036835,-0.02793399,0.010734302,-1.0092705,1.0097141,4.8401628,3.5571578,9.124902,10.924485,407,78,1470,1527.0,0.009544114,-0.013083177,0.044809822,0.047646403,0.016194431824070456,0.07505085943240379,-0.30538097297853234,-1.6164103971466328,-32.509983748495635,327.49001625150436,-963.3488063188524,235.29684486605169,-156.31256088407284,-13.219856966937003,0.1224338508245292,36.3027260316164,-119.98111497392323,-114.66086001715692,52.92,NONE,0.0,0.0,0.0,NONE,-8.431827378781591E-10,2.1487919799528443E-10,1.1444092E-4,2,49.78,49.11,41.36,44.85,16.77,16.77,5.966,4.251258,0,3490,4.189,12.0,6.063,99,22.7,OK,98,0,0,0,0,0,65,100,0.0,0,0.0,5.8307174E33,2.68E-43,0.0,1.05007105E-23,63,2.1530468E-8,-7.1616184E-9,1.12800184E-35,False,False,0,None,6.1477263E29,2.9808449E-19,mcVer|v3.4.1.6
399281562,8.080,14.090723731087266,66.33833636404934,13,-40.999,-41.3256,-0.02498592,0.0032065166,-0.9825075,0.9828304,-0.18818623,3.2164102,-1.9882437,3.786003,415,75,1473,1532.0,0.06342512,-0.037116766,-0.054098222,0.0912525,0.07348741803042205,-0.018337371864389607,-0.6124467329579255,-1.7822747535655519,-35.14319602490636,324.8568039750936,-964.479540975096,244.94392244782836,-152.82752828091245,-13.814941296907623,0.07460503089760845,35.91898354931653,-123.48303316590784,-118.16277820914154,53.18,2.0271724506835938,,14.0907233,66.3383365,20190517,122956,2019-05-17T12:29:56Z,98.179,0.84,1.67,9.84,9,4,13,0.03,-0.02,-0.25,0,0,0,0,4,4,14.090722989975223,66.33833696545788,50,1918141,114,100,192,3533,3545,4278,4302,-2944,17094,20,3545,17306,0,false,false,false,false,false,false,true,false,false,false,5362,5446,4792,4998,50,65,65,50,1514,1520,1449,1478,1509,1508,1437,1474,0.0,0.0,0.0,0.0,1660.0,1655.8,1655.8,1660.7,4.21,3.81,3.42,3.14,0,0,0,0,-173.16610414842495,14.090723947388991,66.33833558333443,0,-40.851017,-40.968407,-0.025955873,0.010054273,-0.9829543,0.98334837,-5.9549885,2.086566,-10.873264,12.571536,415,75,1470,1529.0,0.012296267,0.01427089,-0.012836284,0.022795321,0.018837634817060547,0.08260473890746214,-0.27342625193890524,-1.8765752829287865,-32.47442459775149,327.52557540224853,-968.2246245072868,233.10273355935607,-158.23411408283894,-12.608594373048396,0.15951370497357575,36.408067642123655,-141.29640417392991,-135.97614921716362,53.17,NONE,0.0,0.0,0.0,NONE,4.909671502820005E-10,1.7920543470694392E-10,-5.722046E-5,2,48.64,48.12,39.45,44.36,16.762,16.762,5.967,5.040085,0,3489,4.186,12.0,7.214,99,22.6,OK,99,0,0,0,0,0,65,100,0.0,0,0.0,-7.2633796E-34,2.66E-43,0.0,1.05007105E-23,63,2.3070243E-8,-7.354204E-9,1.201158E-35,False,False,0,None,7.348335E29,3.0820256E-19,
403137637,9.082,14.090720377158616,66.33833593772432,13,-40.122093,-40.40584,-0.021725465,0.007346223,-0.79445183,0.79478276,1.62305,0.3596094,-4.3255544,4.634008,407,84,1467,1524.0,-0.15826106,-0.34814227,-0.30544746,0.48943615,0.3824259304809622,-0.22576531539925765,-1.3314939545785023,-1.66069437252066,-35.46304844518094,324.53695155481904,-966.4488706401489,243.85419054511672,-151.54571471180765,-17.95315136824317,0.16326464785435918,36.102027050739245,-101.74891799965764,-96.42866304289133,53.55,2.9040797993164063,,14.0907208,66.3383364,20190517,122957,2019-05-17T12:29:57Z,99.164,0.84,1.67,9.86,9,4,13,0.04,-0.11,-0.79,0,0,0,0,4,4,14.090722989975223,66.33833696545788,50,1918141,114,100,192,3533,3545,4278,4302,-2944,17094,20,3545,17306,0,false,false,false,false,false,false,true,false,false,false,4954,4859,4330,4457,53,65,65,52,1476,1474,1412,1432,1475,1469,1409,1424,0.0,0.0,0.0,0.0,1665.0,1660.7,1660.7,1666.8,4.04,3.36,3.22,2.96,0,0,0,0,-167.79088024150377,14.090720528200373,66.33833566454655,0,-40.11679,-40.056618,-0.022885382,0.0069666076,-0.7720124,0.772383,4.42951,1.9085933,2.1567297,5.283443,410,81,1467,1525.0,0.010627307,-0.0033991386,-0.38439563,0.38455755,0.01115767910517449,0.14136347016634432,-0.5897731295981825,-1.8770978743353266,-32.76314285603866,327.23685714396134,-969.8703934149435,232.29036053853025,-157.76109521889487,-14.876304536538745,0.18164321181393606,36.57485538279488,-105.28669428978033,-99.96643933301402,53.53,NONE,0.0,0.0,0.0,NONE,-5.870258518414124E-11,2.471060204134967E-10,-0.0010490417,2,42.98,41.72,35.63,37.68,16.797,16.797,6.025,5.728912,0,3487,4.181,12.0,8.777,99,22.6,OK,100,0,0,0,0,0,65,100,0.0,0,0.0,1.8102924E-15,8.8E-44,0.0,1.05007105E-23,63,5.727452E-8,-1.2374644E-8,1.6729217E-35,False,False,0,None,1.1858692E30,4.516572E-19,
406991008,10.083,14.090716062865114,66.33833736056994,13,-38.766552,-39.472313,-0.0384857,0.009667502,-0.9628803,0.9636976,0.6970907,6.6217284,-5.3275137,8.527346,1111,136,1052,1536.0,0.853017,-0.8757779,-0.1856631,1.2365661,1.2225485074769653,-0.9737169665287875,-0.879966922417892,-34.14679299785917,-35.34924809583681,324.6507519041632,-967.9442762407809,244.22349921016263,-187.22907231201316,-24.737673502849034,0.3122385199667361,36.42248399557234,-43.25719995521804,-37.936944998451736,53.78,4.259621028564453,,14.0907172,66.3383372,20190517,122958,2019-05-17T12:29:58Z,100.271,0.84,1.67,9.86,9,4,13,0.38,-0.34,-1.01,0,10000,0,0,4,4,14.090722989975223,66.33833696545788,50,1918141,114,100,192,3533,3545,4278,4302,-2944,17094,20,3545,17306,0,false,false,false,false,false,false,true,false,false,false,5417,5446,4842,5034,51,64,65,51,1527,1535,1473,1505,1523,1530,1469,1489,0.0,0.0,0.0,0.0,1649.0,1644.1,1642.9,1647.8,4.73,4.24,4.33,4.14,0,0,0,0,-170.62242087161303,14.090717534740035,66.33833667608889,0,-38.96356,-38.98445,-0.036534905,0.006729155,-0.93226445,0.9330043,0.59712577,1.8526922,2.3703947,3.0672135,1108,136,1052,1533.0,0.925671,-0.60394365,-0.31809068,1.1501288,1.1052668087105462,-0.9308899651401108,-0.07236681459195496,-34.476877296758914,-32.579503116716715,327.4204968832833,-969.3831923508133,232.99601764205676,-187.05078321830692,-23.35889952673954,0.24556476450261136,36.8577519649703,-42.75040678443939,-37.430151827673086,53.82,NONE,0.0,0.0,0.0,NONE,-8.031579874766469E-9,4.4797664570520574E-9,-0.0025978088,2,48.79,48.59,46.07,50.74,16.809,16.809,5.974,5.728912,0,3487,4.181,12.0,8.777,99,22.6,OK,100,0,0,0,0,0,65,100,0.0,0,0.0,-0.0016128421,8.8E-44,0.0,1.05007105E-23,63,1.827757E-7,-2.1854367E-8,2.3454515E-35,False,False,0,None,2.383112E30,7.6716375E-19,
410928821,11.107,14.090666227303107,66.338364838846,13,-38.815968,-39.477444,-0.19551511,0.015520207,-1.5481212,1.5604955,5.5186825,-4.4986215,2.5450704,7.5611396,1011,118,1141,1529.0,5.208022,-3.647337,-0.32810646,6.3666487,6.358188677834234,-2.6655387092440233,-0.8121703891974126,-28.490535702986225,-35.01783840363378,324.9821615963662,-968.4532113295144,243.16931173601117,-181.93463406366024,-21.24167178163794,4.002850885435968,40.20417946890575,-44.47680169300748,-39.156546736241175,54.15,4.210205440185547,,14.0906687,66.3383632,20190517,122959,2019-05-17T12:29:59Z,100.438,0.84,1.67,9.85,9,4,13,4.52,-3.26,-0.43,0,7974,0,6359,4,4,14.090722989975223,66.33833696545788,50,1918141,114,100,192,3533,3545,4278,4302,-2944,17094,20,3545,17306,0,false,false,false,false,false,false,true,false,false,false,6646,6593,6921,7155,51,65,66,51,1682,1677,1718,1733,1671,1679,1707,1711,0.0,0.0,0.0,0.0,1584.0,1577.3,1577.3,1582.8,7.21,6.09,8.24,8.3,0,0,0,0,-18.926394493313694,14.09066007001485,66.33836804059503,0,-38.96759,-38.879353,-0.20592318,0.02107102,-1.5382643,1.5521293,1.6180516,-28.163828,-1.5123414,28.250778,1005,124,1144,1527.0,5.6213813,-3.7068632,-0.72830737,6.7728276,6.733555011436456,-2.5036989247132047,-0.13676934224863693,-29.25569212468059,-33.6643622450634,326.3356377549366,-967.2998050876513,235.0445759976803,-182.76384870854827,-21.736246035914583,4.452417600723225,41.19158273775332,-45.16184872035775,-39.84159376359145,54.15,NONE,0.0,0.0,0.0,NONE,-1.8556437525882462E-7,1.138604370334683E-7,-4.081726E-4,2,67.48,66.86,68.15,70.37,16.769,16.769,5.83,6.3789835,0,3482,4.22,12.0,8.519,99,22.7,OK,101,0,0,0,0,0,65,100,0.0,0,0.0,3.7935537E-21,9.0E-44,0.0,1.05007105E-23,63,1.9274012E-7,-2.2477371E-8,1.1324856E-32,False,False,0,None,1.6053527E35,7.835353E-19,
414800638,12.113,14.09054753919179,66.33842734538888,13,-37.556164,-38.513214,-0.30470967,0.02470817,-1.2977425,1.3332645,-1.7388682,63.69685,-1.6361763,63.74158,868,167,1289,1562.0,8.720236,-6.526212,-2.2555685,11.123018,10.89192163528455,-2.207799683045213,0.2010912658878918,-15.742727083591047,-33.727600717573694,326.2723992824263,-965.0812511732611,248.4295081949203,-166.36345571800717,-18.501121595354743,12.73981476711387,48.943469267315464,-42.30310558157214,-36.982850624805835,54.34,5.470009212158203,,14.0905538,66.3384243,20190517,123000,2019-05-17T12:30:00Z,101.468,0.84,1.67,9.87,9,4,13,8.1,-6.38,-0.83,0,5385,0,8032,4,4,14.090722989975223,66.33833696545788,50,1918141,114,100,192,3533,3545,4278,4302,-2944,17094,20,3545,17306,0,false,false,false,false,false,false,true,false,false,false,6345,6522,6957,7138,51,66,65,52,1593,1603,1629,1658,1587,1595,1619,1638,0.0,0.0,0.0,0.0,1624.5,1617.1,1618.4,1623.9,4.38,3.39,5.2,4.88,0,0,0,0,-0.1866305435655704,14.090537983734414,66.33843217693416,0,-37.78746,-37.735798,-0.30368835,0.017491568,-1.1824085,1.2209104,-2.9388719,40.02475,4.758281,40.413597,770,167,1357,1569.0,8.796479,-6.441875,-2.5102005,11.188249,10.90301763077687,-1.9843018434556736,1.0890627338904406,-11.835182714071902,-35.12898543335195,324.87101456664806,-965.2894691211973,238.41841749538372,-166.6746687462165,-16.562264509367765,13.425694893836896,50.16913075891976,-43.14116909783291,-37.8209141410666,54.4,NONE,0.0,0.0,0.0,NONE,-9.978611737902986E-7,5.366145358395983E-7,-0.007835388,2,53.72,52.78,60.58,64.99,16.447,16.447,5.638,6.9835677,0,3479,4.179,12.0,9.045,99,22.7,OK,102,0,0,0,0,0,65,100,0.0,0,0.0,1.8123114E-20,9.0E-44,0.0,1.05007105E-23,63,5.238253E-7,-3.7231313E-8,9.521119E-26,False,False,0,None,-1.6730517E-34,1.2799264E-18,
418649314,13.113,14.09039762640979,66.33850939267673,12,-35.05038,-36.422157,-0.33930382,0.020491146,-1.0984366,1.1498303,-6.21754,35.728085,2.3968482,36.34417,988,183,1212,1574.0,10.28493,-7.5361795,-2.3327312,12.962076,12.750442796385789,-1.4400399169208598,0.19016331862942876,-22.569276970824216,-33.511883830421276,326.48811616957875,-961.4006980183239,251.4061230032002,-174.72434559989154,-21.82360894564295,24.050542489506245,60.25706188095579,-40.808246345472874,-35.48799138870657,54.67,7.975792293212891,,14.0904046,66.3385066,20190517,123001,2019-05-17T12:30:01Z,103.645,0.84,1.67,9.88,9,4,13,10.05,-7.22,-1.61,0,7468,0,7626,4,4,14.090722989975223,66.33833696545788,50,1918141,114,100,192,3533,3545,4278,4302,-2944,17094,20,3545,17306,0,false,false,false,false,false,false,false,false,false,false,6199,6485,7143,7212,52,65,66,52,1543,1585,1655,1658,1533,1530,1634,1657,0.0,0.0,0.0,0.0,1633.1,1623.2,1625.1,1631.2,2.85,2.84,5.33,4.23,0,0,0,0,7.399156742635,14.090385024900014,66.3385164961183,0,-35.33509,-35.63642,-0.30196038,0.018972028,-0.8079298,0.86272275,-10.608083,-31.646551,1.8026543,33.425816,922,180,1268,1578.0,10.343812,-7.441593,-2.4275622,12.971692,12.742517407401477,-1.1480154220586432,0.9455467073841932,-22.14421151845036,-35.10388833581031,324.8961116641897,-966.6407645211705,234.7881385730433,-176.80942716140754,-22.984718584150517,25.019743384489068,61.767423833648294,-39.809520914547036,-34.48926595778073,54.66,NONE,0.0,0.0,0.0,NONE,-4.1570221770932804E-7,2.293228042542054E-7,-0.0056610107,2,49.85,48.16,60.0,63.77,15.884,15.884,5.687,7.6402683,0,3475,4.124,12.0,14.717,99,22.7,OK,103,0,0,0,0,0,65,100,0.0,0,0.0,5.3701393E-20,9.0E-44,0.0,1.05007105E-23,63,4.7381036E-6,-1.0854139E-7,6.472401E-20,False,False,0,None,-3.0575293E-29,3.2869777E-18,
422563802,14.131,14.090202018720673,66.33860646329842,13,-36.441685,-34.75087,-0.2081185,0.084560625,-1.0848261,1.1078409,50.446056,40.232574,12.51201,65.72682,49,-832,1428,1653.0,7.543686,-8.894832,-0.22683454,11.665191,11.662985157253708,1.9819570791600896,-31.972846626993483,17.745348289800603,-29.777419985140057,330.22258001485994,-949.8633569699131,219.1049033683921,-134.70685207987617,-5.230755579188327,37.927860494881635,74.18499652719976,-53.99543532964048,-48.67518037287417,54.99,6.584488277099609,,14.090231,66.338597,20190517,123002,2019-05-17T12:30:02Z,105.442,0.84,1.67,9.92,9,4,13,9.24,-8.3,-1.64,-4012,0,0,0,4,4,14.090722989975223,66.33833696545788,50,1918141,114,100,192,3533,3545,4278,4302,-2944,17094,20,3545,17306,0,false,false,false,false,false,false,false,false,false,false,3774,4042,4863,4222,51,65,65,51,1357,1415,1501,1417,1388,1378,1475,1418,0.0,0.0,0.0,0.0,1658.2,1652.7,1653.9,1657.6,2.59,3.34,4.64,2.61,0,0,0,0,35.61448173995694,14.090207973409395,66.33860472166519,0,-36.597515,-34.52638,-0.22097816,0.0800382,-1.1017947,1.1265829,14.980396,47.613297,14.557539,51.99385,106,-844,1411,1647.0,7.705352,-8.820648,-0.18484613,11.713686,11.712228002819918,0.6692092210764091,-31.98132655294132,15.654346366045505,-31.422593098985736,328.5774069010143,-949.711342157994,195.37759503073391,-141.6571523232965,-3.296501791001691,37.61207054735176,74.39689910140885,-50.78514566925448,-45.46489071248818,54.95,NONE,0.0,0.0,0.0,NONE,-4.693686834426341E-7,2.0768238986615538E-7,-0.0028152466,2,33.94,36.21,41.85,32.63,16.227,16.227,6.005,8.468914,0,3472,3.969,12.0,12.371,98,22.8,OK,104,0,0,0,0,0,65,100,0.0,0,0.0,4.08164E-20,9.0E-44,0.0,1.05007105E-23,63,1.9632746E-5,-2.1974215E-7,1.6421276E-19,False,False,0,None,-7.086806E-29,6.30714E-18,
426507277,15.156,14.090028526159015,66.33864969968508,13,-35.6531,-34.774837,-0.028246826,0.038053393,-1.2398232,1.2407286,7.2447596,-6.2938013,-2.9633503,10.0439005,-577,146,1437,1555.0,2.271899,-5.5645423,-0.19469415,6.0136147,6.010462222485862,2.8817196830470584,1.942307685828035,34.59569211005042,-35.98741028473125,324.01258971526875,-944.4359395080087,251.74269557600158,-116.5513596644872,-15.81178725032887,46.580252460492495,83.34598498349673,-73.52304267389101,-68.2027877171247,55.31,7.373073939941406,,14.0900479,66.3386464,20190517,123003,2019-05-17T12:30:03Z,105.701,0.84,1.67,9.9,9,4,13,3.46,-6.85,-0.82,0,-10000,0,0,4,4,14.090722989975223,66.33833696545788,50,1918141,114,100,192,3533,3545,4278,4302,-2944,17094,20,3545,17306,0,false,false,false,false,false,false,false,false,false,false,5324,4551,4060,4374,53,68,68,53,1507,1442,1393,1425,1531,1440,1372,1406,0.0,0.0,0.0,0.0,1660.0,1653.9,1655.2,1657.0,4.37,3.21,2.61,2.53,0,0,0,0,-142.9713886894375,14.090031902944206,66.33864903154345,0,-35.424965,-34.904877,-0.02997571,0.046227135,-1.2828009,1.2839835,6.7331657,-4.2089553,10.308193,13.011906,-574,142,1440,1556.0,2.5461497,-5.784957,0.011434947,6.3205013,6.320490849905585,2.7285770135753182,1.9709307547493753,33.751834141239584,-36.85479771727645,323.1452022827236,-941.8613586749896,232.25443809175675,-120.69077785303952,-15.867228096788999,46.4245709686748,83.71615409619443,-75.16209392234447,-69.84183896557816,55.29,NONE,0.0,0.0,0.0,NONE,-3.562327547339968E-7,7.203174795476385E-8,1.8692017E-4,2,47.55,39.42,34.23,38.77,16.711,16.711,5.953,9.246455,0,3470,4.054,12.0,6.67,98,22.9,OK,105,0,0,0,0,0,65,100,0.0,0,0.0,1.03035685E-22,9.0E-44,0.0,3.474554E-12,64,1.2974022E-5,-1.8480664E-7,4.323194E-19,False,False,0,None,-1.7562016E-28,5.3890623E-18,
430405441,16.169,14.089960854382143,66.33864361131077,13,-32.37586,-34.729336,0.033459947,0.089854956,-1.1346259,1.1386701,-6.0580463,-7.0718417,-1.3803477,9.413619,-549,84,1464,1565.0,-2.9643025,-0.48276487,-0.14543933,3.006876,3.003356645206437,0.05144373147505377,-0.37672066826839734,33.64739508051179,-34.33342505584368,325.6665749441563,-946.1060970953529,249.41456871062533,-120.07956511879682,-14.820977563894008,48.16011722541883,86.97341207713153,-174.97251989524608,-169.6522649384798,55.56,10.650314693115234,,14.0899632,66.3386478,20190517,123004,2019-05-17T12:30:04Z,105.869,0.84,1.67,9.8,9,4,13,-1.81,-1.53,-0.4,0,-9281,0,0,4,4,14.090722989975223,66.33833696545788,50,1918141,114,100,192,3533,3545,4278,4302,-2944,17094,20,3545,17306,0,false,false,false,false,false,false,false,false,false,false,6511,6038,4743,5174,54,67,67,53,1634,1594,1442,1492,1628,1579,1443,1495,0.0,0.0,0.0,0.0,1634.9,1630.0,1630.0,1633.7,6.0,4.69,3.0,3.02,0,0,0,0,-161.04419480257604,14.089961085635295,66.33864440847778,0,-32.372017,-34.6316,0.029078221,0.096212365,-1.1425602,1.1469727,-11.670751,0.6366252,-7.3192334,13.790681,-552,90,1452,1555.0,-2.7059314,-0.6203392,-0.10603527,2.7781522,2.776127845519141,0.38424294756830735,-0.3569922678220758,32.803759797653214,-35.194493065380605,324.8055069346194,-942.8278421750933,228.8651840961682,-119.49642996450198,-17.080171958652848,48.21563743618721,87.4200194524571,-171.0640780950816,-165.74382313831532,55.53,NONE,0.0,0.0,0.0,NONE,-1.2184665160423405E-7,-2.2479936404732214E-8,8.392334E-5,2,64.86,56.7,39.48,47.32,16.658,16.658,5.846,9.639697,0,3468,4.18,12.0,6.025,98,22.9,OK,106,0,0,0,0,0,65,100,0.0,0,0.0,6.5827603E-25,9.0E-44,0.0,3.474554E-12,64,1.5199883E-5,-2.0219618E-7,5.5639823E-19,False,False,0,None,-2.0203467E-28,5.8460365E-18,
434254947,17.169,14.089995454455504,66.3385969178287,13,-33.97092,-34.688065,0.15151094,0.03670416,-1.1091986,1.1201001,-1.0381988,-5.4420996,-6.0345044,8.192042,-560,105,1420,1530.0,-7.153241,3.2493382,0.07152316,7.856982,7.856656706000795,-2.442391002089292,0.5381204898765977,34.203404284813324,-34.82466339820869,325.1753366017913,-945.2323367080915,249.20236516278004,-119.96136082727178,-15.276004022923328,43.46994544697872,92.45568013104503,150.66726623270884,155.98752118947513,56.04,9.05525243725586,,14.0899862,66.3386063,20190517,123005,2019-05-17T12:30:05Z,105.888,0.84,1.67,9.7,9,4,13,-6.21,2.54,-0.1,0,-10000,0,0,4,4,14.090722989975223,66.33833696545788,50,1918141,114,100,192,3533,3545,4278,4302,-2944,17094,20,3545,17306,0,false,false,false,false,false,false,false,false,false,false,6812,6700,4837,4818,52,67,67,52,1666,1674,1455,1454,1656,1648,1460,1464,0.0,0.0,0.0,0.0,1625.1,1619.0,1619.0,1623.9,6.59,5.99,3.22,2.53,0,0,0,0,-178.61875156597668,14.089993932361494,66.33859852561719,0,-33.6686,-34.48144,0.14899412,0.036169317,-1.0879279,1.0986786,8.187507,-1.2127364,7.8900824,11.435007,-557,99,1428,1535.0,-7.0897956,3.1402128,0.022843368,7.754138,7.754104511791491,-2.4482600535184593,0.3068829404296152,33.57681119359105,-35.33278808761502,324.66721191238497,-943.8168360119869,227.72407597835436,-117.52062312228423,-15.654499570033968,43.639645171977435,92.78972507486496,150.27148522738048,155.59174018414677,56.02,NONE,0.0,0.0,0.0,NONE,1.536101745936621E-7,-1.491694481284133E-7,3.8146973E-5,2,66.56,64.45,41.52,42.74,16.466,16.466,5.834,9.679406,0,3466,4.157,12.0,9.258,98,22.9,OK,107,0,0,0,0,0,65,100,0.0,0,0.0,4.1270244E-27,9.0E-44,0.0,3.474554E-12,64,1.9666273E-5,-2.1987312E-7,3.537571E-19,False,False,0,None,-1.4258661E-28,6.310634E-18,
438123052,18.175,14.090103353908663,66.33851902239562,13,-32.947437,-34.788685,0.28479362,0.041334406,-1.0301039,1.0695466,2.2989385,0.040333975,5.2958536,5.7734575,-580,136,1411,1531.0,-9.988441,6.259405,0.23525578,11.790016,11.787668437704957,-1.929934005592198,1.3778306866772312,35.12902632572641,-35.071638496457304,324.9283615035427,-946.8012961532194,248.39034243895327,-119.95137908126678,-16.741196895569768,34.27020459479362,102.37187405054483,143.4213734991516,148.7416284559179,56.36,10.078735713623047,,14.0900848,66.3385317,20190517,123006,2019-05-17T12:30:06Z,105.712,0.84,1.67,9.67,9,4,13,-9.37,5.64,0.1,0,-7614,0,0,4,4,14.090722989975223,66.33833696545788,50,1918141,114,100,192,3533,3545,4278,4302,-2944,17094,20,3545,17306,0,false,false,false,false,false,false,false,false,false,false,7132,7126,5041,5072,53,68,68,54,1710,1711,1485,1496,1702,1702,1488,1484,0.0,0.0,0.0,0.0,1612.2,1608.5,1608.5,1611.6,7.1,6.39,3.84,3.36,0,0,0,0,-179.48856754202356,14.09010012094152,66.33852087784084,0,-32.856373,-34.48694,0.27937138,0.031358775,-1.0087054,1.0471476,-6.4692273,-1.4255333,-2.0627475,6.9381537,-580,139,1411,1531.0,-9.940698,6.172209,0.13849206,11.70183,11.701010009990858,-1.9039753694502632,1.1547528212208082,34.46471267756463,-35.58209673974635,324.41790326025364,-942.9253740795042,229.03985386726714,-117.15833147156232,-18.96213715782058,34.50858591257523,102.64805265799538,141.81041557157388,147.13067052834018,56.36,NONE,0.0,0.0,0.0,NONE,2.973148392542323E-7,-2.0483812820452128E-7,2.937317E-4,2,73.22,72.04,43.97,45.92,16.395,16.395,5.811,9.621073,0,3463,4.111,12.0,10.004,98,23.0,OK,108,0,0,0,0,0,65,100,0.0,0,0.0,1.3050101E-30,9.0E-44,0.0,3.474554E-12,64,1.995638E-5,-2.2100816E-7,1.4762283E-19,False,False,0,None,-6.389311E-29,6.340386E-18,
442032528,19.191,14.090269675427303,66.33841728973417,13,-33.732143,-34.91537,0.38315678,0.025565948,-0.95667374,1.0308673,-12.639035,2.6014316,-15.728725,20.344667,-586,90,1422,1540.0,-12.363141,8.297903,0.1644202,14.890584,14.889676074827191,-1.573674474029799,-0.05427454476922513,35.43223730291906,-34.75359207880803,325.246407921192,-953.5637034151773,240.0605850266076,-119.19524355390598,-14.75381742483023,22.113753012398465,115.90240543651238,140.8163052618398,146.1365602186061,56.63,9.29402959790039,,14.0902433,66.3384332,20190517,123007,2019-05-17T12:30:07Z,105.376,0.84,1.67,9.64,9,4,13,-11.87,7.91,0.23,0,-9155,0,0,4,4,14.090722989975223,66.33833696545788,50,1918141,114,100,192,3533,3545,4278,4302,-2944,17094,20,3545,17306,0,false,false,false,false,false,false,false,false,false,false,7416,7396,5269,5343,53,68,68,53,1728,1719,1508,1532,1714,1703,1512,1543,0.0,0.0,0.0,0.0,1606.7,1601.2,1601.8,1604.9,7.25,6.23,3.63,3.77,0,0,0,0,-178.71787993281873,14.090282729932547,66.33840900556761,0,-33.432972,-34.597805,0.39562115,0.04215349,-0.869525,0.9562253,-5.6821933,-14.239044,-7.65509,17.135872,-589,90,1422,1541.0,-12.440315,8.370479,0.07361451,14.994391,14.994210715488453,-0.3579888151941013,-0.4941316271526433,34.52742260493067,-35.41307711927967,324.58692288072035,-942.1925545812567,230.14379357130207,-115.78394637364761,-17.70794948926258,21.217457389905622,117.52001381544645,140.89726860236266,146.21752355912895,56.63,NONE,0.0,0.0,0.0,NONE,4.4682408306181346E-7,-2.700419385798726E-7,2.746582E-4,2,75.71,72.49,49.84,51.79,16.348,16.348,5.765,9.607172,0,3460,4.096,12.0,10.389,98,23.0,OK,109,0,0,0,0,0,65,100,0.0,0,0.0,6.6979645E-38,9.0E-44,0.0,3.474554E-12,64,1.7722137E-5,-2.1228065E-7,4.5619227E-20,False,False,0,None,-2.2087335E-29,6.111052E-18,
445914261,20.199,14.090450742875957,66.33831066318163,14,-38.04994,-34.874283,0.09800904,0.024357285,-1.2407988,1.2449019,-3.9362504,-19.063238,-0.7658808,19.480444,1151,155,1082,1587.0,-9.743016,6.5877523,0.057090968,11.761297,11.76115829161191,2.461048841934412,-1.1319995108497194,-34.85697662102073,-36.17773421038284,323.8222657896172,-958.0598262962008,231.91404807488797,-191.16286388531245,-28.266788215523224,12.496484813964287,130.25060817109323,139.91667896754552,145.2369339243118,56.88,4.976234798095703,,14.0904305,66.3383224,20190517,123008,2019-05-17T12:30:08Z,105.375,0.83,1.65,9.64,9,5,14,-11.51,7.82,0.0,-635,10000,0,0,4,4,14.090722989975223,66.33833696545788,50,1918141,114,100,192,3533,3545,4278,4302,-2944,17094,20,3545,17306,0,false,false,false,false,false,false,false,false,false,false,5159,4706,3403,2870,55,67,68,55,1545,1558,1315,1250,1534,1510,1328,1297,0.0,0.0,0.0,0.0,1642.9,1636.7,1636.1,1642.3,5.8,4.99,3.76,1.77,0,0,0,0,178.7241356599103,14.090463390751164,66.33830262278529,0,-38.365265,-35.09351,0.06276322,0.035685163,-1.3338295,1.3357822,4.7560425,-8.913456,7.1538243,12.379291,1160,155,1073,1587.0,-9.288513,6.3794527,0.13933744,11.269131,11.268269264262106,2.921606985147795,-0.9631837036298772,-34.028233038869644,-36.15692983856653,323.84307016143345,-937.8660298559305,237.21289487116925,-183.18566568752348,-25.51715571377661,12.19814440101929,131.83579834517235,140.16579909723674,145.48605405400303,56.89,NONE,0.0,0.0,0.0,NONE,3.6145776350927797E-7,-2.1121417470875087E-7,3.8146973E-4,2,49.22,44.58,36.98,34.25,16.245,16.245,5.901,9.692815,0,3457,4.071,12.0,12.355,98,23.1,OK,110,0,0,0,0,0,65,100,0.0,0,0.0,-7.909832E-20,8.8E-44,0.0,3.474554E-12,64,1.0573771E-5,-1.660565E-7,5.228927E-26,False,False,0,None,-9.570581E-35,4.8964067E-18,
449828129,21.217,14.090565089680473,66.3382468366644,14,-33.574966,-34.819466,0.031024005,0.051864777,-1.345279,1.3466358,-27.813103,11.785049,-10.516878,31.985321,1206,139,1020,1585.0,-2.778003,2.2616158,-0.027445138,3.582312,3.582206963043065,5.011272731216984,-1.6001203641546542,-36.6287590185602,-34.853496270686314,325.1465037293137,-956.9852074424541,232.73401141702593,-193.83355901064922,-24.83121561333949,12.251181751513577,138.9963693348449,136.10691259527255,141.42716755203884,57.11,9.451206569335938,,14.0905491,66.3382549,20190517,123009,2019-05-17T12:30:09Z,105.546,0.83,1.65,9.64,9,5,14,-5.02,3.65,-0.12,0,10000,0,0,4,4,14.090722989975223,66.33833696545788,50,1918141,114,100,192,3533,3545,4278,4302,-2944,17094,20,3545,17306,0,false,false,false,false,false,false,false,false,false,false,6713,6675,4048,5036,56,69,69,56,1679,1671,1427,1519,1670,1682,1399,1501,0.0,0.0,0.0,0.0,1615.3,1611.6,1611.0,1615.3,6.03,6.38,4.87,4.67,0,0,0,0,-166.5919056820746,14.090563886088646,66.33824644589751,0,-33.609005,-34.980244,0.041701883,0.05011031,-1.321755,1.3233619,-7.261531,15.285677,8.287444,18.843128,1211,152,1008,1582.0,-3.0575378,2.4157088,-0.016936675,3.8967261,3.896689227462822,3.6630973528038746,-1.3019557024556878,-35.85657464880504,-35.08246811826008,324.91753188173993,-937.0370185584774,233.7855160254475,-186.84857711798654,-23.97408755358075,12.317634614795224,139.52743069267837,136.69410479761038,142.01435975437667,57.1,NONE,0.0,0.0,0.0,NONE,1.8285247054986347E-7,-1.0091983975525831E-7,-1.7166138E-4,2,70.59,70.55,37.48,47.44,16.552,16.552,5.828,9.814573,0,3454,4.05,12.0,7.0,98,23.2,OK,111,0,0,0,0,0,65,100,0.0,0,0.0,1.49151E-21,8.8E-44,0.0,3.474554E-12,64,1.1857599E-5,-1.7608276E-7,6.936495E-26,False,False,0,None,-1.2383245E-34,5.159834E-18,
453780827,22.244,14.09057313921596,66.33824671356706,14,-32.814194,-34.63571,-0.082120605,0.04386792,-1.1306261,1.1344529,11.05045,-1.9517236,11.864464,16.33056,1137,81,1094,1579.0,2.2117867,-1.2561163,0.0026951581,2.5435872,2.54358577713665,-2.1936510704712,-3.1918725089819033,-33.612148641407906,-35.749468000446115,324.2505319995539,-962.5909161350601,223.43866542958014,-193.79482666084596,-22.357427321548254,12.059539250491692,140.52057018627153,-34.22815377722767,-28.907898820461362,57.46,10.211979274414063,,14.0905726,66.3382463,20190517,123010,2019-05-17T12:30:10Z,105.699,0.83,1.65,9.64,9,5,14,1.53,-0.74,-0.13,-912,10000,0,0,4,4,14.090722989975223,66.33833696545788,50,1918141,114,100,192,3533,3545,4278,4302,-2944,17094,20,3545,17306,0,false,false,false,false,false,false,false,false,false,false,6003,5825,5512,5798,54,70,70,54,1576,1577,1537,1557,1573,1566,1535,1558,0.0,0.0,0.0,0.0,1626.4,1620.2,1620.2,1625.1,4.8,4.23,4.54,4.3,0,0,0,0,-138.14751439880527,14.090574539461416,66.33824546909011,0,-32.988575,-34.68361,-0.079220094,0.042299915,-1.1254269,1.1290044,1.7688435,-5.1697907,2.729336,6.107767,1134,84,1094,1577.0,2.1553955,-1.1827284,-0.03730615,2.4588552,2.458572074375177,-1.9838533714427407,-3.1009916813999427,-32.69204417892556,-36.31510520726013,323.6848947927399,-941.8204691583226,227.77987554157508,-185.6076385683742,-21.307524383691216,12.14072560243253,141.14975594689605,-32.868620495667855,-27.54836553890155,57.43,NONE,0.0,0.0,0.0,NONE,-6.256600424989322E-8,4.646767234837268E-8,-8.773804E-5,2,58.49,55.27,50.53,54.61,16.383,16.383,5.832,9.804893,0,3452,4.133,12.0,8.533,98,23.2,OK,112,0,0,0,0,0,65,100,0.0,0,0.0,6.21721E-27,8.8E-44,0.0,3.474554E-12,64,1.529418E-5,-2.0279644E-7,4.8035525E-26,False,False,0,None,-8.9048105E-35,5.8618125E-18,
457669748,23.255,14.090506364459847,66.33828562530802,14,-33.63105,-34.587322,-0.19514732,0.01830662,-1.0618773,1.0798151,15.616473,-4.0314226,0.78762156,16.147661,1151,102,1079,1580.0,6.2476263,-4.234395,0.106386416,7.548129,7.54737943933967,-2.3493953282679385,-2.04654225613893,-34.47734150457877,-35.31531138999489,324.6846886100051,-963.284358142917,223.12583593890363,-193.67816855527636,-22.419064860602223,11.226991320020648,145.77680938120469,-39.864404506827,-34.544149550060695,57.77,9.395122890136719,,14.0905094,66.3382838,20190517,123011,2019-05-17T12:30:11Z,105.534,0.83,1.65,9.67,9,5,14,5.74,-3.88,0.01,0,10000,0,0,4,4,14.090722989975223,66.33833696545788,50,1918141,114,100,192,3533,3545,4278,4302,-2944,17094,20,3545,17306,0,false,false,false,false,false,false,false,false,false,false,5805,6017,6193,6369,54,71,70,54,1594,1587,1592,1622,1588,1583,1581,1607,0.0,0.0,0.0,0.0,1617.1,1611.0,1611.0,1615.3,5.3,4.47,5.41,4.98,0,0,0,0,2.7851664221143437,14.090508600952864,66.33828427393331,0,-33.727833,-34.629402,-0.19375192,0.015665155,-1.0378677,1.055914,4.092028,1.496856,0.37655303,4.37345,1151,99,1073,1576.0,6.0646944,-4.2037144,0.0026939576,7.3791423,7.37914172756548,-2.211731840288145,-2.251264724174002,-33.38194306974623,-35.821293550146095,324.1787064498539,-942.8653282462402,226.67475455247302,-187.06559593950067,-20.70088858074984,11.218905320159193,146.37407238644033,-39.92098646922832,-34.60073151246201,57.73,NONE,0.0,0.0,0.0,NONE,-2.0084755176749233E-7,1.1902200711862641E-7,3.0517578E-5,2,54.77,59.09,59.35,60.51,16.399,16.399,5.819,9.679658,1283,3450,4.085,12.0,9.227,98,23.2,OK,113,0,0,0,0,0,65,100,0.0,0,0.0,-4.946834E-37,8.8E-44,0.0,3.474554E-12,64,1.6531441E-5,-2.0762768E-7,1.0350893E-26,False,False,0,None,-2.1810563E-35,5.9887616E-18,
461518500,24.255,14.090380889863432,66.33835688244451,14,-32.976974,-34.60279,-0.2962006,0.017683834,-0.99881226,1.0419565,10.893622,-4.0335083,2.3145216,11.844712,1160,118,1103,1605.0,9.521993,-6.5855713,0.1491413,11.578443,11.577481847858799,-1.8778140088027175,-1.1187052810218885,-34.83212797074057,-35.30670794095157,324.6932920590484,-962.150616531993,228.96172376027758,-193.89424879462075,-23.322583079142934,15.426495634691447,155.47983285988602,-40.24832955284347,-34.92807459607717,57.97,10.049198512695313,,14.0903865,66.338354,20190517,123012,2019-05-17T12:30:12Z,105.346,0.83,1.65,9.69,9,5,14,9.06,-6.29,0.11,0,10000,0,0,4,4,14.090722989975223,66.33833696545788,50,1918141,114,100,192,3533,3545,4278,4302,-2944,17094,20,3545,17306,0,false,false,false,false,false,false,false,false,false,false,6626,6664,7064,7175,55,69,69,55,1680,1678,1672,1687,1664,1649,1670,1698,0.0,0.0,0.0,0.0,1593.8,1585.8,1585.8,1590.8,6.67,5.29,6.16,5.64,0,0,0,0,-4.3987053549955135,14.09038514913729,66.33835420499113,0,-32.748276,-34.68215,-0.30955884,0.02353689,-1.0236095,1.0696528,-7.054618,1.5842906,-3.5672944,8.062456,1157,115,1103,1602.0,9.177375,-6.4952083,0.06857526,11.243516,11.243306521140491,-1.7160997571805865,-1.3264406584266892,-33.62823490527095,-35.662668478477336,324.3373315215227,-939.5896952991097,232.64667818896862,-185.65019883790458,-21.638714124195555,15.197999611774124,155.9043970764518,-40.554099875648596,-35.23384491888229,58.02,NONE,0.0,0.0,0.0,NONE,-3.616505580850228E-7,2.0529218869857468E-7,1.7547607E-4,2,65.39,68.22,71.19,73.33,16.329,16.329,5.722,9.567735,1296,3447,4.095,12.0,10.158,98,23.3,OK,114,0,0,0,0,0,65,100,0.0,0,0.0,-5.3829341E15,8.8E-44,0.0,3.474554E-12,64,1.5325844E-5,-2.029165E-7,9.934702E-24,False,False,0,None,-1.0788781E-32,5.864989E-18,
465396708,25.263,14.090213395811892,66.33845383919564,14,-33.335747,-34.464195,-0.35662183,0.03096104,-0.7235307,0.80723876,-3.80701,-4.510316,5.0997276,7.800224,1171,102,1085,1599.0,12.00663,-8.269852,-0.25897732,14.581382,14.579081643986745,-1.5635033523592696,-2.0192339050087513,-36.99043150547678,-35.967059206309834,324.03294079369016,-961.3368909150852,229.4743669233092,-195.68857523407488,-26.183525260459614,26.192691274885107,168.59879907520636,-40.12297508163393,-34.802720124867626,58.28,9.690426234863281,,14.0902207,66.3384493,20190517,123013,2019-05-17T12:30:13Z,105.276,0.83,1.65,9.72,9,5,14,11.66,-8.09,0.02,0,10000,0,2278,4,4,14.090722989975223,66.33833696545788,50,1918141,114,100,192,3533,3545,4278,4302,-2944,17094,20,3545,17306,0,false,false,false,false,false,false,false,false,false,false,6453,6468,6855,7021,56,70,70,56,1719,1710,1714,1727,1717,1742,1729,1730,0.0,0.0,0.0,0.0,1555.2,1569.9,1568.1,1565.6,7.45,5.91,6.55,6.16,0,0,0,0,-8.984949612773505,14.090218528899186,66.33844998044493,0,-33.546074,-34.601337,-0.34991536,0.03366024,-0.68181604,0.7671029,4.759574,-14.7893505,-1.7654843,15.636348,1160,102,1103,1603.0,11.616358,-8.083371,-0.37132367,14.156926,14.152055333626125,-1.2655484846578808,-2.214917174840989,-35.60263554689827,-36.0984644514736,323.9015355485264,-939.717099058896,232.50777280386944,-186.6743676419694,-25.444504082634975,25.782217040558244,168.8937489771741,-40.09460191032344,-34.774346953557135,58.26,NONE,0.0,0.0,0.0,NONE,-4.305579858506436E-7,2.495152947390978E-7,-4.5394897E-4,2,81.17,83.87,84.54,83.14,16.122,16.122,5.685,9.585584,1293,3444,4.077,12.0,13.191,98,23.3,OK,115,0,0,0,0,0,65,100,0.0,0,0.0,8.3283775E-36,9.0E-44,0.0,1.4640026E-27,64,1.7268118E-5,-2.1050532E-7,5.5080736E-20,False,False,0,None,-2.6520826E-29,6.064465E-18,
469296630,26.276,14.090014490173875,66.338568185172,14,-33.121048,-33.961857,-0.47095448,0.015206228,-1.3640076,1.443103,3.4263375,15.304857,-2.8293636,15.936868,1163,139,1067,1584.0,13.842652,-9.737797,-1.061882,16.957928,16.924647561126918,-1.6257221104614725,-0.5094685010174005,-35.00415677685632,-35.256781272458255,324.7432187275417,-961.1624870337128,234.51527680562634,-191.77827383769852,-23.512041411907042,40.751739400884496,184.10538371878573,-40.3102826860736,-34.99002772930729,58.67,9.905125026367188,,14.0900221,66.3385638,20190517,123014,2019-05-17T12:30:14Z,105.618,0.83,1.65,9.73,9,5,14,13.39,-9.57,-0.21,0,10000,0,5891,4,4,14.090722989975223,66.33833696545788,50,1918141,114,100,192,3533,3545,4278,4302,-2944,17094,20,3545,17306,0,false,false,false,false,false,false,false,false,false,false,7900,7976,8545,8751,54,68,68,54,1772,1768,1799,1816,1745,1747,1804,1804,0.0,0.0,0.0,0.0,1538.0,1532.5,1535.5,1538.0,8.27,7.04,7.98,7.71,0,0,0,0,-5.2308071755531955,14.089998293146422,66.33857704803472,0,-33.701786,-34.03637,-0.47156522,0.0073457165,-1.3113929,1.3936208,4.2134175,-9.463577,-4.0352926,11.117363,1151,142,1070,1577.0,13.677165,-9.704847,-1.3788466,16.827065,16.77047707631442,0.21041830926369087,-1.0509674335012669,-33.30530380011224,-35.54147431670759,324.4585256832924,-939.7917544934695,236.13849107226412,-186.88880110794088,-23.260553024318156,41.93543148294819,186.10528068479678,-40.10782015448381,-34.787565197717505,58.67,NONE,0.0,0.0,0.0,NONE,-5.278579194370559E-7,2.991270484973642E-7,-0.0023345947,2,77.73,79.85,81.03,81.49,15.648,15.648,5.537,9.878031,1253,3440,4.023,12.0,15.794,98,23.4,OK,116,0,0,0,0,0,65,100,0.0,0,0.0,2.5109504E-29,9.0E-44,0.0,1.4640026E-27,64,2.8162263E-5,-2.6769894E-7,2.1321825E-19,False,False,0,None,-9.147243E-29,7.426415E-18,
473177129,27.285,14.089782361190732,66.33870069853857,14,-30.482658,-32.419487,-0.49987125,0.040295318,-0.96500397,1.0875328,-1.0477165,-3.1626046,0.3654083,3.3516116,1160,136,1067,1581.0,15.079333,-10.821645,-1.6715333,18.635674,18.56055745964788,-0.7010556857622987,-0.5577631541140873,-35.21582059964034,-35.16592925909904,324.834070740901,-960.8019770544428,234.99800330983362,-190.86047162130208,-23.716573883443296,58.29111510780488,202.11720789246266,-40.51749489589006,-35.197239939123754,59.0,12.543514613769531,,14.0897921,66.3386953,20190517,123015,2019-05-17T12:30:15Z,106.928,0.83,1.65,9.76,9,5,14,14.99,-10.7,-0.88,0,10000,0,6759,5,5,14.090722989975223,66.33833696545788,50,1918141,114,100,192,3533,3545,4278,4302,-2944,17094,20,3545,17306,0,false,false,false,false,false,false,false,false,false,false,7952,8193,8761,8933,55,67,67,54,1772,1792,1811,1813,1771,1779,1795,1801,0.0,0.0,0.0,0.0,1538.0,1531.9,1531.9,1535.5,7.32,7.16,7.72,7.05,0,0,0,0,2.5505468372568885,14.089765812035166,66.3387099473161,0,-30.397614,-32.453796,-0.5041136,0.05533744,-0.9170322,1.0479221,9.805334,-2.8536863,0.8170467,10.244787,1163,139,1076,1590.0,14.760055,-10.550061,-1.7367686,18.225788,18.142849676519003,-0.23957709397819826,-0.44501471368484113,-34.271256553747016,-35.27285594287885,324.72714405712117,-939.5175076390485,235.4932874689423,-188.04574666116213,-22.496721382508866,59.536939480362676,204.16130271189587,-39.8791566808086,-34.55890172404229,59.03,NONE,0.0,0.0,0.0,NONE,-5.796896847955746E-7,3.2407423087782117E-7,-0.0038833618,2,82.85,81.99,82.34,85.11,15.693,15.693,5.515,10.555463,1171,3436,3.884,12.0,19.125,97,23.5,OK,117,0,0,0,0,0,65,100,0.0,0,-3.2354278E-31,4.954421E-26,-7.9678204E-32,-5.646957E-33,1.464021E-27,64,1.4173985E-4,-6.106167E-7,8.266282E-19,False,False,0,None,-3.156553E-28,1.5482176E-17,
477034324,28.287,14.089539082279945,66.33884194455985,13,-29.582489,-30.531391,-0.5492082,-9.185802E-4,-0.8866275,1.0429472,7.9226522,1.9329123,0.6364772,8.179833,1171,124,1032,1565.0,15.922625,-11.266448,-1.8056378,19.588852,19.50545640557646,-0.4596153812121244,-0.9721564055359428,-36.04098668734682,-35.40470314151846,324.59529685848156,-961.1637403152456,236.37384116224334,-191.5287531144171,-22.5350932172928,77.09913357300503,221.21019842652106,-40.024678373070564,-34.70442341630426,59.34,13.443683986328125,,14.0895487,66.3388361,20190517,123016,2019-05-17T12:30:16Z,108.677,0.85,1.67,9.78,8,5,13,15.72,-11.11,-1.38,0,10000,0,6694,4,4,14.090722989975223,66.33833696545788,50,1918141,114,100,192,3533,3545,4278,4302,-2944,17094,20,3545,17306,0,false,false,false,false,false,false,false,false,false,false,7835,8171,8779,8932,55,70,70,55,1769,1787,1809,1815,1767,1774,1788,1805,0.0,0.0,0.0,0.0,1537.4,1530.7,1532.5,1536.2,7.0,6.98,7.58,7.2,0,0,0,0,6.126182230363099,14.08952113393537,66.33885147826841,0,-29.21714,-30.79209,-0.5417219,0.017437115,-0.85900635,1.015706,9.143924,1.5259057,-4.528883,10.317486,1168,130,1046,1573.0,15.258776,-10.833569,-1.7066021,18.791193,18.71353632134746,0.3937464077014923,-0.7397695227086724,-34.65671605866429,-35.43521388138196,324.56478611861803,-940.3014751728194,236.22451573272954,-189.71521159418583,-21.357558148646007,78.4201936655127,223.31595357253138,-40.53531602170441,-35.215061064938105,59.35,NONE,0.0,0.0,0.0,NONE,-1.8092683610167705E-6,1.0236589205405153E-6,-0.012706757,2,81.26,82.23,84.11,84.64,15.623,15.623,5.522,11.628045,1061,3430,3.917,12.0,19.951,97,23.6,OK,118,0,0,0,0,0,65,100,0.0,0,-3.9193074E-35,4.297537E-24,-7.9678204E-32,-6.8405674E-37,1.464021E-27,64,8.186847E-4,-1.4670735E-6,3.511191E-18,False,False,0,None,-1.1830941E-27,3.4731107E-17,
480932069,29.300,14.089258122050955,66.33900319172955,13,-28.055258,-28.469763,-0.6282108,-0.008573802,-0.89718527,1.0952916,1.6317877,12.0264435,-1.8614771,12.278566,1114,127,1082,1558.0,16.167797,-11.449808,-1.9527425,19.90751,19.811506469075457,1.7863493455541821,-0.8103639408358007,-31.767133484387585,-35.360187727308386,324.63981227269164,-960.1885819891671,237.45458324088148,-186.71084432935604,-20.60376647549498,98.79955239083884,243.08907040890566,-40.66258744782241,-35.342332491056105,59.67,14.970915202758789,,14.089295,66.3389818,20190517,123017,2019-05-17T12:30:17Z,110.402,0.85,1.67,9.82,8,5,13,16.16,-11.44,-1.61,0,10000,0,6661,4,4,14.090722989975223,66.33833696545788,50,1918141,114,100,192,3533,3545,4278,4302,-2944,17094,20,3545,17306,0,false,false,false,false,false,false,false,false,false,false,7852,8166,8711,8907,55,70,69,56,1772,1794,1814,1834,1774,1771,1795,1824,0.0,0.0,0.0,0.0,1527.0,1525.2,1524.5,1528.2,7.36,7.94,7.63,7.1,0,0,0,0,4.217927608585342,14.089266463455198,66.33899784131322,0,-28.524014,-29.310745,-0.6010913,-0.022106487,-0.92527956,1.103604,-0.96750695,12.057729,0.2809816,12.099746,1123,130,1079,1562.0,15.911926,-11.283442,-1.6522509,19.576397,19.506548442225913,0.0887225388181534,-1.0984020167996948,-31.259816052642314,-35.44447859685878,324.5555214031412,-939.8419248814201,235.461525839169,-188.3447245830977,-20.570696935780123,98.10723720852639,243.16615353104706,-40.479415660756445,-35.15916070399014,59.63,NONE,0.0,0.0,0.0,NONE,-6.258906208088256E-7,3.551552959071692E-7,-0.004886627,2,78.6,81.94,85.45,86.7,15.582,15.582,5.546,12.970742,950,3424,3.896,12.0,20.089,97,23.7,OK,119,0,0,0,0,0,65,100,0.0,0,Infinity,6.097185E-23,-7.9678204E-32,7.626956E36,1.464021E-27,64,0.0037848353,-3.1832176E-6,1.7958056E-17,False,False,0,None,-4.927817E-27,7.061926E-17,
484933439,30.340,14.089010013149915,66.3391440241521,14,-26.863014,-26.514318,-0.5807324,0.019994956,-0.8278803,1.0114523,-1.8782892,1.8289618,1.9602665,3.2734869,1071,136,1141,1570.0,15.6791115,-11.061544,-2.0234687,19.294733,19.188337376119005,-0.7463065235992161,-0.6964672612699774,-30.583703220790333,-35.59917419246945,324.40082580753057,-960.148710571174,235.8376202511208,-184.07752947867004,-23.640345155784264,117.8851859369969,262.2677800795339,-40.2991134469178,-34.978858490151495,59.91,16.163158778808594,,14.0890425,66.3391253,20190517,123018,2019-05-17T12:30:18Z,112.29,0.83,1.65,9.83,9,5,14,15.64,-11.1,-1.76,0,10000,0,6694,4,4,14.090722989975223,66.33833696545788,50,1918141,114,100,192,3533,3545,4278,4302,-2944,17094,20,3545,17306,0,false,false,false,false,false,false,false,false,false,false,7528,7753,8547,8731,55,71,71,54,1716,1749,1791,1803,1712,1765,1792,1790,0.0,0.0,0.0,0.0,1543.5,1539.9,1539.3,1543.5,6.34,5.84,6.69,6.9,0,0,0,0,1.1761627343543068,14.089014821198456,66.33914069821122,0,-26.66629,-27.466259,-0.5748596,-0.009867568,-0.8172951,0.9992658,6.610003,2.7182999,1.0868218,7.229279,1071,139,1141,1571.0,15.562143,-11.009527,-1.8320307,19.150621,19.062790565152294,-0.3564762888301196,-0.913620034898201,-29.66705070916497,-35.744259788172904,324.2557402118271,-940.7924484618968,239.47959109131796,-188.7440129086882,-23.182375044879908,117.46454710072788,262.61973745345904,-40.64418186162059,-35.32392690485428,59.92,NONE,0.0,0.0,0.0,NONE,-6.175267053638589E-7,3.4974081433409086E-7,-0.0043678284,2,79.8,79.2,81.72,83.92,15.6,15.6,5.51,14.371785,855,3414,3.881,12.0,18.637,97,23.8,OK,120,0,0,0,0,0,65,100,0.0,0,1.4009136E33,3.2866048E-22,-7.9678204E-32,2.4451016E31,1.464021E-27,64,0.024727821,-7.5962466E-6,8.0402505E-17,False,False,0,None,-1.9003659E-26,1.6278026E-16,
