Tick#,offsetTime,IMU_ATTI(0):Longitude,IMU_ATTI(0):Latitude,IMU_ATTI(0):numSats,IMU_ATTI(0):barometer:Raw,IMU_ATTI(0):barometer:Smooth,IMU_ATTI(0):accel:X,IMU_ATTI(0):accel:Y,IMU_ATTI(0):accel:Z,IMU_ATTI(0):accel:Composite,IMU_ATTI(0):gyro:X,IMU_ATTI(0):gyro:Y,IMU_ATTI(0):gyro:Z,IMU_ATTI(0):gyro:Composite,IMU_ATTI(0):mag:X,IMU_ATTI(0):mag:Y,IMU_ATTI(0):mag:Z,IMU_ATTI(0):mag:Mod,IMU_ATTI(0):velN,IMU_ATTI(0):velE,IMU_ATTI(0):velD,IMU_ATTI(0):velComposite,IMU_ATTI(0):velH,IMU_ATTI(0):GPS-H,IMU_ATTI(0):roll,IMU_ATTI(0):pitch,IMU_ATTI(0):yaw,IMU_ATTI(0):yaw360,IMU_ATTI(0):totalGyro:Z,IMU_ATTI(0):totalGyro:X,IMU_ATTI(0):totalGyro:Y,IMU_ATTI(0):magYaw,IMU_ATTI(0):distanceHP,IMU_ATTI(0):distanceTravelled,IMU_ATTI(0):directionOfTravel[mag],IMU_ATTI(0):directionOfTravel[true],IMU_ATTI(0):temperature,General:relativeHeight,General:absoluteHeight,GPS(0):Long,GPS(0):Lat,GPS(0):Date,GPS(0):Time,GPS:dateTimeStamp,GPS(0):heightMSL,GPS(0):hDOP,GPS(0):pDOP,GPS(0):sAcc,GPS(0):numGPS,GPS(0):numGLNAS,GPS(0):numSV,GPS(0):velN,GPS(0):velE,GPS(0):velD,HP:Longitude,HP:Latitude,HP:rthHeight,BatBlackBox:tick,BatBlackBox:id,BatBlackBox:rsoc,BatBlackBox:index,BatBlackBox:rm,BatBlackBox:fcc,BatBlackBox:cell_min,BatBlackBox:cell_max,BatBlackBox:current,BatBlackBox:voltage,BatBlackBox:temp,BatBlackBox:flag,BatBlackBox:reserve,BatBlackBox:user_data,OA:avoidObst,OA:emergBrake,OA:radiusLimit,OA:airportLimit,OA:groundForceLanding,OA:horizNearBoundary,OA:vertLowLimit,OA:vertAirportLimit,OA:roofLimit,OA:hitGroundLimit,Motor:Speed:RFront,Motor:Speed:LFront,Motor:Speed:LBack,Motor:Speed:RBack,Motor:EscTemp:RFront,Motor:EscTemp:LFront,Motor:EscTemp:LBack,Motor:EscTemp:RBack,Motor:PPMrecv:RFront,Motor:PPMrecv:LFront,Motor:PPMrecv:LBack,Motor:PPMrecv:RBack,Motor:PPMsend:RFront,Motor:PPMsend:LFront,Motor:PPMsend:LBack,Motor:PPMsend:RBack,Motor:V_out:RFront,Motor:V_out:LFront,Motor:V_out:LBack,Motor:V_out:RBack,Motor:Volts:RFront,Motor:Volts:LFront,Motor:Volts:LBack,Motor:Volts:RBack,Motor:Current:RFront,Motor:Current:LFront,Motor:Current:LBack,Motor:Current:RBack,Motor:Status:RFront,Motor:Status:LFront,Motor:Status:LBack,Motor:Status:RBack,Motor:thrustAngle,IMU_ATTI(1):Longitude,IMU_ATTI(1):Latitude,IMU_ATTI(1):numSats,IMU_ATTI(1):barometer:Raw,IMU_ATTI(1):barometer:Smooth,IMU_ATTI(1):accel:X,IMU_ATTI(1):accel:Y,IMU_ATTI(1):accel:Z,IMU_ATTI(1):accel:Composite,IMU_ATTI(1):gyro:X,IMU_ATTI(1):gyro:Y,IMU_ATTI(1):gyro:Z,IMU_ATTI(1):gyro:Composite,IMU_ATTI(1):mag:X,IMU_ATTI(1):mag:Y,IMU_ATTI(1):mag:Z,IMU_ATTI(1):mag:Mod,IMU_ATTI(1):velN,IMU_ATTI(1):velE,IMU_ATTI(1):velD,IMU_ATTI(1):velComposite,IMU_ATTI(1):velH,IMU_ATTI(1):GPS-H,IMU_ATTI(1):roll,IMU_ATTI(1):pitch,IMU_ATTI(1):yaw,IMU_ATTI(1):yaw360,IMU_ATTI(1):totalGyro:Z,IMU_ATTI(1):totalGyro:X,IMU_ATTI(1):totalGyro:Y,IMU_ATTI(1):magYaw,IMU_ATTI(1):distanceHP,IMU_ATTI(1):distanceTravelled,IMU_ATTI(1):directionOfTravel[mag],IMU_ATTI(1):directionOfTravel[true],IMU_ATTI(1):temperature,IMUEX(0):err,IMUEX(0):rtk_Longitude,IMUEX(0):rtk_Latitude,IMUEX(0):rtk_Alti,IMUEX(1):err,IMUEX(1):rtk_Longitude,IMUEX(1):rtk_Latitude,IMUEX(1):rtk_Alti,BattInfo:Voltage,BattInfo:BatVoltage,BattInfo:AdVoltage,BattInfo:AvgCurrent,BattInfo:R_time,BattInfo:R_CAP_MAH,BattInfo:LowCellVoltage,BattInfo:LowCellVolThreshold,BattInfo:BatCurrent,BattInfo:Remaining%,BattInfo:Temp,BattInfo:status,battery_info:BatDynCnt,battery_info:Vol1Protect,battery_info:Vol2Protect,battery_info:Cap1Protect,battery_info:Cap2Protect,battery_info:Batpresent,battery_info:sopPercentage,battery_info:sopValue,battery_info:sopScale,battery_info:sopFlg,BattInfo:WindHeading:WindDir,battery_info:home_dir,BattInfo:Wind:rangeMin,BattInfo:Wind:rangeMax,battery_info:cap_speed,battery_info:against_wind,battery_info:emergency_land_cap,battery_info:intel_bat_land_cap,battery_info:intel_bat_gh_cap,BattInfo:Smart:SmartGh,BattInfo:Smart:SmartLand,BattInfo:GoHome:CntDown,BattInfo:GoHome:GhCmd,BattInfo:GoHome:CapLevel,BattInfo:GoHome:LandCapLv,Attribute|Value,ConvertDatV3,3.6.6-Tablet
7045837,1.831,,,,,,,,,,,,,,,,,,,,,,,,,,,,,,,,,,,,,,,,,,,,,,,,,,,,,,,,,,,,,,,,,,,,,,,,,,,,,,,,,,,,,,,,,,,,,,,,,,,,,,,,,,,,,,,,,,,,,,,,,,,,,,,,,,,,,,,,,,,,,,,,,,,,,,,,,,,,,,,,,,,,,,,,,OK,,,,,,,,,,,,,,,,,,,,,,,,,,Firmware Date| Jul 26 2019
7849519,2.040,,,,,,,,,,,,,,,,,,,,,,,,,,,,,,,,,,,,,,,,,,,,,,,,,,,,,,,,,,,,,,,,,,,,,,,,,,,,,,,,,,,,,,,,,,,,,,,,,,,,,,,,,,,,,,,,,,,,,,,,,,,,,,,,,,,,,,,,,,,,,,,,,,,,,,,,,,,,,,,,,,,,,,,,,OK,,,,,,,,,,,,,,,,,,,,,,,,,,ACType|MavicEnterprise
162773848,42.304,,,,,,,,,,,,,,,,,,,,,,,,,,,,,,,,,,,,,,,9.5510003,62.6186746,20191026,111153,2019-10-26T11:11:53Z,577.381,0.56,1.11,6.38,13,8,21,0.0,0.01,0.01,,,,,,,,,,,,,,,,,,,,,,,,,,,,,,,,,,,,,,,,,,,,,,,,,,,,,,,,,,,,,,,,,,,,,,,,,,,,,,,,,,,,,,,,,,,,,,,,,,,,,,,,,,,,,,,,,,,,OK,,,,,,,,,,,,,,,,,,,,,,,,,,
162911937,42.340,,,,,,,,,,,,,,,,,,,,,,,,,,,,,,,,,,,,,,,9.5510003,62.6186746,20191026,111153,2019-10-26T11:11:53Z,577.381,0.56,1.11,6.38,13,8,21,0.0,0.01,0.01,,,,,,,,,,,,,,,,,,false,false,false,false,false,false,false,false,false,false,,,,,,,,,,,,,,,,,,,,,,,,,,,,,,,,,,9.550999671799712,62.61867384582015,0,673.9791,674.2119,0.0898885,-0.016931642,-0.9921996,0.9964069,0.23172647,-0.045926288,0.032891758,0.23851259,209,-252,1451,1487.0,-7.487417E-4,1.529567E-4,-0.001459854,0.0016477813,7.642053369132614E-4,-7.642053369132614E-4,1.0536009217543614,5.17002322582657,40.62297215085101,40.62297215085101,0.0,0.0,0.0,39.462848026433235,,0.0,,,42.79,,,,,,,,,,,,,,,,,,,,OK,,,,,,,,,,,,,,,,,,,,,,,,,,
163196253,42.414,9.550999532396967,62.618674369911034,21,674.4019,673.993,0.090499714,-0.017079148,-0.9929584,0.99722034,0.24017362,0.14532955,0.022149669,0.28159305,209,-252,1454,1490.0,0.0034301274,0.020360492,0.006017164,0.021506317,0.020647406894321006,-0.020647406894321006,1.0238857366057372,5.146875640805356,44.659225979381326,44.65922597938135,0.0,0.0,0.0,39.41678408818441,,0.0,,,42.81,,,9.5510003,62.6186746,20191026,111153,2019-10-26T11:11:53Z,577.381,0.56,1.11,6.38,13,8,21,0.0,0.01,0.01,,,,,,,,,,,,,,,,,,false,false,false,false,false,false,false,false,false,false,0,0,0,0,45,58,59,44,946,946,945,946,940,940,940,940,0.0,0.0,0.0,0.0,1514.7,1511.1,1510.4,1514.7,0.0,0.0,0.0,0.0,0,0,0,0,-45.0,9.550999671799712,62.61867384582015,0,673.9791,674.2119,0.0898885,-0.016931642,-0.9921996,0.9964069,0.23172647,-0.045926288,0.032891758,0.23851259,209,-252,1451,1487.0,-7.487417E-4,1.529567E-4,-0.001459854,0.0016477813,7.642053369132614E-4,-7.642053369132614E-4,1.0536009217543614,5.17002322582657,40.62297215085101,40.62297215085101,0.0,0.0,0.0,39.462848026433235,,0.0,,,42.79,,,,,,,,,,,,,,,,,,,,OK,,,,,,,,,,,,,,,,,,,,,,,,,,
163453552,42.481,9.550999532396967,62.618674369911034,21,674.4019,673.993,0.090499714,-0.017079148,-0.9929584,0.99722034,0.24017362,0.14532955,0.022149669,0.28159305,209,-252,1454,1490.0,0.0034301274,0.020360492,0.006017164,0.021506317,0.020647406894321006,-0.020647406894321006,1.0238857366057372,5.146875640805356,44.659225979381326,44.65922597938135,0.0,0.0,0.0,39.41678408818441,,0.0,,,42.81,,,9.5510003,62.6186746,20191026,111153,2019-10-26T11:11:53Z,577.381,0.56,1.11,6.38,13,8,21,0.0,0.01,0.01,,,,,,,,,,,,,,,,,,false,false,false,false,false,false,false,false,false,false,0,0,0,0,44,59,58,44,946,946,945,947,940,940,940,940,0.0,0.0,0.0,0.0,1515.9,1510.4,1510.4,1514.7,0.0,0.0,0.0,0.0,0,0,0,0,-45.0,9.550999626790562,62.61867384650689,0,674.2117,674.2119,0.09136871,-0.017604161,-0.99259067,0.9969425,0.050759777,-0.05929423,0.13828456,0.15879226,209,-252,1451,1487.0,-0.001163792,5.3806824E-4,0.0011150754,0.0016992122,0.001282158017261358,0.033157671698645565,1.0510930646490064,5.175086092868161,40.624919493366754,40.62491949336675,0.006899564869020841,0.0025326064378848046,-0.002958424157286151,39.445939257915455,,0.0023030209595532748,-88.09985355374725,-88.09985355374725,42.85,,,,,,,,,15.24,15.24,15.329,1.3923018,0,1577,3.803,12.0,1.398,43,27.5,OK,39,0,0,0,0,0,65,100,0.0,0,0.0,-3.9128423E-14,8.8E-44,0.0,-5.9807744E7,62,6.1035156E-5,-6.1035644E-5,1.1507811E-31,False,False,0,None,9.7687396E30,1.0842106E-19,
163628257,42.526,9.550999532396967,62.618674369911034,21,674.4019,673.993,0.090499714,-0.017079148,-0.9929584,0.99722034,0.24017362,0.14532955,0.022149669,0.28159305,209,-252,1454,1490.0,0.0034301274,0.020360492,0.006017164,0.021506317,0.020647406894321006,-0.020647406894321006,1.0238857366057372,5.146875640805356,44.659225979381326,44.65922597938135,0.0,0.0,0.0,39.41678408818441,,0.0,,,42.81,,,9.5510002,62.6186746,20191026,111153,2019-10-26T11:11:53Z,577.379,0.56,1.11,6.38,13,8,21,0.0,-0.01,0.0,,,,,,,,,,,,,,,,,,false,false,false,false,false,false,false,false,false,false,0,0,0,0,44,59,58,44,946,946,945,947,940,940,940,940,0.0,0.0,0.0,0.0,1515.9,1510.4,1510.4,1514.7,0.0,0.0,0.0,0.0,0,0,0,0,-45.0,9.550999626790562,62.61867384650689,0,674.2117,674.2119,0.09136871,-0.017604161,-0.99259067,0.9969425,0.050759777,-0.05929423,0.13828456,0.15879226,209,-252,1451,1487.0,-0.001163792,5.3806824E-4,0.0011150754,0.0016992122,0.001282158017261358,-0.001282158017261358,1.0510930646490064,5.175086092868161,40.624919493366754,40.62491949336675,0.006899564869020841,0.0025326064378848046,-0.002958424157286151,39.445939257915455,,0.0023030209595532748,-88.09985355374725,-88.09985355374725,42.85,,,,,,,,,15.24,15.24,15.329,1.3923018,0,1577,3.803,12.0,1.398,43,27.5,OK,39,0,0,0,0,0,65,100,0.0,0,0.0,-3.9128423E-14,8.8E-44,0.0,-5.9807744E7,62,6.1035156E-5,-6.1035644E-5,1.1507811E-31,False,False,0,None,9.7687396E30,1.0842106E-19,dateTime|2019-10-26 11:11:53 GMT
163837731,42.581,9.5509994893852,62.61867436978051,21,674.1007,673.9909,0.09004817,-0.01817318,-0.9931821,0.9974215,0.1679901,0.018330367,0.08245324,0.18802983,209,-254,1451,1487.0,0.004206001,0.02172945,0.00683426,0.023163907,0.022132769653118604,0.01827138251074096,1.0157812208035522,5.151598610997529,44.65312998910959,44.65312998910957,0.008228652403480866,0.016765042953178665,0.0018293303514729327,39.60505468147884,,0.0021996567742735445,-90.37805542346669,-90.37805542346669,42.85,,,9.5510002,62.6186746,20191026,111153,2019-10-26T11:11:53Z,577.379,0.56,1.11,6.38,13,8,21,0.0,-0.01,0.0,,,,,,,,,,,,,,,,,,false,false,false,false,false,false,false,false,false,false,0,0,0,0,45,58,59,45,945,945,945,947,940,940,940,940,0.0,0.0,0.0,0.0,1515.3,1509.8,1511.1,1514.7,0.0,0.0,0.0,0.0,0,0,0,0,-45.0,9.55099957214963,62.618673843140854,0,674.3993,674.2119,0.09004072,-0.017369319,-0.9939363,0.9981575,0.27296928,-0.015126815,-0.09916182,0.2908163,209,-254,1451,1487.0,-5.900055E-4,0.0010251907,4.563948E-4,0.0012678402,0.0011828450553760619,0.050602723804210235,1.048439436717572,5.175643044812092,40.62517531881781,40.62517531881781,0.008852026469535555,0.018688643284363347,-0.006672484541981022,39.639451875194275,,0.005122297475729946,-97.62908109048819,-97.62908109048819,42.82,NONE,0.0,0.0,0.0,,,,,15.24,15.24,15.329,1.3923018,0,1577,3.803,12.0,1.398,43,27.5,OK,39,0,0,0,0,0,65,100,0.0,0,0.0,-3.9128423E-14,8.8E-44,0.0,-5.9807744E7,62,6.1035156E-5,-6.1035644E-5,1.1507811E-31,False,False,0,None,9.7687396E30,1.0842106E-19,
164024982,42.629,9.5509994893852,62.61867436978051,21,674.1007,673.9909,0.09004817,-0.01817318,-0.9931821,0.9974215,0.1679901,0.018330367,0.08245324,0.18802983,209,-254,1451,1487.0,0.004206001,0.02172945,0.00683426,0.023163907,0.022132769653118604,-0.022132769653118604,1.0157812208035522,5.151598610997529,44.65312998910959,44.65312998910957,0.008228652403480866,0.016765042953178665,0.0018293303514729327,39.60505468147884,,0.0021996567742735445,-90.37805542346669,-90.37805542346669,42.85,,,9.5510002,62.6186746,20191026,111153,2019-10-26T11:11:53Z,577.379,0.56,1.11,6.38,13,8,21,0.0,-0.01,0.0,,,,,,,,,,,,,,,,,,false,false,false,false,false,false,false,false,false,false,0,0,0,0,45,58,59,45,945,945,945,947,940,940,940,940,0.0,0.0,0.0,0.0,1515.3,1509.8,1511.1,1514.7,0.0,0.0,0.0,0.0,0,0,0,0,-45.0,9.550999522993903,62.618673843834735,0,673.94214,674.2119,0.09016742,-0.017858885,-0.99176836,0.9960189,0.18090014,-0.07490245,0.17417888,0.26205632,209,-252,1454,1490.0,-2.9273468E-4,-6.2558154E-4,-0.0020468025,0.002160196,6.906850854312564E-4,0.05098828414492246,1.0426902570951342,5.176798929342134,40.629551476183515,40.62955147618351,0.012603747308690702,0.04138736256361736,-0.011174989234901338,39.4037563199427,,0.007637290502045138,-88.24198355822641,-88.24198355822641,42.88,NONE,0.0,0.0,0.0,,,,,15.24,15.24,15.329,1.3923018,0,1577,3.803,12.0,1.398,43,27.5,OK,39,0,0,0,0,0,65,100,0.0,0,0.0,-3.9128423E-14,8.8E-44,0.0,-5.9807744E7,62,6.1035156E-5,-6.1035644E-5,1.1507811E-31,False,False,0,None,9.7687396E30,1.0842106E-19,
164370930,42.719,9.550999585571468,62.61867435645031,21,674.3385,674.00995,0.089817554,-0.017301187,-0.99314195,0.9973452,0.1403812,0.034286693,-0.03876494,0.14961678,209,-252,1454,1490.0,0.004145628,0.02137845,-0.0048757587,0.022315854,0.021776693087424265,0.035362591330845045,1.015550396698867,5.149772899507011,44.65129850652228,44.65129850652227,0.010409315012127777,0.032157120528239595,0.004455663692427375,39.389170173096815,0.653732931906544,0.007337069037685825,106.76940745569355,106.76940745569355,42.88,,,9.5510002,62.6186746,20191026,111153,2019-10-26T11:11:53Z,577.379,0.56,1.11,6.38,13,8,21,0.0,-0.01,0.0,9.551011980986669,62.618675793685654,120,,,,,,,,,,,,,,,false,false,false,false,false,false,false,false,false,false,0,0,0,0,45,59,59,44,946,946,945,946,940,940,940,940,0.0,0.0,0.0,0.0,1515.9,1512.3,1509.8,1514.7,0.0,0.0,0.0,0.0,0,0,0,0,-45.0,9.550999522993903,62.618673843834735,0,673.94214,674.2119,0.09016742,-0.017858885,-0.99176836,0.9960189,0.18090014,-0.07490245,0.17417888,0.26205632,209,-252,1454,1490.0,-2.9273468E-4,-6.2558154E-4,-0.0020468025,0.002160196,6.906850854312564E-4,-6.906850854312564E-4,1.0426902570951342,5.176798929342134,40.629551476183515,40.62955147618351,0.012603747308690702,0.04138736256361736,-0.011174989234901338,39.4037563199427,0.6729799510571959,0.007637290502045138,-88.24198355822641,-88.24198355822641,42.88,NONE,0.0,0.0,0.0,,,,,15.241,15.241,15.33,1.3946187,0,1577,3.803,12.0,1.4,43,27.5,OK,40,0,0,0,0,0,65,100,0.0,0,0.0,-5.033734E-14,8.8E-44,0.0,-5.9807744E7,62,6.1035156E-5,-6.1035644E-5,1.1775335E-31,False,False,0,None,1.00073525E31,1.0842106E-19,geoDeclination|2.71 degrees
164523382,42.759,9.550999565285577,62.61867435776623,21,674.1773,674.006,0.09093984,-0.01712893,-0.9937468,0.99804616,0.26447496,0.14092582,0.023389762,0.3005897,209,-252,1448,1484.0,0.00508951,0.021676375,9.201916E-4,0.022284862,0.022265855626953046,0.004176357831825635,1.0118633804437573,5.154438222195909,44.65180069339081,44.65180069339078,0.009642306411399765,0.052353841306269286,0.013196344377947554,39.40403296767831,0.6547032188030923,0.008384751634098676,-84.68594853183076,-81.97163385148842,42.94,,,9.5510002,62.6186746,20191026,111153,2019-10-26T11:11:53Z,577.379,0.56,1.11,6.38,13,8,21,0.0,-0.01,0.0,9.551011980986669,62.618675793685654,120,,,,,,,,,,,,,,,false,false,false,false,false,false,false,false,false,false,0,0,0,0,45,59,57,44,946,945,945,947,940,940,940,940,0.0,0.0,0.0,0.0,1515.9,1511.7,1510.4,1515.9,0.0,0.0,0.0,0.0,0,0,0,0,-45.0,9.550999461877899,62.6186738443002,0,674.2143,674.2119,0.09105708,-0.017316356,-0.9930817,0.99739784,0.0598729,0.006718148,0.08992468,0.108242065,209,-254,1451,1487.0,0.0018659802,-0.0022688785,-0.0011103986,0.0031404898,0.00293763363356606,0.07595578722707204,1.0321385143257227,5.177161310478152,40.631289403932044,40.631289403932044,0.0257544257602665,0.05337632920509856,-0.014570133986871465,39.59441328574165,0.6759229125816413,0.010763173444334298,-91.76558082374672,-89.05126614340438,42.95,NONE,0.0,0.0,0.0,,,,,15.241,15.241,15.33,1.3946187,0,1577,3.803,12.0,1.4,43,27.5,OK,40,0,0,0,0,0,65,100,0.0,0,0.0,-5.033734E-14,8.8E-44,0.0,-5.9807744E7,62,6.1035156E-5,-6.1035644E-5,1.1775335E-31,False,False,0,None,1.00073525E31,1.0842106E-19,geoInclination|74.32 degrees
164734843,42.814,9.550999565285577,62.61867435776623,21,674.1773,674.006,0.09093984,-0.01712893,-0.9937468,0.99804616,0.26447496,0.14092582,0.023389762,0.3005897,209,-252,1448,1484.0,0.00508951,0.021676375,9.201916E-4,0.022284862,0.022265855626953046,-0.022265855626953046,1.0118633804437573,5.154438222195909,44.65180069339081,44.65180069339078,0.009642306411399765,0.052353841306269286,0.013196344377947554,39.40403296767831,0.6547032188030923,0.008384751634098676,-84.68594853183076,-81.97163385148842,42.94,,,9.5510002,62.6186746,20191026,111153,2019-10-26T11:11:53Z,577.379,0.56,1.11,6.38,13,8,21,0.0,-0.01,0.0,9.551011980986669,62.618675793685654,120,,,,,,,,,,,,,,,false,false,false,false,false,false,false,false,false,false,0,0,0,0,45,59,57,44,946,945,945,947,940,940,940,940,0.0,0.0,0.0,0.0,1515.9,1511.7,1510.4,1515.9,0.0,0.0,0.0,0.0,0,0,0,0,-45.0,9.550999461877899,62.6186738443002,0,674.2143,674.2119,0.09105708,-0.017316356,-0.9930817,0.99739784,0.0598729,0.006718148,0.08992468,0.108242065,209,-254,1451,1487.0,0.0018659802,-0.0022688785,-0.0011103986,0.0031404898,0.00293763363356606,-0.00293763363356606,1.0321385143257227,5.177161310478152,40.631289403932044,40.631289403932044,0.0257544257602665,0.05337632920509856,-0.014570133986871465,39.59441328574165,0.6759229125816413,0.010763173444334298,-91.76558082374672,-89.05126614340438,42.95,NONE,0.0,0.0,0.0,NONE,-1.9305960819200163E-10,4.8677848059082796E-11,0.0,15.241,15.241,15.33,1.3946187,0,1577,3.803,12.0,1.4,43,27.5,OK,40,0,0,0,0,0,65,100,0.0,0,0.0,-5.033734E-14,8.8E-44,0.0,-5.9807744E7,62,6.1035156E-5,-6.1035644E-5,1.1775335E-31,False,False,0,None,1.00073525E31,1.0842106E-19,geoIntensity|51658.90 nanoTesla
164912790,42.860,9.550999565285577,62.61867435776623,21,674.1773,674.006,0.09093984,-0.01712893,-0.9937468,0.99804616,0.26447496,0.14092582,0.023389762,0.3005897,209,-252,1448,1484.0,0.00508951,0.021676375,9.201916E-4,0.022284862,0.022265855626953046,-0.022265855626953046,1.0118633804437573,5.154438222195909,44.65180069339081,44.65180069339078,0.009642306411399765,0.052353841306269286,0.013196344377947554,39.40403296767831,0.6547032188030923,0.008384751634098676,-84.68594853183076,-81.97163385148842,42.94,,,9.5510002,62.6186746,20191026,111153,2019-10-26T11:11:53Z,577.379,0.56,1.11,6.38,13,8,21,0.0,-0.01,0.0,9.551011980986669,62.618675793685654,120,,,,,,,,,,,,,,,false,false,false,false,false,false,false,false,false,false,0,0,0,0,46,59,58,46,946,946,945,947,940,940,940,940,0.0,0.0,0.0,0.0,1515.3,1511.7,1509.8,1514.7,0.0,0.0,0.0,0.0,0,0,0,0,-45.0,9.550999411663271,62.61867384538905,0,674.1403,674.2119,0.08971377,-0.017071899,-0.99246716,0.99665993,0.26579547,-0.13663693,0.12987578,0.32585979,209,-252,1451,1487.0,8.4995007E-4,-0.00224026,-0.0022212635,0.0032672912,0.0023960759270051104,0.05319193530713351,1.0318671212413677,5.1807531137476746,40.63762548182133,40.63762548182132,0.036724226323455754,0.06962978497188224,-0.02105412026223088,39.3845706365784,0.6783170662328958,0.013333987134352038,-90.01493942329058,-87.30062474294824,42.94,NONE,0.0,0.0,0.0,NONE,-1.9305960819200163E-10,4.8677848059082796E-11,0.0,15.239,15.239,15.326,1.3946187,0,1577,3.803,12.0,1.4,43,27.5,OK,40,0,0,0,0,0,65,100,0.0,0,0.0,-7.792378E-14,8.8E-44,0.0,-5.9807744E7,62,6.1035156E-5,-6.1035644E-5,1.2056099E-31,False,False,0,None,1.0374556E31,1.0842106E-19,
165077848,42.903,9.550999565285577,62.61867435776623,21,674.1773,674.006,0.09093984,-0.01712893,-0.9937468,0.99804616,0.26447496,0.14092582,0.023389762,0.3005897,209,-252,1448,1484.0,0.00508951,0.021676375,9.201916E-4,0.022284862,0.022265855626953046,-0.022265855626953046,1.0118633804437573,5.154438222195909,44.65180069339081,44.65180069339078,0.009642306411399765,0.052353841306269286,0.013196344377947554,39.40403296767831,0.6547032188030923,0.008384751634098676,-84.68594853183076,-81.97163385148842,42.94,,,9.5510001,62.6186746,20191026,111154,2019-10-26T11:11:54Z,577.371,0.56,1.11,6.37,13,8,21,0.0,0.0,0.0,9.551011980986669,62.618675793685654,120,,,,,,,,,,,,,,,false,false,false,false,false,false,false,false,false,false,0,0,0,0,46,59,58,46,946,946,945,947,940,940,940,940,0.0,0.0,0.0,0.0,1515.3,1511.7,1509.8,1514.7,0.0,0.0,0.0,0.0,0,0,0,0,-45.0,9.550999411663271,62.61867384538905,0,674.1403,674.2119,0.08971377,-0.017071899,-0.99246716,0.99665993,0.26579547,-0.13663693,0.12987578,0.32585979,209,-252,1451,1487.0,8.4995007E-4,-0.00224026,-0.0022212635,0.0032672912,0.0023960759270051104,-0.0023960759270051104,1.0318671212413677,5.1807531137476746,40.63762548182133,40.63762548182132,0.036724226323455754,0.06962978497188224,-0.02105412026223088,39.3845706365784,0.6783170662328958,0.013333987134352038,-90.01493942329058,-87.30062474294824,42.94,NONE,0.0,0.0,0.0,NONE,-1.9305960819200163E-10,4.8677848059082796E-11,0.0,15.239,15.239,15.326,1.3946187,0,1577,3.803,12.0,1.4,43,27.5,OK,40,0,0,0,0,0,65,100,0.0,0,0.0,-7.792378E-14,8.8E-44,0.0,-5.9807744E7,62,6.1035156E-5,-6.1035644E-5,1.2056099E-31,False,False,0,None,1.0374556E31,1.0842106E-19,
165215934,42.939,9.550999565285577,62.61867435776623,21,674.1773,674.006,0.09093984,-0.01712893,-0.9937468,0.99804616,0.26447496,0.14092582,0.023389762,0.3005897,209,-252,1448,1484.0,0.00508951,0.021676375,9.201916E-4,0.022284862,0.022265855626953046,-0.022265855626953046,1.0118633804437573,5.154438222195909,44.65180069339081,44.65180069339078,0.009642306411399765,0.052353841306269286,0.013196344377947554,39.40403296767831,0.6547032188030923,0.008384751634098676,-84.68594853183076,-81.97163385148842,42.94,,,9.5510001,62.6186746,20191026,111154,2019-10-26T11:11:54Z,577.371,0.56,1.11,6.37,13,8,21,0.0,0.0,0.0,9.551011980986669,62.618675793685654,120,,,,,,,,,,,,,,,false,false,false,false,false,false,false,false,false,false,0,0,0,0,46,59,58,46,946,946,945,947,940,940,940,940,0.0,0.0,0.0,0.0,1515.3,1511.7,1509.8,1514.7,0.0,0.0,0.0,0.0,0,0,0,0,-45.0,9.550999358801008,62.61867384340479,0,674.2592,674.2119,0.090950124,-0.017255574,-0.99300057,0.9973063,0.1505082,0.07331422,0.087083325,0.18870929,209,-254,1454,1490.0,-1.644599E-4,-7.9666235E-4,-0.0011005925,0.0013685839,8.134605034199945E-4,0.07476485502779849,1.038013912051569,5.176359547585083,40.63748229073591,40.63748229073593,0.047554729837034196,0.09041148169986885,-0.024215162132050282,39.594153138587814,0.6809496252886557,0.016046336662237225,-97.38026863080424,-94.6659539504619,42.96,NONE,0.0,0.0,0.0,NONE,-1.9305960819200163E-10,4.8677848059082796E-11,0.0,15.239,15.239,15.326,1.3946187,0,1577,3.803,12.0,1.4,43,27.5,OK,40,0,0,0,0,0,65,100,0.0,0,0.0,-7.792378E-14,8.8E-44,0.0,-5.9807744E7,62,6.1035156E-5,-6.1035644E-5,1.2056099E-31,False,False,0,None,1.0374556E31,1.0842106E-19,
165394857,42.985,9.550999505971527,62.618674360789946,21,674.2513,674.01965,0.09081905,-0.01835167,-0.9929329,0.9972465,0.14853048,-0.14584118,0.094693325,0.22868708,209,-252,1454,1490.0,0.004436721,0.021706041,-0.007958846,0.023541028,0.022154835610698715,0.04347517609963267,1.008690862078727,5.157065349065788,44.65341252005919,44.65341252005919,0.02142775186708177,0.09357441844172484,0.01270576043633098,39.356304411337646,0.6575638017296871,0.011436631610512539,-86.38927162206565,-83.67495694172331,43.03,,,9.5510001,62.6186746,20191026,111154,2019-10-26T11:11:54Z,577.371,0.56,1.11,6.37,13,8,21,0.0,0.0,0.0,9.551011980986669,62.618675793685654,120,,,,,,,,,,,,,,,false,false,false,false,false,false,false,false,false,false,0,0,0,0,44,59,59,45,946,946,944,946,940,940,940,940,0.0,0.0,0.0,0.0,1515.3,1511.1,1510.4,1515.3,0.0,0.0,0.0,0.0,0,0,0,0,-45.0,9.550999358801008,62.61867384340479,0,674.2592,674.2119,0.090950124,-0.017255574,-0.99300057,0.9973063,0.1505082,0.07331422,0.087083325,0.18870929,209,-254,1454,1490.0,-1.644599E-4,-7.9666235E-4,-0.0011005925,0.0013685839,8.134605034199945E-4,-8.134605034199945E-4,1.038013912051569,5.176359547585083,40.63748229073591,40.63748229073593,0.047554729837034196,0.09041148169986885,-0.024215162132050282,39.594153138587814,0.6809496252886557,0.016046336662237225,-97.38026863080424,-94.6659539504619,42.96,NONE,0.0,0.0,0.0,NONE,-1.9305960819200163E-10,4.8677848059082796E-11,0.0,15.239,15.239,15.326,1.3946187,0,1577,3.803,12.0,1.4,43,27.5,OK,40,0,0,0,0,0,65,100,0.0,0,0.0,-7.792378E-14,8.8E-44,0.0,-5.9807744E7,62,6.1035156E-5,-6.1035644E-5,1.2056099E-31,False,False,0,None,1.0374556E31,1.0842106E-19,
165526979,43.020,9.550999505971527,62.618674360789946,21,674.2513,674.01965,0.09081905,-0.01835167,-0.9929329,0.9972465,0.14853048,-0.14584118,0.094693325,0.22868708,209,-252,1454,1490.0,0.004436721,0.021706041,-0.007958846,0.023541028,0.022154835610698715,-0.022154835610698715,1.008690862078727,5.157065349065788,44.65341252005919,44.65341252005919,0.02142775186708177,0.09357441844172484,0.01270576043633098,39.356304411337646,0.6575638017296871,0.011436631610512539,-86.38927162206565,-83.67495694172331,43.03,,,9.5510001,62.6186746,20191026,111154,2019-10-26T11:11:54Z,577.371,0.56,1.11,6.37,13,8,21,0.0,0.0,0.0,9.551011980986669,62.618675793685654,120,,,,,,,,,,,,,,,false,false,false,false,false,false,false,false,false,false,0,0,0,0,44,59,59,45,946,946,944,946,940,940,940,940,0.0,0.0,0.0,0.0,1515.3,1511.1,1510.4,1515.3,0.0,0.0,0.0,0.0,0,0,0,0,-45.0,9.550999358801008,62.61867384340479,0,674.2592,674.2119,0.090950124,-0.017255574,-0.99300057,0.9973063,0.1505082,0.07331422,0.087083325,0.18870929,209,-254,1454,1490.0,-1.644599E-4,-7.9666235E-4,-0.0011005925,0.0013685839,8.134605034199945E-4,-8.134605034199945E-4,1.038013912051569,5.176359547585083,40.63748229073591,40.63748229073593,0.047554729837034196,0.09041148169986885,-0.024215162132050282,39.594153138587814,0.6809496252886557,0.016046336662237225,-97.38026863080424,-94.6659539504619,42.96,NONE,0.0,0.0,0.0,NONE,-1.9305960819200163E-10,4.8677848059082796E-11,0.0,15.239,15.239,15.326,1.3946187,0,1577,3.803,12.0,1.4,43,27.5,OK,40,0,0,0,0,0,65,100,0.0,0,0.0,-7.792378E-14,8.8E-44,0.0,-5.9807744E7,62,6.1035156E-5,-6.1035644E-5,1.2056099E-31,False,False,0,None,1.0374556E31,1.0842106E-19,
165675434,43.058,9.55099946630776,62.61867436233976,21,673.9739,674.0127,0.090674646,-0.017653864,-0.99433166,0.99861354,0.027141947,0.10247933,0.059802476,0.12171703,209,-254,1454,1490.0,0.0047404333,0.021689232,-0.0015595402,0.022255935,0.0222012274022338,0.030560658858826466,1.008123297038314,5.161160884730191,44.65335083513579,44.65335083513577,0.02913712347925984,0.10234050769552028,0.010541995439641542,39.54845733869561,0.6594903213234736,0.013472332373276191,-87.85812979095654,-85.1438151106142,42.99,,,9.5510001,62.6186746,20191026,111154,2019-10-26T11:11:54Z,577.371,0.56,1.11,6.37,13,8,21,0.0,0.0,0.0,9.551011980986669,62.618675793685654,120,,,,,,,,,,,,,,,false,false,false,false,false,false,false,false,false,false,0,0,0,0,44,58,60,45,945,946,945,947,940,940,940,940,0.0,0.0,0.0,0.0,1515.9,1511.1,1509.8,1515.9,0.0,0.0,0.0,0.0,0,0,0,0,-45.0,9.550999308921416,62.61867384278423,0,674.28827,674.2119,0.09083001,-0.017510492,-0.9945756,0.99886805,0.20494749,-0.036479723,-0.0118151065,0.20850381,206,-254,1451,1487.0,-8.1125676E-4,-3.117484E-4,-3.7126231E-4,9.450716E-4,8.690941297789626E-4,0.06526818200768596,1.0397930773616562,5.181215920939694,40.64044427702242,40.640444277022425,0.051308750959839534,0.10813992348397912,-0.02237803237980971,39.85525673799579,0.6833900227681379,0.018598097280005593,-94.26383958076794,-91.5495249004256,42.98,NONE,0.0,0.0,0.0,NONE,-1.9305960819200163E-10,4.8677848059082796E-11,0.0,15.238,15.238,15.326,1.3946187,0,1577,3.803,12.0,1.4,43,27.5,OK,40,0,0,0,0,0,65,100,0.0,0,0.0,-9.919843E-14,8.8E-44,0.0,-5.9807744E7,62,6.1035156E-5,-6.1035644E-5,1.2320614E-31,False,False,0,None,1.0845902E31,1.0842106E-19,
165845843,43.103,9.55099946630776,62.61867436233976,21,673.9739,674.0127,0.090674646,-0.017653864,-0.99433166,0.99861354,0.027141947,0.10247933,0.059802476,0.12171703,209,-254,1454,1490.0,0.0047404333,0.021689232,-0.0015595402,0.022255935,0.0222012274022338,-0.0222012274022338,1.008123297038314,5.161160884730191,44.65335083513579,44.65335083513577,0.02913712347925984,0.10234050769552028,0.010541995439641542,39.54845733869561,0.6594903213234736,0.013472332373276191,-87.85812979095654,-85.1438151106142,42.99,,,9.551,62.6186746,20191026,111154,2019-10-26T11:11:54Z,577.372,0.56,1.11,6.36,13,8,21,0.0,0.0,0.0,9.551011980986669,62.618675793685654,120,,,,,,,,,,,,,,,false,false,false,false,false,false,false,false,false,false,0,0,0,0,44,58,60,45,945,946,945,947,940,940,940,940,0.0,0.0,0.0,0.0,1515.9,1511.1,1509.8,1515.9,0.0,0.0,0.0,0.0,0,0,0,0,-45.0,9.550999308921416,62.61867384278423,0,674.28827,674.2119,0.09083001,-0.017510492,-0.9945756,0.99886805,0.20494749,-0.036479723,-0.0118151065,0.20850381,206,-254,1451,1487.0,-8.1125676E-4,-3.117484E-4,-3.7126231E-4,9.450716E-4,8.690941297789626E-4,-8.690941297789626E-4,1.0397930773616562,5.181215920939694,40.64044427702242,40.640444277022425,0.051308750959839534,0.10813992348397912,-0.02237803237980971,39.85525673799579,0.6833900227681379,0.018598097280005593,-94.26383958076794,-91.5495249004256,42.98,NONE,0.0,0.0,0.0,NONE,-1.9305960819200163E-10,4.8677848059082796E-11,0.0,15.238,15.238,15.326,1.3946187,0,1577,3.803,12.0,1.4,43,27.5,OK,40,0,0,0,0,0,65,100,0.0,0,0.0,-9.919843E-14,8.8E-44,0.0,-5.9807744E7,62,6.1035156E-5,-6.1035644E-5,1.2320614E-31,False,False,0,None,1.0845902E31,1.0842106E-19,
165983979,43.138,9.55099946630776,62.61867436233976,21,673.9739,674.0127,0.090674646,-0.017653864,-0.99433166,0.99861354,0.027141947,0.10247933,0.059802476,0.12171703,209,-254,1454,1490.0,0.0047404333,0.021689232,-0.0015595402,0.022255935,0.0222012274022338,-0.0222012274022338,1.008123297038314,5.161160884730191,44.65335083513579,44.65335083513577,0.02913712347925984,0.10234050769552028,0.010541995439641542,39.54845733869561,0.6594903213234736,0.013472332373276191,-87.85812979095654,-85.1438151106142,42.99,,,9.551,62.6186746,20191026,111154,2019-10-26T11:11:54Z,577.372,0.56,1.11,6.36,13,8,21,0.0,0.0,0.0,9.551011980986669,62.618675793685654,120,,,,,,,,,,,,,,,false,false,false,false,false,false,false,false,false,false,0,0,0,0,44,58,60,45,945,946,945,947,940,940,940,940,0.0,0.0,0.0,0.0,1515.9,1511.1,1509.8,1515.9,0.0,0.0,0.0,0.0,0,0,0,0,-45.0,9.550999401730232,62.618673837386815,0,674.1588,674.2119,0.0911889,-0.017569944,-0.99121994,0.9955607,0.21886006,-0.053277876,0.042588305,0.22924228,209,-254,1451,1487.0,-0.0030012743,4.0675572E-4,-0.0011424854,0.0032370312,0.0030287121304225207,0.1302271971936868,1.0423751184217076,5.1878538395034495,40.649428113879615,40.649428113879594,0.05284509550358922,0.12929841437735531,-0.026859158987008178,39.59870151679445,0.6790829630236752,0.023382108063173503,94.49258166505624,97.20689634539858,43.01,NONE,0.0,0.0,0.0,NONE,-1.9305960819200163E-10,4.8677848059082796E-11,0.0,15.238,15.238,15.326,1.3946187,0,1577,3.803,12.0,1.4,43,27.5,OK,40,0,0,0,0,0,65,100,0.0,0,0.0,-9.919843E-14,8.8E-44,0.0,-5.9807744E7,62,6.1035156E-5,-6.1035644E-5,1.2320614E-31,False,False,0,None,1.0845902E31,1.0842106E-19,
166271027,43.213,9.550999393331642,62.61867435963523,21,674.3623,674.02594,0.09099463,-0.016802687,-0.9927052,0.9970085,0.17435019,-0.13603872,0.14660113,0.26532322,209,-252,1451,1487.0,0.004648713,0.022281665,-0.010334632,0.024997756,0.02276144030886598,0.02742554620867788,1.0066077296964786,5.160916597764605,44.65366514533633,44.65366514533633,0.039435229141604605,0.11239356525295968,0.008867615045285961,39.36001137518127,0.6631848440660395,0.017216406522998863,-97.32138337404686,-94.60706869370452,43.04,,,9.551,62.6186746,20191026,111154,2019-10-26T11:11:54Z,577.372,0.56,1.11,6.36,13,8,21,0.0,0.0,0.0,9.551011980986669,62.618675793685654,120,,,,,,,,,,,,,,,false,false,false,false,false,false,false,false,false,false,0,0,0,0,44,58,58,45,945,946,944,946,940,940,940,940,0.0,0.0,0.0,0.0,1515.9,1511.1,1511.1,1515.3,0.0,0.0,0.0,0.0,0,0,0,0,-45.0,9.550999401730232,62.618673837386815,0,674.1588,674.2119,0.0911889,-0.017569944,-0.99121994,0.9955607,0.21886006,-0.053277876,0.042588305,0.22924228,209,-254,1451,1487.0,-0.0030012743,4.0675572E-4,-0.0011424854,0.0032370312,0.0030287121304225207,-0.0030287121304225207,1.0423751184217076,5.1878538395034495,40.649428113879615,40.649428113879594,0.05284509550358922,0.12929841437735531,-0.026859158987008178,39.59870151679445,0.6790829630236752,0.023382108063173503,94.49258166505624,97.20689634539858,43.01,NONE,0.0,0.0,0.0,NONE,2.841602324404138E-11,-3.937298831183782E-11,0.0,15.238,15.238,15.326,1.3946187,0,1577,3.803,12.0,1.4,43,27.5,OK,40,0,0,0,0,0,65,100,0.0,0,0.0,-9.919843E-14,8.8E-44,0.0,-5.9807744E7,62,6.1035156E-5,-6.1035644E-5,1.2320614E-31,False,False,0,None,1.0845902E31,1.0842106E-19,
166444353,43.258,9.550999393331642,62.61867435963523,21,674.3623,674.02594,0.09099463,-0.016802687,-0.9927052,0.9970085,0.17435019,-0.13603872,0.14660113,0.26532322,209,-252,1451,1487.0,0.004648713,0.022281665,-0.010334632,0.024997756,0.02276144030886598,-0.02276144030886598,1.0066077296964786,5.160916597764605,44.65366514533633,44.65366514533633,0.039435229141604605,0.11239356525295968,0.008867615045285961,39.36001137518127,0.6631848440660395,0.017216406522998863,-97.32138337404686,-94.60706869370452,43.04,,,9.551,62.6186746,20191026,111154,2019-10-26T11:11:54Z,577.372,0.56,1.11,6.36,13,8,21,0.0,0.0,0.0,9.551011980986669,62.618675793685654,120,,,,,,,,,,,,,,,false,false,false,false,false,false,false,false,false,false,0,0,0,0,43,59,58,44,945,945,944,946,940,940,940,940,0.0,0.0,0.0,0.0,1514.7,1510.4,1510.4,1515.9,0.0,0.0,0.0,0.0,0,0,0,0,-45.0,9.550999366745843,62.61867383916786,0,674.1324,674.2119,0.09050878,-0.018188413,-0.9928133,0.99709624,0.16377483,-0.0028223789,0.045495458,0.17,212,-252,1454,1490.0,1.9584176E-4,3.4935458E-4,-0.0012897946,0.0013505453,4.005029422520402E-4,0.03955849446117724,1.02644613082163,5.177355542122449,40.6436743702315,40.64367437023151,0.05724065295050983,0.14839266748582805,-0.029658675086583233,39.11415736163326,0.6807147657750627,0.025182127083353555,-86.3976653050522,-83.68335062470986,43.04,NONE,0.0,0.0,0.0,NONE,2.841602324404138E-11,-3.937298831183782E-11,0.0,15.24,15.24,15.328,1.3946187,0,1577,3.803,12.0,1.4,43,27.5,OK,40,0,0,0,0,0,65,100,0.0,0,0.0,-7.504761E-14,8.8E-44,0.0,-5.9807744E7,62,6.1035156E-5,-6.1035644E-5,1.2176771E-31,False,False,0,None,1.0589649E31,1.0842106E-19,
166613848,43.302,9.550999393331642,62.61867435963523,21,674.3623,674.02594,0.09099463,-0.016802687,-0.9927052,0.9970085,0.17435019,-0.13603872,0.14660113,0.26532322,209,-252,1451,1487.0,0.004648713,0.022281665,-0.010334632,0.024997756,0.02276144030886598,-0.02276144030886598,1.0066077296964786,5.160916597764605,44.65366514533633,44.65366514533633,0.039435229141604605,0.11239356525295968,0.008867615045285961,39.36001137518127,0.6631848440660395,0.017216406522998863,-97.32138337404686,-94.60706869370452,43.04,,,9.551,62.6186746,20191026,111154,2019-10-26T11:11:54Z,577.367,0.56,1.11,6.36,13,8,21,-0.01,0.0,0.0,9.551011980986669,62.618675793685654,120,,,,,,,,,,,,,,,false,false,false,false,false,false,false,false,false,false,0,0,0,0,43,59,58,44,945,945,944,946,940,940,940,940,0.0,0.0,0.0,0.0,1514.7,1510.4,1510.4,1515.9,0.0,0.0,0.0,0.0,0,0,0,0,-45.0,9.550999366745843,62.61867383916786,0,674.1324,674.2119,0.09050878,-0.018188413,-0.9928133,0.99709624,0.16377483,-0.0028223789,0.045495458,0.17,212,-252,1454,1490.0,1.9584176E-4,3.4935458E-4,-0.0012897946,0.0013505453,4.005029422520402E-4,-4.005029422520402E-4,1.02644613082163,5.177355542122449,40.6436743702315,40.64367437023151,0.05724065295050983,0.14839266748582805,-0.029658675086583233,39.11415736163326,0.6807147657750627,0.025182127083353555,-86.3976653050522,-83.68335062470986,43.04,NONE,0.0,0.0,0.0,NONE,2.841602324404138E-11,-3.937298831183782E-11,0.0,15.24,15.24,15.328,1.3946187,0,1577,3.803,12.0,1.4,43,27.5,OK,40,0,0,0,0,0,65,100,0.0,0,0.0,-7.504761E-14,8.8E-44,0.0,-5.9807744E7,62,6.1035156E-5,-6.1035644E-5,1.2176771E-31,False,False,0,None,1.0589649E31,1.0842106E-19,
166752069,43.338,9.550999393331642,62.61867435963523,21,674.3623,674.02594,0.09099463,-0.016802687,-0.9927052,0.9970085,0.17435019,-0.13603872,0.14660113,0.26532322,209,-252,1451,1487.0,0.004648713,0.022281665,-0.010334632,0.024997756,0.02276144030886598,-0.02276144030886598,1.0066077296964786,5.160916597764605,44.65366514533633,44.65366514533633,0.039435229141604605,0.11239356525295968,0.008867615045285961,39.36001137518127,0.6631848440660395,0.017216406522998863,-97.32138337404686,-94.60706869370452,43.04,,,9.551,62.6186746,20191026,111154,2019-10-26T11:11:54Z,577.367,0.56,1.11,6.36,13,8,21,-0.01,0.0,0.0,9.551011980986669,62.618675793685654,120,,,,,,,,,,,,,,,false,false,false,false,false,false,false,false,false,false,0,0,0,0,43,59,58,44,945,945,944,946,940,940,940,940,0.0,0.0,0.0,0.0,1514.7,1510.4,1510.4,1515.9,0.0,0.0,0.0,0.0,0,0,0,0,-45.0,9.55099929723818,62.61867383911612,0,674.3438,674.2119,0.08984436,-0.017342776,-0.99256516,0.99677396,0.08592313,0.014279407,0.009508622,0.08761906,209,-252,1457,1493.0,-5.6025264E-4,8.621544E-4,-4.0927526E-4,0.0011066614,0.0010281990229210102,0.09792244847936876,1.0251479145830265,5.180292724387721,40.646271263573894,40.64627126357391,0.059983387593793826,0.16084365732293027,-0.029087379458571202,39.3340944060993,0.6840861007156811,0.02873673306833523,-92.80704604695923,-90.09273136661689,43.11,NONE,0.0,0.0,0.0,NONE,2.841602324404138E-11,-3.937298831183782E-11,0.0,15.24,15.24,15.328,1.3946187,0,1577,3.803,12.0,1.4,43,27.5,OK,40,0,0,0,0,0,65,100,0.0,0,0.0,-7.504761E-14,8.8E-44,0.0,-5.9807744E7,62,6.1035156E-5,-6.1035644E-5,1.2176771E-31,False,False,0,None,1.0589649E31,1.0842106E-19,
167096196,43.428,9.550999393331642,62.61867435963523,21,674.3623,674.02594,0.09099463,-0.016802687,-0.9927052,0.9970085,0.17435019,-0.13603872,0.14660113,0.26532322,209,-252,1451,1487.0,0.004648713,0.022281665,-0.010334632,0.024997756,0.02276144030886598,-0.02276144030886598,1.0066077296964786,5.160916597764605,44.65366514533633,44.65366514533633,0.039435229141604605,0.11239356525295968,0.008867615045285961,39.36001137518127,0.6631848440660395,0.017216406522998863,-97.32138337404686,-94.60706869370452,43.04,,,9.551,62.6186746,20191026,111154,2019-10-26T11:11:54Z,577.367,0.56,1.11,6.36,13,8,21,-0.01,0.0,0.0,9.551011980986669,62.618675793685654,120,,,,,,,,,,,,,,,false,false,false,false,false,false,false,false,false,false,0,0,0,0,43,59,58,44,945,945,944,946,940,940,940,940,0.0,0.0,0.0,0.0,1514.7,1510.4,1510.4,1515.9,0.0,0.0,0.0,0.0,0,0,0,0,-45.0,9.550999258900749,62.61867383778662,0,674.1562,674.2119,0.09036618,-0.016984377,-0.99306345,0.9973111,0.32232797,-0.04772484,0.15377472,0.36030492,209,-252,1457,1493.0,-0.0010260754,6.3362226E-5,0.0015512897,0.0018610066,0.0010280299491678088,0.0209553671642779,1.0218909311664692,5.182889491780822,40.64962093944782,40.6496209394478,0.06813285071226265,0.1812194480970306,-0.030756639209419595,39.32027930791111,0.6859922246578698,0.030702863613455363,-97.02645398524264,-94.3121393049003,43.12,NONE,0.0,0.0,0.0,NONE,2.841602324404138E-11,-3.937298831183782E-11,0.0,15.24,15.24,15.328,1.3946187,0,1577,3.803,12.0,1.4,43,27.5,OK,40,0,0,0,0,0,65,100,0.0,0,0.0,-7.504761E-14,8.8E-44,0.0,-5.9807744E7,62,6.1035156E-5,-6.1035644E-5,1.2176771E-31,False,False,0,None,1.0589649E31,1.0842106E-19,
167294007,43.479,9.550999393331642,62.61867435963523,21,674.3623,674.02594,0.09099463,-0.016802687,-0.9927052,0.9970085,0.17435019,-0.13603872,0.14660113,0.26532322,209,-252,1451,1487.0,0.004648713,0.022281665,-0.010334632,0.024997756,0.02276144030886598,-0.02276144030886598,1.0066077296964786,5.160916597764605,44.65366514533633,44.65366514533633,0.039435229141604605,0.11239356525295968,0.008867615045285961,39.36001137518127,0.6631848440660395,0.017216406522998863,-97.32138337404686,-94.60706869370452,43.04,,,9.551,62.6186746,20191026,111154,2019-10-26T11:11:54Z,577.367,0.56,1.11,6.36,13,8,21,-0.01,0.0,0.0,9.551011980986669,62.618675793685654,120,,,,,,,,,,,,,,,false,false,false,false,false,false,false,false,false,false,0,0,0,0,45,59,59,44,945,946,945,947,940,940,940,940,0.0,0.0,0.0,0.0,1515.9,1511.1,1511.1,1515.3,0.0,0.0,0.0,0.0,0,0,0,0,-45.0,9.550999258900749,62.61867383778662,0,674.1562,674.2119,0.09036618,-0.016984377,-0.99306345,0.9973111,0.32232797,-0.04772484,0.15377472,0.36030492,209,-252,1457,1493.0,-0.0010260754,6.3362226E-5,0.0015512897,0.0018610066,0.0010280299491678088,-0.0010280299491678088,1.0218909311664692,5.182889491780822,40.64962093944782,40.6496209394478,0.06813285071226265,0.1812194480970306,-0.030756639209419595,39.32027930791111,0.6859922246578698,0.030702863613455363,-97.02645398524264,-94.3121393049003,43.12,NONE,0.0,0.0,0.0,NONE,2.841602324404138E-11,-3.937298831183782E-11,0.0,15.24,15.24,15.328,1.3946187,0,1577,3.803,12.0,1.4,43,27.5,OK,40,0,0,0,0,0,65,100,0.0,0,0.0,-1.0055845E-13,8.8E-44,0.0,-5.9807744E7,62,6.1035156E-5,-6.1035644E-5,1.2453021E-31,False,False,0,None,1.1082349E31,1.0842106E-19,
167458816,43.522,9.550999393331642,62.61867435963523,21,674.3623,674.02594,0.09099463,-0.016802687,-0.9927052,0.9970085,0.17435019,-0.13603872,0.14660113,0.26532322,209,-252,1451,1487.0,0.004648713,0.022281665,-0.010334632,0.024997756,0.02276144030886598,-0.02276144030886598,1.0066077296964786,5.160916597764605,44.65366514533633,44.65366514533633,0.039435229141604605,0.11239356525295968,0.008867615045285961,39.36001137518127,0.6631848440660395,0.017216406522998863,-97.32138337404686,-94.60706869370452,43.04,,,9.5509999,62.6186746,20191026,111154,2019-10-26T11:11:54Z,577.37,0.56,1.11,6.36,13,8,21,0.0,0.0,0.0,9.551011980986669,62.618675793685654,120,,,,,,,,,,,,,,,false,false,false,false,false,false,false,false,false,false,0,0,0,0,45,59,59,44,945,946,945,947,940,940,940,940,0.0,0.0,0.0,0.0,1515.9,1511.1,1511.1,1515.3,0.0,0.0,0.0,0.0,0,0,0,0,-45.0,9.550999258900749,62.61867383778662,0,674.1562,674.2119,0.09036618,-0.016984377,-0.99306345,0.9973111,0.32232797,-0.04772484,0.15377472,0.36030492,209,-252,1457,1493.0,-0.0010260754,6.3362226E-5,0.0015512897,0.0018610066,0.0010280299491678088,-0.0010280299491678088,1.0218909311664692,5.182889491780822,40.64962093944782,40.6496209394478,0.06813285071226265,0.1812194480970306,-0.030756639209419595,39.32027930791111,0.6859922246578698,0.030702863613455363,-97.02645398524264,-94.3121393049003,43.12,NONE,0.0,0.0,0.0,NONE,2.841602324404138E-11,-3.937298831183782E-11,0.0,15.24,15.24,15.328,1.3946187,0,1577,3.803,12.0,1.4,43,27.5,OK,40,0,0,0,0,0,65,100,0.0,0,0.0,-1.0055845E-13,8.8E-44,0.0,-5.9807744E7,62,6.1035156E-5,-6.1035644E-5,1.2453021E-31,False,False,0,None,1.1082349E31,1.0842106E-19,
167595570,43.557,9.550999393331642,62.61867435963523,21,674.3623,674.02594,0.09099463,-0.016802687,-0.9927052,0.9970085,0.17435019,-0.13603872,0.14660113,0.26532322,209,-252,1451,1487.0,0.004648713,0.022281665,-0.010334632,0.024997756,0.02276144030886598,-0.02276144030886598,1.0066077296964786,5.160916597764605,44.65366514533633,44.65366514533633,0.039435229141604605,0.11239356525295968,0.008867615045285961,39.36001137518127,0.6631848440660395,0.017216406522998863,-97.32138337404686,-94.60706869370452,43.04,,,9.5509999,62.6186746,20191026,111154,2019-10-26T11:11:54Z,577.37,0.56,1.11,6.36,13,8,21,0.0,0.0,0.0,9.551011980986669,62.618675793685654,120,15023070,20,100,836,3685,3694,4310,4340,-1370,17372,23,2,16744,0,false,false,false,false,false,false,false,false,false,false,0,0,0,0,44,59,59,45,945,945,945,947,940,940,940,940,0.0,0.0,0.0,0.0,1515.3,1511.1,1510.4,1515.9,0.0,0.0,0.0,0.0,0,0,0,0,-45.0,9.550999326363769,62.61867383904048,0,674.1694,674.2119,0.09049628,-0.017223563,-0.99594873,1.0002,0.26678064,-0.13857092,0.04401328,0.3038272,209,-254,1457,1493.0,1.0510393E-4,-0.001846917,-0.0010553449,0.0021297657,0.0018499051652785905,0.09529935218261036,1.01033480692541,5.18738079916333,40.652285480618204,40.65228548061822,0.0780012006913424,0.2106121802256822,-0.040051600402904994,39.48290005447708,0.6826766390566691,0.034155718446044495,84.97150814109598,87.68582282143832,43.17,NONE,0.0,0.0,0.0,NONE,2.841602324404138E-11,-3.937298831183782E-11,0.0,15.24,15.24,15.328,1.3946187,0,1577,3.803,12.0,1.4,43,27.5,OK,40,0,0,0,0,0,65,100,0.0,0,0.0,-1.0055845E-13,8.8E-44,0.0,-5.9807744E7,62,6.1035156E-5,-6.1035644E-5,1.2453021E-31,False,False,0,None,1.1082349E31,1.0842106E-19,
167804288,43.612,9.550999393331642,62.61867435963523,21,674.3623,674.02594,0.09099463,-0.016802687,-0.9927052,0.9970085,0.17435019,-0.13603872,0.14660113,0.26532322,209,-252,1451,1487.0,0.004648713,0.022281665,-0.010334632,0.024997756,0.02276144030886598,-0.02276144030886598,1.0066077296964786,5.160916597764605,44.65366514533633,44.65366514533633,0.039435229141604605,0.11239356525295968,0.008867615045285961,39.36001137518127,0.6631848440660395,0.017216406522998863,-97.32138337404686,-94.60706869370452,43.04,,,9.5509999,62.6186746,20191026,111154,2019-10-26T11:11:54Z,577.37,0.56,1.11,6.36,13,8,21,0.0,0.0,0.0,9.551011980986669,62.618675793685654,120,15023070,20,100,836,3685,3694,4310,4340,-1370,17372,23,2,16744,0,false,false,false,false,false,false,false,false,false,false,0,0,0,0,44,59,59,45,945,945,945,947,940,940,940,940,0.0,0.0,0.0,0.0,1515.3,1511.1,1510.4,1515.9,0.0,0.0,0.0,0.0,0,0,0,0,-45.0,9.550999326363769,62.61867383904048,0,674.1694,674.2119,0.09049628,-0.017223563,-0.99594873,1.0002,0.26678064,-0.13857092,0.04401328,0.3038272,209,-254,1457,1493.0,1.0510393E-4,-0.001846917,-0.0010553449,0.0021297657,0.0018499051652785905,-0.0018499051652785905,1.01033480692541,5.18738079916333,40.652285480618204,40.65228548061822,0.0780012006913424,0.2106121802256822,-0.040051600402904994,39.48290005447708,0.6826766390566691,0.034155718446044495,84.97150814109598,87.68582282143832,43.17,NONE,0.0,0.0,0.0,NONE,2.841602324404138E-11,-3.937298831183782E-11,0.0,15.24,15.24,15.328,1.3946187,0,1577,3.803,12.0,1.4,43,27.5,OK,40,0,0,0,0,0,65,100,0.0,0,0.0,-1.0055845E-13,8.8E-44,0.0,-5.9807744E7,62,6.1035156E-5,-6.1035644E-5,1.2453021E-31,False,False,0,None,1.1082349E31,1.0842106E-19,
167979396,43.657,9.550999290504093,62.61867435430141,21,674.3808,674.038,0.09088699,-0.016928367,-0.99311316,0.997407,0.1056937,-0.043646865,-0.0030908207,0.11439301,206,-252,1448,1484.0,0.0051263254,0.022065153,-0.0036631275,0.022947084,0.022652818413764198,0.09362791077766991,0.998135440231063,5.1650053054155425,44.659332954306315,44.65933295430631,0.07524128878648985,0.1822649804728836,-0.03596423686293386,39.59632316747731,0.6684321039209131,0.022508317515865676,-99.14928399308074,-96.4349693127384,43.21,,,9.5509999,62.6186746,20191026,111154,2019-10-26T11:11:54Z,577.37,0.56,1.11,6.36,13,8,21,0.0,0.0,0.0,9.551011980986669,62.618675793685654,120,15023070,20,100,836,3685,3694,4310,4340,-1370,17372,23,2,16744,0,false,false,false,false,false,false,false,false,false,false,0,0,0,0,44,58,58,43,945,946,945,946,940,940,940,940,0.0,0.0,0.0,0.0,1515.9,1511.1,1511.1,1515.3,0.0,0.0,0.0,0.0,0,0,0,0,-45.0,9.550999299487952,62.61867383824335,0,673.96063,674.2119,0.09032795,-0.017407365,-0.9910666,0.99532664,0.4738514,0.049303673,0.015068712,0.47664776,206,-252,1451,1487.0,-6.562622E-5,-0.0016386672,-7.73506E-4,0.0018132426,0.0016399808050945102,0.028623320780130634,1.0122571907816316,5.19083614403607,40.65612266583874,40.65612266583872,0.08095030996885429,0.2475812248247674,-0.04450742267294025,39.561908431909295,0.6840078532484452,0.035532994796587836,-96.40418032687462,-93.68986564653228,43.19,NONE,0.0,0.0,0.0,NONE,-1.1331771965332182E-10,-1.0316541694253972E-11,0.0,15.24,15.24,15.328,1.3964165,0,1576,3.803,12.0,1.396,43,27.5,OK,41,0,0,0,0,0,65,100,0.0,0,0.0,-9.078502E-14,8.8E-44,0.0,-5.9807744E7,62,6.1035156E-5,-6.1035644E-5,1.2348299E-31,False,False,0,None,1.0895729E31,1.0842106E-19,
168210885,43.717,9.550999290504093,62.61867435430141,21,674.3808,674.038,0.09088699,-0.016928367,-0.99311316,0.997407,0.1056937,-0.043646865,-0.0030908207,0.11439301,206,-252,1448,1484.0,0.0051263254,0.022065153,-0.0036631275,0.022947084,0.022652818413764198,-0.022652818413764198,0.998135440231063,5.1650053054155425,44.659332954306315,44.65933295430631,0.07524128878648985,0.1822649804728836,-0.03596423686293386,39.59632316747731,0.6684321039209131,0.022508317515865676,-99.14928399308074,-96.4349693127384,43.21,,,9.5509999,62.6186746,20191026,111154,2019-10-26T11:11:54Z,577.37,0.56,1.11,6.36,13,8,21,0.0,0.0,0.0,9.551011980986669,62.618675793685654,120,15023070,20,100,836,3685,3694,4310,4340,-1370,17372,23,2,16744,0,false,false,false,false,false,false,false,false,false,false,0,0,0,0,44,58,58,43,945,946,945,946,940,940,940,940,0.0,0.0,0.0,0.0,1515.9,1511.1,1511.1,1515.3,0.0,0.0,0.0,0.0,0,0,0,0,-45.0,9.550999299487952,62.61867383824335,0,673.96063,674.2119,0.09032795,-0.017407365,-0.9910666,0.99532664,0.4738514,0.049303673,0.015068712,0.47664776,206,-252,1451,1487.0,-6.562622E-5,-0.0016386672,-7.73506E-4,0.0018132426,0.0016399808050945102,-0.0016399808050945102,1.0122571907816316,5.19083614403607,40.65612266583874,40.65612266583872,0.08095030996885429,0.2475812248247674,-0.04450742267294025,39.561908431909295,0.6840078532484452,0.035532994796587836,-96.40418032687462,-93.68986564653228,43.19,NONE,0.0,0.0,0.0,NONE,-1.1331771965332182E-10,-1.0316541694253972E-11,0.0,15.24,15.24,15.328,1.3964165,0,1576,3.803,12.0,1.396,43,27.5,OK,41,0,0,0,0,0,65,100,0.0,0,0.0,-9.078502E-14,8.8E-44,0.0,-5.9807744E7,62,6.1035156E-5,-6.1035644E-5,1.2348299E-31,False,False,0,None,1.0895729E31,1.0842106E-19,
168369653,43.759,9.550999290504093,62.61867435430141,21,674.3808,674.038,0.09088699,-0.016928367,-0.99311316,0.997407,0.1056937,-0.043646865,-0.0030908207,0.11439301,206,-252,1448,1484.0,0.0051263254,0.022065153,-0.0036631275,0.022947084,0.022652818413764198,-0.022652818413764198,0.998135440231063,5.1650053054155425,44.659332954306315,44.65933295430631,0.07524128878648985,0.1822649804728836,-0.03596423686293386,39.59632316747731,0.6684321039209131,0.022508317515865676,-99.14928399308074,-96.4349693127384,43.21,,,9.5509999,62.6186746,20191026,111154,2019-10-26T11:11:54Z,577.37,0.56,1.11,6.36,13,8,21,0.0,0.0,0.0,9.551011980986669,62.618675793685654,120,15023070,20,100,836,3685,3694,4310,4340,-1370,17372,23,2,16744,0,false,false,false,false,false,false,false,false,false,false,0,0,0,0,44,58,58,43,945,946,945,947,940,940,940,940,0.0,0.0,0.0,0.0,1515.9,1511.1,1510.4,1515.9,0.0,0.0,0.0,0.0,0,0,0,0,-45.0,9.550999215666456,62.61867383897405,0,674.1588,674.2119,0.09035408,-0.017463699,-0.9946441,0.99889225,0.20744674,0.058432695,0.090620436,0.23379606,209,-252,1448,1484.0,-1.7136343E-4,1.6692141E-4,-9.651054E-4,9.943121E-4,2.3922412358484205E-4,0.10366419529995699,1.0168528830055257,5.188752433387314,40.65358047478605,40.653580474786054,0.08622371132547824,0.2815748624605349,-0.039131874552511645,39.34636211960686,0.6880477898868889,0.03982037117599291,-91.62845920906908,-88.91414452872674,43.21,NONE,0.0,0.0,0.0,NONE,-1.1331771965332182E-10,-1.0316541694253972E-11,0.0,15.24,15.24,15.328,1.3964165,0,1576,3.803,12.0,1.396,43,27.5,OK,41,0,0,0,0,0,65,100,0.0,0,0.0,-9.078502E-14,8.8E-44,0.0,-5.9807744E7,62,6.1035156E-5,-6.1035644E-5,1.2348299E-31,False,False,0,None,1.0895729E31,1.0842106E-19,
168572182,43.811,9.550999290504093,62.61867435430141,21,674.3808,674.038,0.09088699,-0.016928367,-0.99311316,0.997407,0.1056937,-0.043646865,-0.0030908207,0.11439301,206,-252,1448,1484.0,0.0051263254,0.022065153,-0.0036631275,0.022947084,0.022652818413764198,-0.022652818413764198,0.998135440231063,5.1650053054155425,44.659332954306315,44.65933295430631,0.07524128878648985,0.1822649804728836,-0.03596423686293386,39.59632316747731,0.6684321039209131,0.022508317515865676,-99.14928399308074,-96.4349693127384,43.21,,,9.5509999,62.6186746,20191026,111154,2019-10-26T11:11:54Z,577.37,0.56,1.11,6.36,13,8,21,0.0,0.0,0.0,9.551011980986669,62.618675793685654,120,15023070,20,100,836,3685,3694,4310,4340,-1370,17372,23,2,16744,0,false,false,false,false,false,false,false,false,false,false,0,0,0,0,44,58,58,43,945,946,945,947,940,940,940,940,0.0,0.0,0.0,0.0,1515.9,1511.1,1510.4,1515.9,0.0,0.0,0.0,0.0,0,0,0,0,-45.0,9.550999215666456,62.61867383897405,0,674.1588,674.2119,0.09035408,-0.017463699,-0.9946441,0.99889225,0.20744674,0.058432695,0.090620436,0.23379606,209,-252,1448,1484.0,-1.7136343E-4,1.6692141E-4,-9.651054E-4,9.943121E-4,2.3922412358484205E-4,-2.3922412358484205E-4,1.0168528830055257,5.188752433387314,40.65358047478605,40.653580474786054,0.08622371132547824,0.2815748624605349,-0.039131874552511645,39.34636211960686,0.6880477898868889,0.03982037117599291,-91.62845920906908,-88.91414452872674,43.21,NONE,0.0,0.0,0.0,NONE,-1.1331771965332182E-10,-1.0316541694253972E-11,0.0,15.24,15.24,15.328,1.3964165,0,1576,3.803,12.0,1.396,43,27.5,OK,41,0,0,0,0,0,65,100,0.0,0,0.0,-9.078502E-14,8.8E-44,0.0,-5.9807744E7,62,6.1035156E-5,-6.1035644E-5,1.2348299E-31,False,False,0,None,1.0895729E31,1.0842106E-19,
168752860,43.858,9.550999290504093,62.61867435430141,21,674.3808,674.038,0.09088699,-0.016928367,-0.99311316,0.997407,0.1056937,-0.043646865,-0.0030908207,0.11439301,206,-252,1448,1484.0,0.0051263254,0.022065153,-0.0036631275,0.022947084,0.022652818413764198,-0.022652818413764198,0.998135440231063,5.1650053054155425,44.659332954306315,44.65933295430631,0.07524128878648985,0.1822649804728836,-0.03596423686293386,39.59632316747731,0.6684321039209131,0.022508317515865676,-99.14928399308074,-96.4349693127384,43.21,,,9.5509999,62.6186746,20191026,111154,2019-10-26T11:11:54Z,577.37,0.56,1.11,6.36,13,8,21,0.0,0.0,0.0,9.551011980986669,62.618675793685654,120,15023070,20,100,836,3685,3694,4310,4340,-1370,17372,23,2,16744,0,false,false,false,false,false,false,false,false,false,false,0,0,0,0,45,59,58,45,945,945,945,946,940,940,940,940,0.0,0.0,0.0,0.0,1515.3,1510.4,1510.4,1514.7,0.0,0.0,0.0,0.0,0,0,0,0,-45.0,9.55099918447421,62.61867383806055,0,674.01086,674.2119,0.09058843,-0.017310303,-0.9930973,0.9973706,0.14179227,-0.021063155,0.045764003,0.15047607,209,-254,1448,1484.0,-1.04162864E-4,-1.57647E-5,-0.0015217185,0.0015253607,1.0534907666627567E-4,0.03393386354677857,1.0140163843524144,5.191765220765151,40.65815782231835,40.658157822318344,0.09302638030327107,0.298994424488825,-0.03726793304778094,39.53487476847846,0.6895934762243504,0.04141876420517366,-96.35783095552485,-93.6435162751825,43.3,NONE,0.0,0.0,0.0,NONE,-1.1331771965332182E-10,-1.0316541694253972E-11,0.0,15.24,15.24,15.331,1.3964165,0,1576,3.802,12.0,1.396,43,27.5,OK,41,0,0,0,0,0,65,100,0.0,0,0.0,-1.279081E-13,8.8E-44,0.0,-5.9807744E7,62,6.1035156E-5,-6.1035644E-5,1.26408E-31,False,False,0,None,1.1416902E31,1.0842106E-19,
168908268,43.899,9.550999290504093,62.61867435430141,21,674.3808,674.038,0.09088699,-0.016928367,-0.99311316,0.997407,0.1056937,-0.043646865,-0.0030908207,0.11439301,206,-252,1448,1484.0,0.0051263254,0.022065153,-0.0036631275,0.022947084,0.022652818413764198,-0.022652818413764198,0.998135440231063,5.1650053054155425,44.659332954306315,44.65933295430631,0.07524128878648985,0.1822649804728836,-0.03596423686293386,39.59632316747731,0.6684321039209131,0.022508317515865676,-99.14928399308074,-96.4349693127384,43.21,,,9.5509997,62.6186746,20191026,111155,2019-10-26T11:11:55Z,577.36,0.56,1.11,6.35,13,8,21,0.0,-0.02,0.0,9.551011980986669,62.618675793685654,120,15023070,20,100,836,3685,3694,4310,4340,-1370,17372,23,2,16744,0,false,false,false,false,false,false,false,false,false,false,0,0,0,0,45,59,58,45,945,945,945,946,940,940,940,940,0.0,0.0,0.0,0.0,1515.3,1510.4,1510.4,1514.7,0.0,0.0,0.0,0.0,0,0,0,0,-45.0,9.55099918447421,62.61867383806055,0,674.01086,674.2119,0.09058843,-0.017310303,-0.9930973,0.9973706,0.14179227,-0.021063155,0.045764003,0.15047607,209,-254,1448,1484.0,-1.04162864E-4,-1.57647E-5,-0.0015217185,0.0015253607,1.0534907666627567E-4,-1.0534907666627567E-4,1.0140163843524144,5.191765220765151,40.65815782231835,40.658157822318344,0.09302638030327107,0.298994424488825,-0.03726793304778094,39.53487476847846,0.6895934762243504,0.04141876420517366,-96.35783095552485,-93.6435162751825,43.3,NONE,0.0,0.0,0.0,NONE,-1.1331771965332182E-10,-1.0316541694253972E-11,0.0,15.24,15.24,15.331,1.3964165,0,1576,3.802,12.0,1.396,43,27.5,OK,41,0,0,0,0,0,65,100,0.0,0,0.0,-1.279081E-13,8.8E-44,0.0,-5.9807744E7,62,6.1035156E-5,-6.1035644E-5,1.26408E-31,False,False,0,None,1.1416902E31,1.0842106E-19,
169056147,43.937,9.550999290504093,62.61867435430141,21,674.3808,674.038,0.09088699,-0.016928367,-0.99311316,0.997407,0.1056937,-0.043646865,-0.0030908207,0.11439301,206,-252,1448,1484.0,0.0051263254,0.022065153,-0.0036631275,0.022947084,0.022652818413764198,-0.022652818413764198,0.998135440231063,5.1650053054155425,44.659332954306315,44.65933295430631,0.07524128878648985,0.1822649804728836,-0.03596423686293386,39.59632316747731,0.6684321039209131,0.022508317515865676,-99.14928399308074,-96.4349693127384,43.21,,,9.5509997,62.6186746,20191026,111155,2019-10-26T11:11:55Z,577.36,0.56,1.11,6.35,13,8,21,0.0,-0.02,0.0,9.551011980986669,62.618675793685654,120,15023070,20,100,836,3685,3694,4310,4340,-1370,17372,23,2,16744,0,false,false,false,false,false,false,false,false,false,false,0,0,0,0,45,59,58,45,945,945,945,946,940,940,940,940,0.0,0.0,0.0,0.0,1515.3,1510.4,1510.4,1514.7,0.0,0.0,0.0,0.0,0,0,0,0,-45.0,9.550999102719572,62.618673839020616,0,674.14294,674.2119,0.09038301,-0.017259017,-0.99490935,0.99915546,0.2278955,-0.047781695,0.06500273,0.2417536,206,-252,1448,1484.0,-1.0002496E-4,9.4528295E-5,0.0016637514,0.0016694339,1.3762482731662244E-4,0.10868190099802043,1.0133264835054374,5.194779912854617,40.65433696737201,40.65433696737199,0.09855553393431357,0.31744816319849434,-0.04070446771968916,39.57385586153861,0.6935288601865363,0.04560103482386145,-91.25167237269845,-88.53735769235611,43.32,NONE,0.0,0.0,0.0,NONE,-1.1331771965332182E-10,-1.0316541694253972E-11,0.0,15.24,15.24,15.331,1.3964165,0,1576,3.802,12.0,1.396,43,27.5,OK,41,0,0,0,0,0,65,100,0.0,0,0.0,-1.279081E-13,8.8E-44,0.0,-5.9807744E7,62,6.1035156E-5,-6.1035644E-5,1.26408E-31,False,False,0,None,1.1416902E31,1.0842106E-19,
169234843,43.983,9.550999253417679,62.6186743535761,21,674.20374,674.01196,0.09086233,-0.018025205,-0.9929281,0.9972397,0.13149159,-0.02203998,0.07130313,0.15119502,206,-252,1448,1484.0,0.006050657,0.02174434,0.008627757,0.024163298,0.022570485432115157,0.018303947303966325,0.9964535543307498,5.1696527611660565,44.66076048591284,44.66076048591282,0.0854525083715381,0.21777105105905337,-0.045797400563966154,39.5822971046012,0.670292937515384,0.02440661978272817,-95.14932167948807,-92.43500699914573,43.36,,,9.5509997,62.6186746,20191026,111155,2019-10-26T11:11:55Z,577.36,0.56,1.11,6.35,13,8,21,0.0,-0.02,0.0,9.551011980986669,62.618675793685654,120,15023070,20,100,836,3685,3694,4310,4340,-1370,17372,23,2,16744,0,false,false,false,false,false,false,false,false,false,false,0,0,0,0,45,59,58,45,945,945,945,946,940,940,940,940,0.0,0.0,0.0,0.0,1515.3,1510.4,1510.4,1514.7,0.0,0.0,0.0,0.0,0,0,0,0,-45.0,9.550999102719572,62.618673839020616,0,674.14294,674.2119,0.09038301,-0.017259017,-0.99490935,0.99915546,0.2278955,-0.047781695,0.06500273,0.2417536,206,-252,1448,1484.0,-1.0002496E-4,9.4528295E-5,0.0016637514,0.0016694339,1.3762482731662244E-4,-1.3762482731662244E-4,1.0133264835054374,5.194779912854617,40.65433696737201,40.65433696737199,0.09855553393431357,0.31744816319849434,-0.04070446771968916,39.57385586153861,0.6935288601865363,0.04560103482386145,-91.25167237269845,-88.53735769235611,43.32,NONE,0.0,0.0,0.0,NONE,-1.1331771965332182E-10,-1.0316541694253972E-11,0.0,15.24,15.24,15.331,1.3964165,0,1576,3.802,12.0,1.396,43,27.5,OK,41,0,0,0,0,0,65,100,0.0,0,0.0,-1.279081E-13,8.8E-44,0.0,-5.9807744E7,62,6.1035156E-5,-6.1035644E-5,1.26408E-31,False,False,0,None,1.1416902E31,1.0842106E-19,
