Tick#,offsetTime,IMU_ATTI(0):Longitude,IMU_ATTI(0):Latitude,IMU_ATTI(0):numSats,IMU_ATTI(0):barometer:Raw,IMU_ATTI(0):barometer:Smooth,IMU_ATTI(0):accel:X,IMU_ATTI(0):accel:Y,IMU_ATTI(0):accel:Z,IMU_ATTI(0):accel:Composite,IMU_ATTI(0):gyro:X,IMU_ATTI(0):gyro:Y,IMU_ATTI(0):gyro:Z,IMU_ATTI(0):gyro:Composite,IMU_ATTI(0):mag:X,IMU_ATTI(0):mag:Y,IMU_ATTI(0):mag:Z,IMU_ATTI(0):mag:Mod,IMU_ATTI(0):velN,IMU_ATTI(0):velE,IMU_ATTI(0):velD,IMU_ATTI(0):velComposite,IMU_ATTI(0):velH,IMU_ATTI(0):GPS-H,IMU_ATTI(0):roll,IMU_ATTI(0):pitch,IMU_ATTI(0):yaw,IMU_ATTI(0):yaw360,IMU_ATTI(0):totalGyro:Z,IMU_ATTI(0):totalGyro:X,IMU_ATTI(0):totalGyro:Y,IMU_ATTI(0):magYaw,IMU_ATTI(0):distanceHP,IMU_ATTI(0):distanceTravelled,IMU_ATTI(0):directionOfTravel[mag],IMU_ATTI(0):directionOfTravel[true],IMU_ATTI(0):temperature,General:relativeHeight,General:absoluteHeight,GPS(0):Long,GPS(0):Lat,GPS(0):Date,GPS(0):Time,GPS:dateTimeStamp,GPS(0):heightMSL,GPS(0):hDOP,GPS(0):pDOP,GPS(0):sAcc,GPS(0):numGPS,GPS(0):numGLNAS,GPS(0):numSV,GPS(0):velN,GPS(0):velE,GPS(0):velD,HP:Longitude,HP:Latitude,HP:rthHeight,BatBlackBox:tick,BatBlackBox:id,BatBlackBox:rsoc,BatBlackBox:index,BatBlackBox:rm,BatBlackBox:fcc,BatBlackBox:cell_min,BatBlackBox:cell_max,BatBlackBox:current,BatBlackBox:voltage,BatBlackBox:temp,BatBlackBox:flag,BatBlackBox:reserve,BatBlackBox:user_data,OA:avoidObst,OA:emergBrake,OA:radiusLimit,OA:airportLimit,OA:groundForceLanding,OA:horizNearBoundary,OA:vertLowLimit,OA:vertAirportLimit,OA:roofLimit,OA:hitGroundLimit,Motor:Speed:RFront,Motor:Speed:LFront,Motor:Speed:LBack,Motor:Speed:RBack,Motor:EscTemp:RFront,Motor:EscTemp:LFront,Motor:EscTemp:LBack,Motor:EscTemp:RBack,Motor:PPMrecv:RFront,Motor:PPMrecv:LFront,Motor:PPMrecv:LBack,Motor:PPMrecv:RBack,Motor:PPMsend:RFront,Motor:PPMsend:LFront,Motor:PPMsend:LBack,Motor:PPMsend:RBack,Motor:V_out:RFront,Motor:V_out:LFront,Motor:V_out:LBack,Motor:V_out:RBack,Motor:Volts:RFront,Motor:Volts:LFront,Motor:Volts:LBack,Motor:Volts:RBack,Motor:Current:RFront,Motor:Current:LFront,Motor:Current:LBack,Motor:Current:RBack,Motor:Status:RFront,Motor:Status:LFront,Motor:Status:LBack,Motor:Status:RBack,Motor:thrustAngle,IMU_ATTI(1):Longitude,IMU_ATTI(1):Latitude,IMU_ATTI(1):numSats,IMU_ATTI(1):barometer:Raw,IMU_ATTI(1):barometer:Smooth,IMU_ATTI(1):accel:X,IMU_ATTI(1):accel:Y,IMU_ATTI(1):accel:Z,IMU_ATTI(1):accel:Composite,IMU_ATTI(1):gyro:X,IMU_ATTI(1):gyro:Y,IMU_ATTI(1):gyro:Z,IMU_ATTI(1):gyro:Composite,IMU_ATTI(1):mag:X,IMU_ATTI(1):mag:Y,IMU_ATTI(1):mag:Z,IMU_ATTI(1):mag:Mod,IMU_ATTI(1):velN,IMU_ATTI(1):velE,IMU_ATTI(1):velD,IMU_ATTI(1):velComposite,IMU_ATTI(1):velH,IMU_ATTI(1):GPS-H,IMU_ATTI(1):roll,IMU_ATTI(1):pitch,IMU_ATTI(1):yaw,IMU_ATTI(1):yaw360,IMU_ATTI(1):totalGyro:Z,IMU_ATTI(1):totalGyro:X,IMU_ATTI(1):totalGyro:Y,IMU_ATTI(1):magYaw,IMU_ATTI(1):distanceHP,IMU_ATTI(1):distanceTravelled,IMU_ATTI(1):directionOfTravel[mag],IMU_ATTI(1):directionOfTravel[true],IMU_ATTI(1):temperature,IMUEX(0):err,IMUEX(0):rtk_Longitude,IMUEX(0):rtk_Latitude,IMUEX(0):rtk_Alti,IMUEX(1):err,IMUEX(1):rtk_Longitude,IMUEX(1):rtk_Latitude,IMUEX(1):rtk_Alti,MotorCtrl:Status,MotorCtrl:PWM:RFront,MotorCtrl:PWM:LFront,MotorCtrl:PWM:LBack,MotorCtrl:PWM:RBack,BattInfo:Voltage,BattInfo:BatVoltage,BattInfo:AdVoltage,BattInfo:AvgCurrent,BattInfo:R_time,BattInfo:R_CAP_MAH,BattInfo:LowCellVoltage,BattInfo:LowCellVolThreshold,BattInfo:BatCurrent,BattInfo:Remaining%,BattInfo:Temp,BattInfo:status,battery_info:BatDynCnt,battery_info:Vol1Protect,battery_info:Vol2Protect,battery_info:Cap1Protect,battery_info:Cap2Protect,battery_info:Batpresent,battery_info:sopPercentage,battery_info:sopValue,battery_info:sopScale,battery_info:sopFlg,BattInfo:WindHeading:WindDir,battery_info:home_dir,BattInfo:Wind:rangeMin,BattInfo:Wind:rangeMax,battery_info:cap_speed,battery_info:against_wind,battery_info:emergency_land_cap,battery_info:intel_bat_land_cap,battery_info:intel_bat_gh_cap,BattInfo:Smart:SmartGh,BattInfo:Smart:SmartLand,BattInfo:GoHome:CntDown,BattInfo:GoHome:GhCmd,BattInfo:GoHome:CapLevel,BattInfo:GoHome:LandCapLv,Attribute|Value,ConvertDatV3,3.6.6-Tablet
134555196,.000,9.134155576937824,62.692162292338864,19,716.8032,716.534,0.06063661,0.07521572,-0.9942661,0.9989491,0.16892347,-0.023367165,-0.095273845,0.19534141,71,-520,1430,1523.0,0.009130286,-0.048169658,-0.06692479,0.08296147,0.04902732033949728,-0.04902732033949728,-4.355770333254553,3.5458182694156943,74.48635856834447,74.48635856834449,0.10046650911235475,0.1924734066111566,0.005184794886146234,68.49615140770204,1.2851220824949656,0.6991908872168265,-101.33961811789398,-98.82035313821063,59.69,,,9.1341566,62.6921624,20190921,100200,2019-09-21T10:02:00Z,785.139,0.58,1.13,8.83,11,8,19,0.0,0.0,0.01,9.134178995410801,62.69216655210043,120,12759921,48,44,513,1465,3400,3809,3816,-1148,15269,31,212,15262,0,false,false,false,false,false,false,false,false,false,false,0,0,0,0,53,69,69,53,944,946,945,945,940,940,940,940,0.0,0.0,0.0,0.0,1482.8,1478.5,1476.7,1480.4,0.0,0.0,0.0,0.0,0,0,0,0,-45.0,9.134155652338684,62.69216175912427,0,716.44653,716.8241,0.059999272,0.075472765,-0.99474156,0.99940324,0.13631439,-0.16155191,-0.056025147,0.21867658,74,-520,1430,1523.0,0.0013292579,-8.5773834E-5,-0.0022943127,0.002652952,0.0013320223468623645,-0.0013320223468623645,-4.36346933002073,3.485622548605006,70.20196912453032,70.20196912453031,-0.05611776665841519,-0.14515643791249294,-0.4094338449462274,68.30955950063594,1.3046250500706862,0.7150455858484508,-113.58218436231324,-111.0629193826299,59.67,NONE,0.0,0.0,0.0,NONE,-1.4830011665381017E-11,3.912856388925169E-11,0.0,,,,,,14.913,14.913,14.978,1.4286097,0,719,3.727,12.0,1.441,22,16.6,OK,32,0,0,1,0,0,65,68,0.0,0,0.0,-1.5995322E-24,8.8E-44,0.0,-6.1177856E7,62,3.0198283E-15,-3.0198425E-15,2.077931E-38,False,False,0,None,1.22870996E33,1.0842106E-19,Firmware Date| Jul 26 2019
134706290,.039,9.134155576937824,62.692162292338864,19,716.8032,716.534,0.06063661,0.07521572,-0.9942661,0.9989491,0.16892347,-0.023367165,-0.095273845,0.19534141,71,-520,1430,1523.0,0.009130286,-0.048169658,-0.06692479,0.08296147,0.04902732033949728,-0.04902732033949728,-4.355770333254553,3.5458182694156943,74.48635856834447,74.48635856834449,0.10046650911235475,0.1924734066111566,0.005184794886146234,68.49615140770204,1.2851220824949656,0.6991908872168265,-101.33961811789398,-98.82035313821063,59.69,-0.3284913437499881,,9.1341566,62.6921624,20190921,100200,2019-09-21T10:02:00Z,785.139,0.58,1.13,8.83,11,8,19,0.0,0.0,0.01,9.134178995410801,62.69216655210043,120,12759921,48,44,513,1465,3400,3809,3816,-1148,15269,31,212,15262,0,false,false,false,false,false,false,false,false,false,false,0,0,0,0,53,69,69,53,944,946,945,945,940,940,940,940,0.0,0.0,0.0,0.0,1482.8,1478.5,1476.7,1480.4,0.0,0.0,0.0,0.0,0,0,0,0,-45.0,9.134155652338684,62.69216175912427,0,716.44653,716.8241,0.059999272,0.075472765,-0.99474156,0.99940324,0.13631439,-0.16155191,-0.056025147,0.21867658,74,-520,1430,1523.0,0.0013292579,-8.5773834E-5,-0.0022943127,0.002652952,0.0013320223468623645,-0.0013320223468623645,-4.36346933002073,3.485622548605006,70.20196912453032,70.20196912453031,-0.05611776665841519,-0.14515643791249294,-0.4094338449462274,68.30955950063594,1.3046250500706862,0.7150455858484508,-113.58218436231324,-111.0629193826299,59.67,NONE,0.0,0.0,0.0,NONE,-1.4830011665381017E-11,3.912856388925169E-11,0.0,,,,,,14.913,14.913,14.978,1.4286097,0,719,3.727,12.0,1.441,22,16.6,OK,32,0,0,1,0,0,65,68,0.0,0,0.0,-1.5995322E-24,8.8E-44,0.0,-6.1177856E7,62,3.0198283E-15,-3.0198425E-15,2.077931E-38,False,False,0,None,1.22870996E33,1.0842106E-19,ACType|MavicEnterprise
134877914,.084,9.134155422291105,62.69216224981979,19,716.5535,716.5466,0.05896388,0.07671457,-0.994002,0.9987001,-1.2992363,-0.20169954,-0.41835016,1.3797516,68,-520,1418,1511.0,0.0090879295,-0.048779067,-0.06649627,0.08296832,0.049618421784727,0.1565779577852607,-4.355179987233145,3.544329722381745,74.48638630836224,74.48638630836223,0.074837969733981,0.1360736561871062,-0.006045464625152038,68.99732166455574,1.2941991204383807,0.7083881342598184,-123.45368756672237,-120.93442258703902,59.7,-0.5781861679687381,,9.1341566,62.6921624,20190921,100200,2019-09-21T10:02:00Z,785.139,0.58,1.13,8.83,11,8,19,0.0,0.0,0.01,9.134178995410801,62.69216655210043,120,12759921,48,44,513,1465,3400,3809,3816,-1148,15269,31,212,15262,0,false,false,false,false,false,false,false,false,false,false,234,0,0,311,56,68,68,53,1127,1128,1127,1128,1122,1122,1122,1122,0.0,0.0,0.0,0.0,1462.0,1478.5,1477.3,1465.6,2.42,0.0,0.0,1.21,0,0,0,0,-81.9582261157156,9.13415548732628,62.6921618155324,0,716.5535,716.8241,0.06026034,0.071965314,-0.99019927,0.9946381,0.28078395,-0.573987,-1.2146313,1.372454,65,-526,1418,1513.0,0.0018938316,-2.89458E-4,-0.0032154,0.0037428841,0.0019158246535932986,0.23343486494398005,-4.361619164183783,3.4791867044062474,70.19032245957494,70.19032245957493,-0.11957480037868434,-0.12432639900096537,-0.44616691797152874,69.82192522357514,1.3097781543073268,0.7255432407465702,-55.82855448825842,-53.309289508575084,59.68,NONE,0.0,0.0,0.0,NONE,-1.4830011665381017E-11,3.912856388925169E-11,0.0,,,,,,14.913,14.913,14.978,1.4286097,0,719,3.727,12.0,1.441,22,16.6,OK,32,0,0,1,0,0,65,68,0.0,0,0.0,-1.5995322E-24,8.8E-44,0.0,-6.1177856E7,62,3.0198283E-15,-3.0198425E-15,2.077931E-38,False,False,0,None,1.22870996E33,1.0842106E-19,dateTime|2019-9-21 10:1:51 GMT
135090425,.139,9.134155422291105,62.69216224981979,19,716.5535,716.5466,0.05896388,0.07671457,-0.994002,0.9987001,-1.2992363,-0.20169954,-0.41835016,1.3797516,68,-520,1418,1511.0,0.0090879295,-0.048779067,-0.06649627,0.08296832,0.049618421784727,-0.049618421784727,-4.355179987233145,3.544329722381745,74.48638630836224,74.48638630836223,0.074837969733981,0.1360736561871062,-0.006045464625152038,68.99732166455574,1.2941991204383807,0.7083881342598184,-123.45368756672237,-120.93442258703902,59.7,-0.5781861679687381,,9.1341566,62.6921624,20190921,100200,2019-09-21T10:02:00Z,785.139,0.58,1.13,8.83,11,8,19,0.0,0.0,0.01,9.134178995410801,62.69216655210043,120,12759921,48,44,513,1465,3400,3809,3816,-1148,15269,31,212,15262,0,false,false,false,false,false,false,false,false,false,false,331,296,209,457,56,73,73,55,1134,1135,1134,1134,1129,1129,1129,1129,0.1,0.1,0.1,0.1,1445.4,1440.5,1440.5,1443.6,6.26,5.74,7.34,5.72,0,0,0,0,-82.15353780160183,9.13415548732628,62.6921618155324,0,716.5535,716.8241,0.06026034,0.071965314,-0.99019927,0.9946381,0.28078395,-0.573987,-1.2146313,1.372454,65,-526,1418,1513.0,0.0018938316,-2.89458E-4,-0.0032154,0.0037428841,0.0019158246535932986,-0.0019158246535932986,-4.361619164183783,3.4791867044062474,70.19032245957494,70.19032245957493,-0.11957480037868434,-0.12432639900096537,-0.44616691797152874,69.82192522357514,1.3097781543073268,0.7255432407465702,-55.82855448825842,-53.309289508575084,59.68,NONE,0.0,0.0,0.0,NONE,-1.4830011665381017E-11,3.912856388925169E-11,0.0,1,0.83,0.83,0.83,0.83,14.913,14.913,14.978,1.4286097,0,719,3.727,12.0,1.441,22,16.6,OK,32,0,0,1,0,0,65,68,0.0,0,0.0,-1.5995322E-24,8.8E-44,0.0,-6.1177856E7,62,3.0198283E-15,-3.0198425E-15,2.077931E-38,False,False,0,None,1.22870996E33,1.0842106E-19,geoDeclination|2.52 degrees
135261611,.184,9.134155379519362,62.69216222220199,19,716.7195,716.55145,0.053782266,0.082597405,-0.996912,1.0017726,0.8228812,0.05112039,0.16867195,0.84154445,71,-523,1433,1527.0,0.0099521605,-0.04845868,-0.062675245,0.079846576,0.049470083705944974,0.03520347866221405,-4.347197714926858,3.5491003916410304,74.4883302888047,74.48833028880472,0.06237797131937822,0.11230152363537448,-0.013560001158250415,68.60390798652138,1.297363273554067,0.7121553012550508,-147.1254791152724,-144.60621413558908,59.72,-0.4122315781249881,,9.1341566,62.6921624,20190921,100200,2019-09-21T10:02:00Z,785.139,0.58,1.13,8.83,11,8,19,0.0,0.0,0.01,9.134178995410801,62.69216655210043,120,12759921,48,44,513,1465,3400,3809,3816,-1148,15269,31,212,15262,0,false,false,false,false,false,false,false,false,false,false,331,296,209,457,56,73,73,55,1134,1135,1134,1134,1129,1129,1129,1129,0.1,0.1,0.1,0.1,1445.4,1440.5,1440.5,1443.6,6.26,5.74,7.34,5.72,0,0,0,0,-82.15353780160183,9.13415534802994,62.692161799413554,0,716.5535,716.8241,0.06308447,0.06882336,-0.9918728,0.99625695,0.6034548,-0.1116566,-0.68899673,0.9226816,71,-523,1433,1527.0,0.0017171464,-1.1511822E-4,-0.0028011522,0.0032875976,0.0017210008272849292,0.16299926582913574,-4.360792171547497,3.4853361472294226,70.19475792671186,70.19475792671187,-0.21449077554079155,-0.08023775292733532,-0.48035349664282995,68.7827965163954,1.3170055491876738,0.7328717236240934,-106.67574236146407,-104.15647738178073,59.71,NONE,0.0,0.0,0.0,NONE,-1.4830011665381017E-11,3.912856388925169E-11,0.0,1,0.83,0.83,0.83,0.83,14.9,14.9,14.898,1.4286097,0,719,3.727,12.0,1.441,22,16.6,OK,32,0,0,1,0,0,65,68,0.0,0,0.0,-5.9069905E-24,8.8E-44,0.0,-6.1177856E7,62,3.0198283E-15,-3.0198425E-15,2.2911257E-38,False,False,0,None,1.6095201E33,1.0842106E-19,geoInclination|74.35 degrees
135474441,.239,9.134155379519362,62.69216222220199,19,716.7195,716.55145,0.053782266,0.082597405,-0.996912,1.0017726,0.8228812,0.05112039,0.16867195,0.84154445,71,-523,1433,1527.0,0.0099521605,-0.04845868,-0.062675245,0.079846576,0.049470083705944974,-0.049470083705944974,-4.347197714926858,3.5491003916410304,74.4883302888047,74.48833028880472,0.06237797131937822,0.11230152363537448,-0.013560001158250415,68.60390798652138,1.297363273554067,0.7121553012550508,-147.1254791152724,-144.60621413558908,59.72,-0.4122315781249881,,9.1341564,62.6921623,20190921,100200,2019-09-21T10:02:00Z,785.139,0.58,1.13,8.82,11,8,19,-0.01,0.0,0.0,9.134178995410801,62.69216655210043,120,12759921,48,44,513,1465,3400,3809,3816,-1148,15269,31,212,15262,0,false,false,false,false,false,false,false,false,false,false,331,296,209,457,56,73,73,55,1134,1135,1134,1134,1129,1129,1129,1129,0.1,0.1,0.1,0.1,1445.4,1440.5,1440.5,1443.6,6.26,5.74,7.34,5.72,0,0,0,0,-82.15353780160183,9.13415534802994,62.692161799413554,0,716.5535,716.8241,0.06308447,0.06882336,-0.9918728,0.99625695,0.6034548,-0.1116566,-0.68899673,0.9226816,71,-523,1433,1527.0,0.0017171464,-1.1511822E-4,-0.0028011522,0.0032875976,0.0017210008272849292,-0.0017210008272849292,-4.360792171547497,3.4853361472294226,70.19475792671186,70.19475792671187,-0.21449077554079155,-0.08023775292733532,-0.48035349664282995,68.7827965163954,1.3170055491876738,0.7328717236240934,-106.67574236146407,-104.15647738178073,59.71,NONE,0.0,0.0,0.0,NONE,-1.4830011665381017E-11,3.912856388925169E-11,0.0,1,0.83,0.83,0.83,0.83,14.9,14.9,14.898,1.4286097,0,719,3.727,12.0,1.441,22,16.6,OK,32,0,0,1,0,0,65,68,0.0,0,0.0,-5.9069905E-24,8.8E-44,0.0,-6.1177856E7,62,3.0198283E-15,-3.0198425E-15,2.2911257E-38,False,False,0,None,1.6095201E33,1.0842106E-19,geoIntensity|51660.03 nanoTesla
135645610,.283,9.134155208467394,62.69216221704002,19,716.5535,716.56586,0.06400064,0.07449764,-0.9929246,0.99777013,0.29710734,0.39417812,-0.10503868,0.50466055,74,-523,1436,1530.0,0.009810644,-0.0483489,-0.06434602,0.081081904,0.04933421597078493,0.14723828092178462,-4.357821955250902,3.53651835318796,74.4754397387022,74.47543973870222,0.06555361501470978,0.16819499854497671,0.008662798859799474,68.23642640066083,1.3056818437721223,0.7209000364788479,-96.28273081225672,-93.76346583257337,59.77,-0.5781861679687381,,9.1341564,62.6921623,20190921,100200,2019-09-21T10:02:00Z,785.139,0.58,1.13,8.82,11,8,19,-0.01,0.0,0.0,9.134178995410801,62.69216655210043,120,12759921,48,44,513,1465,3400,3809,3816,-1148,15269,31,212,15262,0,false,false,false,false,false,false,false,false,false,false,914,209,209,873,55,73,73,56,1140,1141,1141,1140,1135,1135,1135,1135,0.1,0.1,0.1,0.1,1444.2,1440.5,1438.7,1441.1,6.32,5.9,6.8,6.04,0,0,0,0,-91.71543097147628,9.13415533420379,62.69216168949261,0,716.5535,716.8241,0.057636134,0.080185294,-0.99562293,1.0005082,1.2485504,-0.6620145,-0.28159735,1.4409852,71,-523,1433,1527.0,7.1095576E-4,-1.158927E-4,-0.0030824414,0.0031654912,7.203396680423232E-4,0.27448915625275927,-4.350764016770153,3.4890586983659557,70.20130332391726,70.20130332391727,-0.26292323441622034,0.012176957344059422,-0.5189595372801474,68.78390898406482,1.3226011909289412,0.745114708837927,-179.2166487975206,-176.69738381783728,59.8,NONE,0.0,0.0,0.0,NONE,-1.4830011665381017E-11,3.912856388925169E-11,0.0,1,0.83,0.83,0.83,0.83,14.9,14.9,14.898,1.4286097,0,719,3.727,12.0,1.441,22,16.6,OK,32,0,0,1,0,0,65,68,0.0,0,0.0,-5.9069905E-24,8.8E-44,0.0,-6.1177856E7,62,3.0198283E-15,-3.0198425E-15,2.2911257E-38,False,False,0,None,1.6095201E33,1.0842106E-19,
135845125,.335,9.134155208467394,62.69216221704002,19,716.5535,716.56586,0.06400064,0.07449764,-0.9929246,0.99777013,0.29710734,0.39417812,-0.10503868,0.50466055,74,-523,1436,1530.0,0.009810644,-0.0483489,-0.06434602,0.081081904,0.04933421597078493,-0.04933421597078493,-4.357821955250902,3.53651835318796,74.4754397387022,74.47543973870222,0.06555361501470978,0.16819499854497671,0.008662798859799474,68.23642640066083,1.3056818437721223,0.7209000364788479,-96.28273081225672,-93.76346583257337,59.77,-0.5781861679687381,,9.1341564,62.6921623,20190921,100200,2019-09-21T10:02:00Z,785.139,0.58,1.13,8.82,11,8,19,-0.01,0.0,0.0,9.134178995410801,62.69216655210043,120,12759921,48,44,513,1465,3400,3809,3816,-1148,15269,31,212,15262,0,false,false,false,false,false,false,false,false,false,false,914,209,209,873,55,73,73,56,1140,1141,1141,1140,1135,1135,1135,1135,0.1,0.1,0.1,0.1,1444.2,1440.5,1438.7,1441.1,6.32,5.9,6.8,6.04,0,0,0,0,-91.71543097147628,9.13415533420379,62.69216168949261,0,716.5535,716.8241,0.057636134,0.080185294,-0.99562293,1.0005082,1.2485504,-0.6620145,-0.28159735,1.4409852,71,-523,1433,1527.0,7.1095576E-4,-1.158927E-4,-0.0030824414,0.0031654912,7.203396680423232E-4,-7.203396680423232E-4,-4.350764016770153,3.4890586983659557,70.20130332391726,70.20130332391727,-0.26292323441622034,0.012176957344059422,-0.5189595372801474,68.78390898406482,1.3226011909289412,0.745114708837927,-179.2166487975206,-176.69738381783728,59.8,NONE,0.0,0.0,0.0,NONE,-1.4830011665381017E-11,3.912856388925169E-11,0.0,1,2.49,2.49,2.49,2.49,14.9,14.9,14.898,1.4286097,0,719,3.727,12.0,1.441,22,16.6,OK,32,0,0,1,0,0,65,68,0.0,0,0.0,-5.9069905E-24,8.8E-44,0.0,-6.1177856E7,62,3.0198283E-15,-3.0198425E-15,2.2911257E-38,False,False,0,None,1.6095201E33,1.0842106E-19,
136008153,.378,9.134155049712945,62.69216220920232,19,716.5535,716.58856,0.051445067,0.08358002,-0.99544173,1.0002682,0.824587,-0.26877573,-2.483879,2.6309388,68,-520,1427,1520.0,0.009051535,-0.04864577,-0.072454184,0.08773796,0.049480714533252555,0.14276036547938853,-4.342058139984156,3.559026339773897,74.485354457091,74.48535445709103,-0.06361808598611367,0.22416091910702712,0.01491963736330135,68.86895652467082,1.3135318338387358,0.7290453385534121,-98.6614290710237,-96.14216409134036,59.83,-0.5781861679687381,,9.1341564,62.6921623,20190921,100200,2019-09-21T10:02:00Z,785.139,0.58,1.13,8.82,11,8,19,-0.01,0.0,0.0,9.134178995410801,62.69216655210043,120,12759921,48,44,513,1465,3400,3809,3816,-1148,15269,31,212,15262,0,false,false,false,false,false,false,false,false,false,false,235,209,209,261,58,73,73,57,1147,1149,1148,1147,1142,1142,1142,1142,0.1,0.1,0.1,0.1,1442.9,1439.9,1439.3,1442.9,6.35,5.9,6.6,5.68,0,0,0,0,-71.56505117707798,9.13415533420379,62.69216168949261,0,716.5535,716.8241,0.057636134,0.080185294,-0.99562293,1.0005082,1.2485504,-0.6620145,-0.28159735,1.4409852,71,-523,1433,1527.0,7.1095576E-4,-1.158927E-4,-0.0030824414,0.0031654912,7.203396680423232E-4,-7.203396680423232E-4,-4.350764016770153,3.4890586983659557,70.20130332391726,70.20130332391727,-0.26292323441622034,0.012176957344059422,-0.5189595372801474,68.78390898406482,1.3226011909289412,0.745114708837927,-179.2166487975206,-176.69738381783728,59.8,NONE,0.0,0.0,0.0,NONE,-3.029251815912387E-11,-2.572216844232235E-11,0.0,1,2.49,2.49,2.49,2.49,14.816,14.816,14.662,1.4369252,0,718,3.727,12.0,1.683,22,16.6,OK,33,0,0,1,0,0,65,68,0.0,0,0.0,-1.3975334E-24,8.8E-44,0.0,-6.1177856E7,62,3.0198283E-15,-3.0198425E-15,2.386522E-38,False,False,0,None,1.7734036E33,1.0842106E-19,
136242404,.438,9.134155049712945,62.69216220920232,19,716.5535,716.58856,0.051445067,0.08358002,-0.99544173,1.0002682,0.824587,-0.26877573,-2.483879,2.6309388,68,-520,1427,1520.0,0.009051535,-0.04864577,-0.072454184,0.08773796,0.049480714533252555,-0.049480714533252555,-4.342058139984156,3.559026339773897,74.485354457091,74.48535445709103,-0.06361808598611367,0.22416091910702712,0.01491963736330135,68.86895652467082,1.3135318338387358,0.7290453385534121,-98.6614290710237,-96.14216409134036,59.83,-0.5781861679687381,,9.1341562,62.6921623,20190921,100200,2019-09-21T10:02:00Z,785.138,0.58,1.13,8.8,11,8,19,0.01,0.0,0.0,9.134178995410801,62.69216655210043,120,12759921,48,44,513,1465,3400,3809,3816,-1148,15269,31,212,15262,0,false,false,false,false,false,false,false,false,false,false,235,209,209,261,58,73,73,57,1147,1149,1148,1147,1142,1142,1142,1142,0.1,0.1,0.1,0.1,1442.9,1439.9,1439.3,1442.9,6.35,5.9,6.6,5.68,0,0,0,0,-71.56505117707798,9.134155210070393,62.69216166353528,0,716.5535,716.8241,0.06760596,0.0626181,-0.9894502,0.993732,-2.2522905,1.3581178,3.9888897,4.7779217,65,-520,1427,1520.0,-0.0011632764,0.0012319157,-0.0010662132,0.0020019088,0.0016943518559020035,0.11261420856684093,-4.352037644074509,3.493165849154501,70.20368291008099,70.203682910081,-0.07781491180584188,-0.03794065550015091,-0.48420249371990165,69.42570434432723,1.3295602390692454,0.7520739038343113,-117.02280506767403,-114.50354008799069,59.85,NONE,0.0,0.0,0.0,NONE,-3.029251815912387E-11,-2.572216844232235E-11,0.0,1,3.33,3.33,3.33,3.33,14.816,14.816,14.662,1.4369252,0,718,3.727,12.0,1.683,22,16.6,OK,33,0,0,1,0,0,65,68,0.0,0,0.0,-1.3975334E-24,8.8E-44,0.0,-6.1177856E7,62,3.0198283E-15,-3.0198425E-15,2.386522E-38,False,False,0,None,1.7734036E33,1.0842106E-19,
136413490,.483,9.134155049712945,62.69216220920232,19,716.5535,716.58856,0.051445067,0.08358002,-0.99544173,1.0002682,0.824587,-0.26877573,-2.483879,2.6309388,68,-520,1427,1520.0,0.009051535,-0.04864577,-0.072454184,0.08773796,0.049480714533252555,-0.049480714533252555,-4.342058139984156,3.559026339773897,74.485354457091,74.48535445709103,-0.06361808598611367,0.22416091910702712,0.01491963736330135,68.86895652467082,1.3135318338387358,0.7290453385534121,-98.6614290710237,-96.14216409134036,59.83,-0.5781861679687381,,9.1341562,62.6921623,20190921,100200,2019-09-21T10:02:00Z,785.138,0.58,1.13,8.8,11,8,19,0.01,0.0,0.0,9.134178995410801,62.69216655210043,120,12759921,48,44,513,1465,3400,3809,3816,-1148,15269,31,212,15262,0,false,false,false,false,false,false,false,false,false,false,299,296,301,290,57,73,73,56,1391,1402,1398,1395,1382,1382,1382,1382,0.1,0.1,0.1,0.1,1443.6,1439.3,1438.1,1444.2,6.36,5.9,6.62,5.8,0,0,0,0,116.56505117707798,9.134155177204565,62.6921615630168,0,716.5535,716.8241,0.05832327,0.07492603,-0.9924416,0.99697334,-0.97680295,-2.422623,0.8601152,2.750099,68,-520,1421,1514.0,-0.0017727627,4.544073E-4,4.3518993E-4,0.0018811071,0.0018300747981338302,0.2523545909805876,-4.345969275679457,3.4866064714726797,70.1911238471978,70.19112384719779,0.16392455314292517,-0.19892200907977503,-0.5372717124311063,69.15328674667538,1.3356939054564236,0.7633760941634478,-173.9884321111982,-171.46916713151487,59.83,NONE,0.0,0.0,0.0,NONE,-3.029251815912387E-11,-2.572216844232235E-11,0.0,1,3.33,3.33,3.33,3.33,14.816,14.816,14.662,1.4369252,0,718,3.727,12.0,1.683,22,16.6,OK,33,0,0,1,0,0,65,68,0.0,0,0.0,-1.3975334E-24,8.8E-44,0.0,-6.1177856E7,62,3.0198283E-15,-3.0198425E-15,2.386522E-38,False,False,0,None,1.7734036E33,1.0842106E-19,
136626492,.538,9.134155049712945,62.69216220920232,19,716.5535,716.58856,0.051445067,0.08358002,-0.99544173,1.0002682,0.824587,-0.26877573,-2.483879,2.6309388,68,-520,1427,1520.0,0.009051535,-0.04864577,-0.072454184,0.08773796,0.049480714533252555,-0.049480714533252555,-4.342058139984156,3.559026339773897,74.485354457091,74.48535445709103,-0.06361808598611367,0.22416091910702712,0.01491963736330135,68.86895652467082,1.3135318338387358,0.7290453385534121,-98.6614290710237,-96.14216409134036,59.83,-0.5781861679687381,,9.1341562,62.6921623,20190921,100200,2019-09-21T10:02:00Z,785.138,0.58,1.13,8.8,11,8,19,0.01,0.0,0.0,9.134178995410801,62.69216655210043,120,12759921,48,44,513,1465,3400,3809,3816,-1148,15269,31,212,15262,0,false,false,false,false,false,false,false,false,false,false,351,331,308,332,56,72,73,56,1341,1351,1347,1344,1332,1332,1332,1332,0.1,0.1,0.1,0.1,1444.2,1439.3,1439.3,1442.3,6.34,5.92,6.64,5.73,0,0,0,0,-133.66778014613038,9.134155177204565,62.6921615630168,0,716.5535,716.8241,0.05832327,0.07492603,-0.9924416,0.99697334,-0.97680295,-2.422623,0.8601152,2.750099,68,-520,1421,1514.0,-0.0017727627,4.544073E-4,4.3518993E-4,0.0018811071,0.0018300747981338302,-0.0018300747981338302,-4.345969275679457,3.4866064714726797,70.1911238471978,70.19112384719779,0.16392455314292517,-0.19892200907977503,-0.5372717124311063,69.15328674667538,1.3356939054564236,0.7633760941634478,-173.9884321111982,-171.46916713151487,59.83,NONE,0.0,0.0,0.0,NONE,-3.029251815912387E-11,-2.572216844232235E-11,0.0,1,28.75,28.75,28.75,28.75,14.816,14.816,14.662,1.4369252,0,718,3.727,12.0,1.683,22,16.6,OK,33,0,0,1,0,0,65,68,0.0,0,0.0,-1.3975334E-24,8.8E-44,0.0,-6.1177856E7,62,3.0198283E-15,-3.0198425E-15,2.386522E-38,False,False,0,None,1.7734036E33,1.0842106E-19,
136797472,.583,9.134154886923117,62.69216212563771,19,716.5535,716.6074,0.058916382,0.08254264,-0.9904255,0.9956039,-1.044265,-1.0603182,-0.8754225,1.7265946,71,-520,1430,1523.0,0.007961039,-0.04796643,-0.06315643,0.07970503,0.048622595238489115,0.23182175260392845,-4.344313345419707,3.5461193185222606,74.47050908775552,74.47050908775554,-0.39882316018966496,0.2022405306939821,-0.11770288001839346,68.5097980674666,1.3246825535825335,0.7415074261886478,-140.73150696263565,-138.21224198295232,59.85,-0.5781861679687381,,9.1341562,62.6921623,20190921,100200,2019-09-21T10:02:00Z,785.138,0.58,1.13,8.8,11,8,19,0.01,0.0,0.0,9.134178995410801,62.69216655210043,120,12759921,48,44,513,1465,3400,3809,3816,-1148,15269,31,212,15262,0,false,false,false,false,false,false,false,false,false,false,351,331,308,332,56,72,73,56,1341,1351,1347,1344,1332,1332,1332,1332,0.1,0.1,0.1,0.1,1444.2,1439.3,1439.3,1442.3,6.34,5.92,6.64,5.73,0,0,0,0,-133.66778014613038,9.134155069645388,62.692161531010356,0,716.5715,716.8241,0.058812805,0.0706283,-0.99419355,0.9984328,0.47882113,-0.5676283,1.1559515,1.3739343,68,-523,1433,1526.0,-0.001634348,7.5845805E-4,9.392073E-4,0.0020318618,0.0018017635118822732,0.14537452695220587,-4.356926459482457,3.4966079602283893,70.19909802611235,70.19909802611232,0.2645214378358769,-0.22377010714808984,-0.6864780793153087,69.11502550918556,1.3421636835912008,0.7699161576152631,-125.48772661247457,-122.96846163279123,59.85,NONE,0.0,0.0,0.0,NONE,-3.029251815912387E-11,-2.572216844232235E-11,0.0,1,28.75,28.75,28.75,28.75,14.816,14.816,14.662,1.4369252,0,718,3.727,12.0,1.683,22,16.6,OK,33,0,0,1,0,0,65,68,0.0,0,0.0,-1.3975334E-24,8.8E-44,0.0,-6.1177856E7,62,3.0198283E-15,-3.0198425E-15,2.386522E-38,False,False,0,None,1.7734036E33,1.0842106E-19,
137010253,.638,9.134154886923117,62.69216212563771,19,716.5535,716.6074,0.058916382,0.08254264,-0.9904255,0.9956039,-1.044265,-1.0603182,-0.8754225,1.7265946,71,-520,1430,1523.0,0.007961039,-0.04796643,-0.06315643,0.07970503,0.048622595238489115,-0.048622595238489115,-4.344313345419707,3.5461193185222606,74.47050908775552,74.47050908775554,-0.39882316018966496,0.2022405306939821,-0.11770288001839346,68.5097980674666,1.3246825535825335,0.7415074261886478,-140.73150696263565,-138.21224198295232,59.85,-0.5781861679687381,,9.1341562,62.6921623,20190921,100200,2019-09-21T10:02:00Z,785.138,0.58,1.13,8.8,11,8,19,0.01,0.0,0.0,9.134178995410801,62.69216655210043,120,12759921,48,44,513,1465,3400,3809,3816,-1148,15269,31,212,15262,0,false,false,false,false,false,false,false,false,false,false,351,331,308,332,56,72,73,56,1341,1351,1347,1344,1332,1332,1332,1332,0.1,0.1,0.1,0.1,1444.2,1439.3,1439.3,1442.3,6.34,5.92,6.64,5.73,0,0,0,0,-133.66778014613038,9.134155069645388,62.692161531010356,0,716.5715,716.8241,0.058812805,0.0706283,-0.99419355,0.9984328,0.47882113,-0.5676283,1.1559515,1.3739343,68,-523,1433,1526.0,-0.001634348,7.5845805E-4,9.392073E-4,0.0020318618,0.0018017635118822732,-0.0018017635118822732,-4.356926459482457,3.4966079602283893,70.19909802611235,70.19909802611232,0.2645214378358769,-0.22377010714808984,-0.6864780793153087,69.11502550918556,1.3421636835912008,0.7699161576152631,-125.48772661247457,-122.96846163279123,59.85,NONE,0.0,0.0,0.0,NONE,-3.029251815912387E-11,-2.572216844232235E-11,0.0,1,22.5,22.5,22.5,22.5,14.816,14.816,14.662,1.4369252,0,718,3.727,12.0,1.683,22,16.6,OK,33,0,0,1,0,0,65,68,0.0,0,0.0,-1.3975334E-24,8.8E-44,0.0,-6.1177856E7,62,3.0198283E-15,-3.0198425E-15,2.386522E-38,False,False,0,None,1.7734036E33,1.0842106E-19,
137181512,.683,9.134154783062884,62.69216206654188,19,716.5535,716.60944,0.060269594,0.0626888,-0.9961865,0.9999749,0.8463673,0.13257852,-1.6225659,1.8348391,68,-523,1433,1526.0,0.006100479,-0.0485502,-0.05572334,0.07415813,0.04893196984324483,0.14071421196072104,-4.346413784771041,3.5509886496379734,74.45295985830624,74.45295985830626,-0.5234609373619079,0.19236637147306435,-0.16399269748154086,68.96016642885301,1.332049464618666,0.749948472904755,-143.64055540017418,-141.12129042049085,59.85,-0.5781861679687381,,9.1341562,62.6921623,20190921,100200,2019-09-21T10:02:00Z,785.138,0.58,1.13,8.8,11,8,19,0.01,0.0,0.0,9.134178995410801,62.69216655210043,120,12759921,48,44,513,1465,3400,3809,3816,-1148,15269,31,212,15262,0,false,false,false,false,false,false,false,false,false,false,351,331,308,332,56,72,73,56,1341,1351,1347,1344,1332,1332,1332,1332,0.1,0.1,0.1,0.1,1444.2,1439.3,1439.3,1442.3,6.34,5.92,6.64,5.73,0,0,0,0,-133.66778014613038,9.134155011343601,62.692161590063996,0,716.5535,716.8241,0.061114624,0.084130004,-0.99312145,0.9985505,2.3919713,2.8358676,-0.71128565,3.7775123,68,-523,1433,1526.0,-0.0012254383,5.088422E-4,-1.0177388E-4,0.0013307807,0.0013268833399467047,0.16062993028381872,-4.345597762378973,3.5041294502901374,70.19968860245473,70.19968860245473,0.28671254846432503,-0.08050281642385113,-0.5732812857369618,69.10580810103943,1.3421560983200977,0.7771247658602907,-26.886471663840734,-24.3672066841574,59.86,NONE,0.0,0.0,0.0,NONE,-3.029251815912387E-11,-2.572216844232235E-11,0.0,1,22.5,22.5,22.5,22.5,14.816,14.816,14.662,1.4369252,0,718,3.727,12.0,1.683,22,16.6,OK,33,0,0,1,0,0,65,68,0.0,0,0.0,-1.3975334E-24,8.8E-44,0.0,-6.1177856E7,62,3.0198283E-15,-3.0198425E-15,2.386522E-38,False,False,0,None,1.7734036E33,1.0842106E-19,
137394234,.738,9.134154783062884,62.69216206654188,19,716.5535,716.60944,0.060269594,0.0626888,-0.9961865,0.9999749,0.8463673,0.13257852,-1.6225659,1.8348391,68,-523,1433,1526.0,0.006100479,-0.0485502,-0.05572334,0.07415813,0.04893196984324483,-0.04893196984324483,-4.346413784771041,3.5509886496379734,74.45295985830624,74.45295985830626,-0.5234609373619079,0.19236637147306435,-0.16399269748154086,68.96016642885301,1.332049464618666,0.749948472904755,-143.64055540017418,-141.12129042049085,59.85,-0.5781861679687381,,9.1341562,62.6921623,20190921,100200,2019-09-21T10:02:00Z,785.138,0.58,1.13,8.8,11,8,19,0.01,0.0,0.0,9.134178995410801,62.69216655210043,120,12759921,48,44,513,1465,3400,3809,3816,-1148,15269,31,212,15262,0,false,false,false,false,false,false,false,false,false,false,424,432,416,453,56,73,73,58,1240,1252,1248,1245,1232,1232,1232,1232,0.1,0.1,0.1,0.1,1442.3,1438.7,1437.5,1441.7,6.27,5.84,6.53,5.99,0,0,0,0,-65.85445803957833,9.134155011343601,62.692161590063996,0,716.5535,716.8241,0.061114624,0.084130004,-0.99312145,0.9985505,2.3919713,2.8358676,-0.71128565,3.7775123,68,-523,1433,1526.0,-0.0012254383,5.088422E-4,-1.0177388E-4,0.0013307807,0.0013268833399467047,-0.0013268833399467047,-4.345597762378973,3.5041294502901374,70.19968860245473,70.19968860245473,0.28671254846432503,-0.08050281642385113,-0.5732812857369618,69.10580810103943,1.3421560983200977,0.7771247658602907,-26.886471663840734,-24.3672066841574,59.86,NONE,0.0,0.0,0.0,NONE,-3.029251815912387E-11,-2.572216844232235E-11,0.0,1,16.25,16.25,16.25,16.25,14.816,14.816,14.662,1.4369252,0,718,3.727,12.0,1.683,22,16.6,OK,33,0,0,1,0,0,65,68,0.0,0,0.0,-1.3975334E-24,8.8E-44,0.0,-6.1177856E7,62,3.0198283E-15,-3.0198425E-15,2.386522E-38,False,False,0,None,1.7734036E33,1.0842106E-19,
137544122,.777,9.13415468308866,62.69216201417641,19,716.5535,716.61127,0.05839759,0.06971333,-0.9951485,0.9992951,3.45961,-0.030014466,-1.9081692,3.9510648,68,-523,1436,1529.0,0.0061948285,-0.04892178,-0.05087742,0.07085357,0.04931243559460852,0.14938879536853408,-4.349827676404809,3.5521431945361805,74.45995236372492,74.45995236372494,-0.6996471564673274,0.40723774088297626,-0.15887467746240186,68.91935029944284,1.3389632574282446,0.7576889230715048,-141.30515183098805,-138.78588685130472,59.9,-0.5781861679687381,,9.1341562,62.6921623,20190921,100200,2019-09-21T10:02:00Z,785.138,0.58,1.13,8.8,11,8,19,0.01,0.0,0.0,9.134178995410801,62.69216655210043,120,12759921,48,44,513,1465,3400,3809,3816,-1148,15269,31,212,15262,0,false,false,false,false,false,false,false,false,false,false,424,432,416,453,56,73,73,58,1240,1252,1248,1245,1232,1232,1232,1232,0.1,0.1,0.1,0.1,1442.3,1438.7,1437.5,1441.7,6.27,5.84,6.53,5.99,0,0,0,0,-65.85445803957833,9.134155011343601,62.692161590063996,0,716.5535,716.8241,0.061114624,0.084130004,-0.99312145,0.9985505,2.3919713,2.8358676,-0.71128565,3.7775123,68,-523,1433,1526.0,-0.0012254383,5.088422E-4,-1.0177388E-4,0.0013307807,0.0013268833399467047,-0.0013268833399467047,-4.345597762378973,3.5041294502901374,70.19968860245473,70.19968860245473,0.28671254846432503,-0.08050281642385113,-0.5732812857369618,69.10580810103943,1.3421560983200977,0.7771247658602907,-26.886471663840734,-24.3672066841574,59.86,NONE,0.0,0.0,0.0,NONE,5.012451029967648E-12,-3.764791058975463E-11,0.0,1,16.25,16.25,16.25,16.25,14.841,14.841,14.574,1.4369252,0,718,3.727,12.0,1.683,22,16.6,OK,33,0,0,1,0,0,65,68,0.0,0,0.0,-7.772741E-25,8.8E-44,0.0,-6.1177856E7,62,3.0198283E-15,-3.0198425E-15,2.6204155E-38,False,False,0,None,2.0203974E33,1.0842106E-19,
137701180,.818,9.13415468308866,62.69216201417641,19,716.5535,716.61127,0.05839759,0.06971333,-0.9951485,0.9992951,3.45961,-0.030014466,-1.9081692,3.9510648,68,-523,1436,1529.0,0.0061948285,-0.04892178,-0.05087742,0.07085357,0.04931243559460852,-0.04931243559460852,-4.349827676404809,3.5521431945361805,74.45995236372492,74.45995236372494,-0.6996471564673274,0.40723774088297626,-0.15887467746240186,68.91935029944284,1.3389632574282446,0.7576889230715048,-141.30515183098805,-138.78588685130472,59.9,-0.5781861679687381,,9.1341558,62.6921622,20190921,100201,2019-09-21T10:02:01Z,785.142,0.58,1.13,8.78,11,8,19,0.0,0.01,0.0,9.134178995410801,62.69216655210043,120,12759921,48,44,513,1465,3400,3809,3816,-1148,15269,31,212,15262,0,false,false,false,false,false,false,false,false,false,false,424,432,416,453,56,73,73,58,1240,1252,1248,1245,1232,1232,1232,1232,0.1,0.1,0.1,0.1,1442.3,1438.7,1437.5,1441.7,6.27,5.84,6.53,5.99,0,0,0,0,-65.85445803957833,9.134154906076487,62.69216156429161,0,716.5535,716.8241,0.05928489,0.08606553,-0.9947462,1.000221,-0.4304454,0.8046323,0.26744628,0.9509174,68,-526,1439,1533.0,-0.00423202,2.5843323E-4,-0.0011550612,0.0043944223,0.004239903446652899,0.14487867544898392,-4.362821162640179,3.502142467122175,70.21239171763479,70.21239171763477,0.26456562480741347,0.01737440573007848,-0.3916257537481851,69.16160418676309,1.3482295040451546,0.7832115880564574,-120.60639164304035,-118.08712666335701,59.9,NONE,0.0,0.0,0.0,NONE,5.012451029967648E-12,-3.764791058975463E-11,0.0,1,10.0,10.0,10.0,10.0,14.841,14.841,14.574,1.4369252,0,718,3.727,12.0,1.683,22,16.6,OK,33,0,0,1,0,0,65,68,0.0,0,0.0,-7.772741E-25,8.8E-44,0.0,-6.1177856E7,62,3.0198283E-15,-3.0198425E-15,2.6204155E-38,False,False,0,None,2.0203974E33,1.0842106E-19,
137853654,.857,9.134154578535247,62.69216200343683,19,716.5535,716.6127,0.05931644,0.07968135,-0.9936204,0.9985735,0.4737679,-0.44820565,-1.5890651,1.7176939,71,-526,1436,1530.0,0.004656682,-0.050105527,-0.045063186,0.067549534,0.050321452861391155,0.08760463024954533,-4.348210697508845,3.553588013460661,74.46872357535493,74.46872357535494,-0.8741639402419252,0.603518689492949,-0.18273851570432548,68.69459666476722,1.344353949486032,0.7631545626994012,-105.13962511832825,-102.62036013864491,59.89,-0.5781861679687381,,9.1341558,62.6921622,20190921,100201,2019-09-21T10:02:01Z,785.142,0.58,1.13,8.78,11,8,19,0.0,0.01,0.0,9.134178995410801,62.69216655210043,120,12759921,48,44,513,1465,3400,3809,3816,-1148,15269,31,212,15262,0,false,false,false,false,false,false,false,false,false,false,487,494,497,505,57,73,72,57,1391,1402,1398,1395,1382,1382,1382,1382,0.1,0.1,0.1,0.0,1442.3,1440.5,1438.1,1440.5,6.24,5.78,6.56,5.44,0,0,0,0,-2.7263109939062815,9.134154906076487,62.69216156429161,0,716.5535,716.8241,0.05928489,0.08606553,-0.9947462,1.000221,-0.4304454,0.8046323,0.26744628,0.9509174,68,-526,1439,1533.0,-0.00423202,2.5843323E-4,-0.0011550612,0.0043944223,0.004239903446652899,-0.004239903446652899,-4.362821162640179,3.502142467122175,70.21239171763479,70.21239171763477,0.26456562480741347,0.01737440573007848,-0.3916257537481851,69.16160418676309,1.3482295040451546,0.7832115880564574,-120.60639164304035,-118.08712666335701,59.9,NONE,0.0,0.0,0.0,NONE,5.012451029967648E-12,-3.764791058975463E-11,0.0,1,10.0,10.0,10.0,10.0,14.841,14.841,14.574,1.4369252,0,718,3.727,12.0,1.683,22,16.6,OK,33,0,0,1,0,0,65,68,0.0,0,0.0,-7.772741E-25,8.8E-44,0.0,-6.1177856E7,62,3.0198283E-15,-3.0198425E-15,2.6204155E-38,False,False,0,None,2.0203974E33,1.0842106E-19,
138015269,.899,9.134154578535247,62.69216200343683,19,716.5535,716.6127,0.05931644,0.07968135,-0.9936204,0.9985735,0.4737679,-0.44820565,-1.5890651,1.7176939,71,-526,1436,1530.0,0.004656682,-0.050105527,-0.045063186,0.067549534,0.050321452861391155,-0.050321452861391155,-4.348210697508845,3.553588013460661,74.46872357535493,74.46872357535494,-0.8741639402419252,0.603518689492949,-0.18273851570432548,68.69459666476722,1.344353949486032,0.7631545626994012,-105.13962511832825,-102.62036013864491,59.89,-0.5781861679687381,,9.1341558,62.6921622,20190921,100201,2019-09-21T10:02:01Z,785.142,0.58,1.13,8.78,11,8,19,0.0,0.01,0.0,9.134178995410801,62.69216655210043,120,12759921,48,44,513,1465,3400,3809,3816,-1148,15269,31,212,15262,0,false,false,false,false,false,false,false,false,false,false,487,494,497,505,57,73,72,57,1391,1402,1398,1395,1382,1382,1382,1382,0.1,0.1,0.1,0.0,1442.3,1440.5,1438.1,1440.5,6.24,5.78,6.56,5.44,0,0,0,0,-2.7263109939062815,9.134154831862796,62.692161461844215,0,716.5535,716.8241,0.06122805,0.06660461,-0.99339986,0.9975111,-0.37396747,-0.05748986,0.5968484,0.70667166,68,-526,1433,1528.0,-0.003644898,4.8612543E-5,-0.0025919962,0.004472817,0.003645222192586666,0.28214974329335557,-4.3626792223456885,3.4972616840263444,70.17696144804412,70.17696144804415,0.307691857424419,-0.02276386542136883,-0.35434513855750827,69.24177014090938,1.3563950753966718,0.7952158382181151,-164.1356893562962,-161.61642437661288,59.91,NONE,0.0,0.0,0.0,NONE,5.012451029967648E-12,-3.764791058975463E-11,0.0,1,10.0,10.0,10.0,10.0,14.841,14.841,14.574,1.4369252,0,718,3.727,12.0,1.683,22,16.6,OK,33,0,0,1,0,0,65,68,0.0,0,0.0,-7.772741E-25,8.8E-44,0.0,-6.1177856E7,62,3.0198283E-15,-3.0198425E-15,2.6204155E-38,False,False,0,None,2.0203974E33,1.0842106E-19,
138162259,.937,9.134154578535247,62.69216200343683,19,716.5535,716.6127,0.05931644,0.07968135,-0.9936204,0.9985735,0.4737679,-0.44820565,-1.5890651,1.7176939,71,-526,1436,1530.0,0.004656682,-0.050105527,-0.045063186,0.067549534,0.050321452861391155,-0.050321452861391155,-4.348210697508845,3.553588013460661,74.46872357535493,74.46872357535494,-0.8741639402419252,0.603518689492949,-0.18273851570432548,68.69459666476722,1.344353949486032,0.7631545626994012,-105.13962511832825,-102.62036013864491,59.89,-0.5781861679687381,,9.1341558,62.6921622,20190921,100201,2019-09-21T10:02:01Z,785.142,0.58,1.13,8.78,11,8,19,0.0,0.01,0.0,9.134178995410801,62.69216655210043,120,12759921,48,44,513,1465,3400,3809,3816,-1148,15269,31,212,15262,0,false,false,false,false,false,false,false,false,false,false,539,549,539,541,57,73,73,57,1341,1351,1348,1344,1332,1332,1332,1332,0.1,0.1,0.1,0.0,1442.9,1438.7,1438.1,1440.5,6.22,5.73,6.53,5.48,0,0,0,0,135.0,9.134154831862796,62.692161461844215,0,716.5535,716.8241,0.06122805,0.06660461,-0.99339986,0.9975111,-0.37396747,-0.05748986,0.5968484,0.70667166,68,-526,1433,1528.0,-0.003644898,4.8612543E-5,-0.0025919962,0.004472817,0.003645222192586666,-0.003645222192586666,-4.3626792223456885,3.4972616840263444,70.17696144804412,70.17696144804415,0.307691857424419,-0.02276386542136883,-0.35434513855750827,69.24177014090938,1.3563950753966718,0.7952158382181151,-164.1356893562962,-161.61642437661288,59.91,NONE,0.0,0.0,0.0,NONE,5.012451029967648E-12,-3.764791058975463E-11,0.0,1,28.75,28.75,28.75,28.75,14.841,14.841,14.574,1.4369252,0,718,3.727,12.0,1.683,22,16.6,OK,33,0,0,1,0,0,65,68,0.0,0,0.0,-7.772741E-25,8.8E-44,0.0,-6.1177856E7,62,3.0198283E-15,-3.0198425E-15,2.6204155E-38,False,False,0,None,2.0203974E33,1.0842106E-19,
138379381,.994,9.134154632185478,62.69216198947088,19,716.5535,716.5997,0.05896949,0.08248275,-0.996115,1.0012622,-0.9142003,0.21560164,1.2872344,1.5934926,71,-526,1448,1542.0,0.0053760572,-0.05040755,-0.040360153,0.06479788,0.05069342455403226,0.005071298704745132,-4.352692041294823,3.5572979868431935,74.47651419299316,74.47651419299314,-0.8892259383812541,0.5815401661201359,-0.1943459558419686,68.5460820179127,1.3424047140350803,0.766301312249364,117.05206362695816,119.5713286066415,59.94,-0.5781861679687381,,9.1341556,62.6921621,20190921,100201,2019-09-21T10:02:01Z,785.144,0.58,1.13,8.77,11,8,19,0.0,0.0,0.0,9.134178995410801,62.69216655210043,120,12759921,48,44,513,1465,3400,3809,3816,-1148,15269,31,212,15262,0,false,false,false,false,false,false,false,false,false,false,539,549,539,541,57,73,73,57,1341,1351,1348,1344,1332,1332,1332,1332,0.1,0.1,0.1,0.0,1442.9,1438.7,1438.1,1440.5,6.22,5.73,6.53,5.48,0,0,0,0,135.0,9.134154831862796,62.692161461844215,0,716.5535,716.8241,0.06122805,0.06660461,-0.99339986,0.9975111,-0.37396747,-0.05748986,0.5968484,0.70667166,68,-526,1433,1528.0,-0.003644898,4.8612543E-5,-0.0025919962,0.004472817,0.003645222192586666,-0.003645222192586666,-4.3626792223456885,3.4972616840263444,70.17696144804412,70.17696144804415,0.307691857424419,-0.02276386542136883,-0.35434513855750827,69.24177014090938,1.3563950753966718,0.7952158382181151,-164.1356893562962,-161.61642437661288,59.91,NONE,0.0,0.0,0.0,NONE,5.012451029967648E-12,-3.764791058975463E-11,0.0,1,28.75,28.75,28.75,28.75,14.875,14.875,14.564,1.4369252,0,718,3.725,12.0,1.683,22,16.6,OK,33,0,0,1,0,0,65,68,0.0,0,0.0,-2.0152872E-25,8.8E-44,0.0,-6.1177856E7,62,3.0198283E-15,-3.0198425E-15,2.7932528E-38,False,False,0,None,2.2028598E33,1.0842106E-19,
138546303,1.037,9.134154632185478,62.69216198947088,19,716.5535,716.5997,0.05896949,0.08248275,-0.996115,1.0012622,-0.9142003,0.21560164,1.2872344,1.5934926,71,-526,1448,1542.0,0.0053760572,-0.05040755,-0.040360153,0.06479788,0.05069342455403226,-0.05069342455403226,-4.352692041294823,3.5572979868431935,74.47651419299316,74.47651419299314,-0.8892259383812541,0.5815401661201359,-0.1943459558419686,68.5460820179127,1.3424047140350803,0.766301312249364,117.05206362695816,119.5713286066415,59.94,-0.5781861679687381,,9.1341556,62.6921621,20190921,100201,2019-09-21T10:02:01Z,785.144,0.58,1.13,8.77,11,8,19,0.0,0.0,0.0,9.134178995410801,62.69216655210043,120,12759921,48,44,513,1465,3400,3809,3816,-1148,15269,31,212,15262,0,false,false,false,false,false,false,false,false,false,false,539,549,539,541,57,73,73,57,1341,1351,1348,1344,1332,1332,1332,1332,0.1,0.1,0.1,0.0,1442.9,1438.7,1438.1,1440.5,6.22,5.73,6.53,5.48,0,0,0,0,135.0,9.134154831862796,62.692161461844215,0,716.5535,716.8241,0.06122805,0.06660461,-0.99339986,0.9975111,-0.37396747,-0.05748986,0.5968484,0.70667166,68,-526,1433,1528.0,-0.003644898,4.8612543E-5,-0.0025919962,0.004472817,0.003645222192586666,-0.003645222192586666,-4.3626792223456885,3.4972616840263444,70.17696144804412,70.17696144804415,0.307691857424419,-0.02276386542136883,-0.35434513855750827,69.24177014090938,1.3563950753966718,0.7952158382181151,-164.1356893562962,-161.61642437661288,59.91,NONE,0.0,0.0,0.0,NONE,5.012451029967648E-12,-3.764791058975463E-11,0.0,1,22.5,22.5,22.5,22.5,14.875,14.875,14.564,1.4369252,0,718,3.725,12.0,1.683,22,16.6,OK,33,0,0,1,0,0,65,68,0.0,0,0.0,-2.0152872E-25,8.8E-44,0.0,-6.1177856E7,62,3.0198283E-15,-3.0198425E-15,2.7932528E-38,False,False,0,None,2.2028598E33,1.0842106E-19,
138725110,1.084,9.13415452138178,62.69216194533842,19,716.5535,716.6009,0.06190805,0.08165013,-0.98957026,0.9948611,-5.17031,4.1631975,3.0538757,7.3068786,68,-526,1442,1536.0,0.0038829534,-0.050634574,-0.038168043,0.06352745,0.05078323983915551,0.11029367812291868,-4.360329912196978,3.572266100333884,74.51161690378035,74.51161690378035,-0.6726200285976426,0.2779448125903365,0.024140487188616805,68.91541229631011,1.3494947054488473,0.773786740029608,-133.48299938130512,-130.9637344016218,59.98,-0.5781861679687381,,9.1341556,62.6921621,20190921,100201,2019-09-21T10:02:01Z,785.144,0.58,1.13,8.77,11,8,19,0.0,0.0,0.0,9.134178995410801,62.69216655210043,120,12759921,48,44,513,1465,3400,3809,3816,-1148,15269,31,212,15262,0,false,false,false,false,false,false,false,false,false,false,539,549,539,541,57,73,73,57,1341,1351,1348,1344,1332,1332,1332,1332,0.1,0.1,0.1,0.0,1442.9,1438.7,1438.1,1440.5,6.22,5.73,6.53,5.48,0,0,0,0,135.0,9.134154831862796,62.692161461844215,0,716.5535,716.8241,0.06122805,0.06660461,-0.99339986,0.9975111,-0.37396747,-0.05748986,0.5968484,0.70667166,68,-526,1433,1528.0,-0.003644898,4.8612543E-5,-0.0025919962,0.004472817,0.003645222192586666,-0.003645222192586666,-4.3626792223456885,3.4972616840263444,70.17696144804412,70.17696144804415,0.307691857424419,-0.02276386542136883,-0.35434513855750827,69.24177014090938,1.3563950753966718,0.7952158382181151,-164.1356893562962,-161.61642437661288,59.91,NONE,0.0,0.0,0.0,NONE,5.012451029967648E-12,-3.764791058975463E-11,0.0,1,22.5,22.5,22.5,22.5,14.875,14.875,14.564,1.4369252,0,718,3.725,12.0,1.683,22,16.6,OK,33,0,0,1,0,0,65,68,0.0,0,0.0,-2.0152872E-25,8.8E-44,0.0,-6.1177856E7,62,3.0198283E-15,-3.0198425E-15,2.7932528E-38,False,False,0,None,2.2028598E33,1.0842106E-19,
138930365,1.137,9.13415452138178,62.69216194533842,19,716.5535,716.6009,0.06190805,0.08165013,-0.98957026,0.9948611,-5.17031,4.1631975,3.0538757,7.3068786,68,-526,1442,1536.0,0.0038829534,-0.050634574,-0.038168043,0.06352745,0.05078323983915551,-0.05078323983915551,-4.360329912196978,3.572266100333884,74.51161690378035,74.51161690378035,-0.6726200285976426,0.2779448125903365,0.024140487188616805,68.91541229631011,1.3494947054488473,0.773786740029608,-133.48299938130512,-130.9637344016218,59.98,-0.5781861679687381,,9.1341556,62.6921621,20190921,100201,2019-09-21T10:02:01Z,785.144,0.58,1.13,8.77,11,8,19,0.0,0.0,0.0,9.134178995410801,62.69216655210043,120,12759921,48,44,513,1465,3400,3809,3816,-1148,15269,31,212,15262,0,false,false,false,false,false,false,false,false,false,false,2180,2005,2121,1563,57,73,73,57,1241,1251,1248,1244,1232,1232,1232,1232,0.0,0.0,0.0,0.0,1439.3,1436.8,1436.2,1438.7,3.86,3.21,3.84,5.04,0,0,0,0,142.60313414794734,9.134154831862796,62.692161461844215,0,716.5535,716.8241,0.06122805,0.06660461,-0.99339986,0.9975111,-0.37396747,-0.05748986,0.5968484,0.70667166,68,-526,1433,1528.0,-0.003644898,4.8612543E-5,-0.0025919962,0.004472817,0.003645222192586666,-0.003645222192586666,-4.3626792223456885,3.4972616840263444,70.17696144804412,70.17696144804415,0.307691857424419,-0.02276386542136883,-0.35434513855750827,69.24177014090938,1.3563950753966718,0.7952158382181151,-164.1356893562962,-161.61642437661288,59.91,NONE,0.0,0.0,0.0,NONE,5.012451029967648E-12,-3.764791058975463E-11,0.0,1,16.25,16.25,16.25,16.25,14.875,14.875,14.564,1.4369252,0,718,3.725,12.0,1.683,22,16.6,OK,33,0,0,1,0,0,65,68,0.0,0,0.0,-2.0152872E-25,8.8E-44,0.0,-6.1177856E7,62,3.0198283E-15,-3.0198425E-15,2.7932528E-38,False,False,0,None,2.2028598E33,1.0842106E-19,
139089778,1.179,9.134154414191018,62.692161906658804,19,716.5535,716.6019,0.052686557,0.08238468,-1.0114919,1.0162082,12.51991,-1.9087954,1.6305448,12.769115,65,-526,1424,1519.0,0.0010428452,-0.050023217,-0.033777926,0.06036852,0.05003408587050388,0.11788293334811932,-4.26466024949361,3.55453077248765,74.43887145026315,74.43887145026315,-0.4388549380610739,0.6447094615348006,0.1366411722904794,69.64245539495424,1.3561875018215976,0.7807436638502537,-130.7062368771188,-128.18697189743548,60.02,-0.5781861679687381,,9.1341556,62.6921621,20190921,100201,2019-09-21T10:02:01Z,785.144,0.58,1.13,8.77,11,8,19,0.0,0.0,0.0,9.134178995410801,62.69216655210043,120,12759921,48,44,513,1465,3400,3809,3816,-1148,15269,31,212,15262,0,false,false,false,false,false,false,false,false,false,false,2180,2005,2121,1563,57,73,73,57,1241,1251,1248,1244,1232,1232,1232,1232,0.0,0.0,0.0,0.0,1439.3,1436.8,1436.2,1438.7,3.86,3.21,3.84,5.04,0,0,0,0,142.60313414794734,9.134154831862796,62.692161461844215,0,716.5535,716.8241,0.06122805,0.06660461,-0.99339986,0.9975111,-0.37396747,-0.05748986,0.5968484,0.70667166,68,-526,1433,1528.0,-0.003644898,4.8612543E-5,-0.0025919962,0.004472817,0.003645222192586666,-0.003645222192586666,-4.3626792223456885,3.4972616840263444,70.17696144804412,70.17696144804415,0.307691857424419,-0.02276386542136883,-0.35434513855750827,69.24177014090938,1.3563950753966718,0.7952158382181151,-164.1356893562962,-161.61642437661288,59.91,NONE,0.0,0.0,0.0,NONE,-5.0944331807389515E-11,-1.04329592020617E-10,0.0,1,16.25,16.25,16.25,16.25,14.899,14.899,14.579,1.4369252,0,718,3.725,12.0,1.683,22,16.6,OK,33,0,0,1,0,0,65,68,0.0,0,0.0,-5.075594E-25,8.8E-44,0.0,-6.1177856E7,62,3.0198283E-15,-3.0198425E-15,2.8852318E-38,False,False,0,None,2.2999936E33,1.0842106E-19,
139236841,1.217,9.134154414191018,62.692161906658804,19,716.5535,716.6019,0.052686557,0.08238468,-1.0114919,1.0162082,12.51991,-1.9087954,1.6305448,12.769115,65,-526,1424,1519.0,0.0010428452,-0.050023217,-0.033777926,0.06036852,0.05003408587050388,-0.05003408587050388,-4.26466024949361,3.55453077248765,74.43887145026315,74.43887145026315,-0.4388549380610739,0.6447094615348006,0.1366411722904794,69.64245539495424,1.3561875018215976,0.7807436638502537,-130.7062368771188,-128.18697189743548,60.02,-0.5781861679687381,,9.1341554,62.692162,20190921,100201,2019-09-21T10:02:01Z,785.144,0.58,1.13,8.76,11,8,19,-0.02,0.0,0.0,9.134178995410801,62.69216655210043,120,12759921,48,44,513,1465,3400,3809,3816,-1148,15269,31,212,15262,0,false,false,false,false,false,false,false,false,false,false,2180,2005,2121,1563,57,73,73,57,1241,1251,1248,1244,1232,1232,1232,1232,0.0,0.0,0.0,0.0,1439.3,1436.8,1436.2,1438.7,3.86,3.21,3.84,5.04,0,0,0,0,142.60313414794734,9.134154552588914,62.69216146363282,0,716.5535,716.8242,0.06841943,0.102958046,-1.0008521,1.0084574,-18.50021,-0.6681315,35.30279,39.862152,68,-526,1433,1528.0,-0.013081016,0.004933692,-0.0047554704,0.014767153,0.013980497014497313,0.358798523046151,-4.241937178128301,3.5056724527175698,70.11512701181009,70.1151270118101,5.681716779914573,-2.848148884913495,-0.4629676003504679,69.36299800069413,1.3692727164774414,0.809463830792167,-91.719464874439,-89.20019989475566,60.03,NONE,0.0,0.0,0.0,NONE,-5.0944331807389515E-11,-1.04329592020617E-10,0.0,1,10.0,10.0,10.0,10.0,14.899,14.899,14.579,1.4369252,0,718,3.725,12.0,1.683,22,16.6,OK,33,0,0,1,0,0,65,68,0.0,0,0.0,-5.075594E-25,8.8E-44,0.0,-6.1177856E7,62,3.0198283E-15,-3.0198425E-15,2.8852318E-38,False,False,0,None,2.2999936E33,1.0842106E-19,
139389789,1.256,9.134154299092875,62.69216190026635,19,716.5535,716.6031,0.026702188,0.04544943,-1.0078399,1.0092175,-5.603532,-12.10764,-16.787155,21.44302,68,-520,1458,1549.0,0.0047413018,-0.053202365,-0.03322053,0.06290132,0.053413216206864,0.09537416593158128,-4.365564872113159,3.5386132728995126,74.45190847441681,74.45190847441683,-1.1954131218377453,0.989947758573406,-0.5630039816084924,68.55845845044873,1.361888079959588,0.7866580367284175,-99.42194572606357,-96.90268074638023,60.05,-0.5781861679687381,,9.1341554,62.692162,20190921,100201,2019-09-21T10:02:01Z,785.144,0.58,1.13,8.76,11,8,19,-0.02,0.0,0.0,9.134178995410801,62.69216655210043,120,12759921,48,44,513,1465,3400,3809,3816,-1148,15269,31,212,15262,0,false,false,false,false,false,false,false,false,false,false,2824,2806,2845,1593,57,72,73,57,1205,1209,1223,1215,1217,1200,1226,1217,0.0,0.0,0.0,0.0,1441.1,1436.8,1438.1,1439.9,2.48,1.97,2.58,5.96,0,0,0,0,134.00816885226664,9.134154552588914,62.69216146363282,0,716.5535,716.8242,0.06841943,0.102958046,-1.0008521,1.0084574,-18.50021,-0.6681315,35.30279,39.862152,68,-526,1433,1528.0,-0.013081016,0.004933692,-0.0047554704,0.014767153,0.013980497014497313,-0.013980497014497313,-4.241937178128301,3.5056724527175698,70.11512701181009,70.1151270118101,5.681716779914573,-2.848148884913495,-0.4629676003504679,69.36299800069413,1.3692727164774414,0.809463830792167,-91.719464874439,-89.20019989475566,60.03,NONE,0.0,0.0,0.0,NONE,-5.0944331807389515E-11,-1.04329592020617E-10,0.0,1,10.0,10.0,10.0,10.0,14.899,14.899,14.579,1.4369252,0,718,3.725,12.0,1.683,22,16.6,OK,33,0,0,1,0,0,65,68,0.0,0,0.0,-5.075594E-25,8.8E-44,0.0,-6.1177856E7,62,3.0198283E-15,-3.0198425E-15,2.8852318E-38,False,False,0,None,2.2999936E33,1.0842106E-19,
139551421,1.298,9.134154299092875,62.69216190026635,19,716.5535,716.6031,0.026702188,0.04544943,-1.0078399,1.0092175,-5.603532,-12.10764,-16.787155,21.44302,68,-520,1458,1549.0,0.0047413018,-0.053202365,-0.03322053,0.06290132,0.053413216206864,-0.053413216206864,-4.365564872113159,3.5386132728995126,74.45190847441681,74.45190847441683,-1.1954131218377453,0.989947758573406,-0.5630039816084924,68.55845845044873,1.361888079959588,0.7866580367284175,-99.42194572606357,-96.90268074638023,60.05,-0.5781861679687381,,9.1341554,62.692162,20190921,100201,2019-09-21T10:02:01Z,785.144,0.58,1.13,8.76,11,8,19,-0.02,0.0,0.0,9.134178995410801,62.69216655210043,120,12759921,48,44,513,1465,3400,3809,3816,-1148,15269,31,212,15262,0,false,false,false,false,false,false,false,false,false,false,2824,2806,2845,1593,57,72,73,57,1205,1209,1223,1215,1217,1200,1226,1217,0.0,0.0,0.0,0.0,1441.1,1436.8,1438.1,1439.9,2.48,1.97,2.58,5.96,0,0,0,0,134.00816885226664,9.134154552588914,62.69216146363282,0,716.5535,716.8242,0.06841943,0.102958046,-1.0008521,1.0084574,-18.50021,-0.6681315,35.30279,39.862152,68,-526,1433,1528.0,-0.013081016,0.004933692,-0.0047554704,0.014767153,0.013980497014497313,-0.013980497014497313,-4.241937178128301,3.5056724527175698,70.11512701181009,70.1151270118101,5.681716779914573,-2.848148884913495,-0.4629676003504679,69.36299800069413,1.3692727164774414,0.809463830792167,-91.719464874439,-89.20019989475566,60.03,NONE,0.0,0.0,0.0,NONE,-5.0944331807389515E-11,-1.04329592020617E-10,0.0,1,10.0,10.0,10.0,10.0,14.899,14.899,14.579,1.4369252,0,718,3.725,12.0,1.683,22,16.6,OK,33,0,0,1,0,0,65,68,0.0,0,0.0,-5.075594E-25,8.8E-44,0.0,-6.1177856E7,62,3.0198283E-15,-3.0198425E-15,2.8852318E-38,False,False,0,None,2.2999936E33,1.0842106E-19,
139685124,1.333,9.134154299092875,62.69216190026635,19,716.5535,716.6031,0.026702188,0.04544943,-1.0078399,1.0092175,-5.603532,-12.10764,-16.787155,21.44302,68,-520,1458,1549.0,0.0047413018,-0.053202365,-0.03322053,0.06290132,0.053413216206864,-0.053413216206864,-4.365564872113159,3.5386132728995126,74.45190847441681,74.45190847441683,-1.1954131218377453,0.989947758573406,-0.5630039816084924,68.55845845044873,1.361888079959588,0.7866580367284175,-99.42194572606357,-96.90268074638023,60.05,-0.5781861679687381,,9.1341554,62.692162,20190921,100201,2019-09-21T10:02:01Z,785.144,0.58,1.13,8.76,11,8,19,-0.02,0.0,0.0,9.134178995410801,62.69216655210043,120,12759961,16,44,515,1465,3400,3844,3848,-315,15398,30,0,14779,0,false,false,false,false,false,false,false,false,false,false,2824,2806,2845,1593,57,72,73,57,1205,1209,1223,1215,1217,1200,1226,1217,0.0,0.0,0.0,0.0,1441.1,1436.8,1438.1,1439.9,2.48,1.97,2.58,5.96,0,0,0,0,134.00816885226664,9.134154552588914,62.69216146363282,0,716.5535,716.8242,0.06841943,0.102958046,-1.0008521,1.0084574,-18.50021,-0.6681315,35.30279,39.862152,68,-526,1433,1528.0,-0.013081016,0.004933692,-0.0047554704,0.014767153,0.013980497014497313,-0.013980497014497313,-4.241937178128301,3.5056724527175698,70.11512701181009,70.1151270118101,5.681716779914573,-2.848148884913495,-0.4629676003504679,69.36299800069413,1.3692727164774414,0.809463830792167,-91.719464874439,-89.20019989475566,60.03,NONE,0.0,0.0,0.0,NONE,-5.0944331807389515E-11,-1.04329592020617E-10,0.0,2,14.7,20.94,19.65,15.57,14.899,14.899,14.579,1.4369252,0,718,3.725,12.0,1.683,22,16.6,OK,33,0,0,1,0,0,65,68,0.0,0,0.0,-5.075594E-25,8.8E-44,0.0,-6.1177856E7,62,3.0198283E-15,-3.0198425E-15,2.8852318E-38,False,False,0,None,2.2999936E33,1.0842106E-19,
139869567,1.381,9.134154299092875,62.69216190026635,19,716.5535,716.6031,0.026702188,0.04544943,-1.0078399,1.0092175,-5.603532,-12.10764,-16.787155,21.44302,68,-520,1458,1549.0,0.0047413018,-0.053202365,-0.03322053,0.06290132,0.053413216206864,-0.053413216206864,-4.365564872113159,3.5386132728995126,74.45190847441681,74.45190847441683,-1.1954131218377453,0.989947758573406,-0.5630039816084924,68.55845845044873,1.361888079959588,0.7866580367284175,-99.42194572606357,-96.90268074638023,60.05,-0.5781861679687381,,9.1341554,62.692162,20190921,100201,2019-09-21T10:02:01Z,785.144,0.58,1.13,8.76,11,8,19,-0.02,0.0,0.0,9.134178995410801,62.69216655210043,120,12759961,16,44,515,1465,3400,3844,3848,-315,15398,30,0,14779,0,false,false,false,false,false,false,false,false,false,false,2446,2672,2762,1370,57,73,72,57,1266,1279,1332,1248,1261,1262,1311,1300,0.0,0.0,0.0,0.0,1459.5,1454.6,1455.8,1458.9,0.4,0.4,1.22,3.71,0,0,0,0,121.3578921727235,9.13415435362943,62.69216132517598,0,716.5535,716.8249,0.06312422,0.023034513,-1.0026947,1.0049437,4.354963,4.070704,-16.48343,17.528257,71,-520,1433,1526.0,-1.7799862E-4,-0.0038406316,-0.0045616096,0.00596577,0.0038447540627766074,0.38083936092186055,-4.31244699164119,3.4601676537273867,70.00904786934022,70.00904786934024,7.560167967566033,-4.26005418155232,-0.12334041045745892,68.78235609174926,1.3849118664652331,0.8279040138158205,-149.12462873828446,-146.60536375860113,60.07,NONE,0.0,0.0,0.0,NONE,-5.0944331807389515E-11,-1.04329592020617E-10,0.0,2,14.7,20.94,19.65,15.57,14.896,14.896,14.61,1.5137813,0,717,3.725,12.0,4.502,22,16.6,OK,34,0,0,1,0,0,65,68,0.0,0,0.0,-1.4341491E-25,8.8E-44,0.0,-6.1177856E7,62,3.0198283E-15,-3.0198425E-15,3.0698355E-38,False,False,0,None,2.4948156E33,1.0842106E-19,
