Tick#,offsetTime,IMU_ATTI(0):Longitude,IMU_ATTI(0):Latitude,IMU_ATTI(0):numSats,IMU_ATTI(0):barometer:Raw,IMU_ATTI(0):barometer:Smooth,IMU_ATTI(0):accel:X,IMU_ATTI(0):accel:Y,IMU_ATTI(0):accel:Z,IMU_ATTI(0):accel:Composite,IMU_ATTI(0):gyro:X,IMU_ATTI(0):gyro:Y,IMU_ATTI(0):gyro:Z,IMU_ATTI(0):gyro:Composite,IMU_ATTI(0):mag:X,IMU_ATTI(0):mag:Y,IMU_ATTI(0):mag:Z,IMU_ATTI(0):mag:Mod,IMU_ATTI(0):velN,IMU_ATTI(0):velE,IMU_ATTI(0):velD,IMU_ATTI(0):velComposite,IMU_ATTI(0):velH,IMU_ATTI(0):GPS-H,IMU_ATTI(0):roll,IMU_ATTI(0):pitch,IMU_ATTI(0):yaw,IMU_ATTI(0):yaw360,IMU_ATTI(0):totalGyro:Z,IMU_ATTI(0):totalGyro:X,IMU_ATTI(0):totalGyro:Y,IMU_ATTI(0):magYaw,IMU_ATTI(0):distanceHP,IMU_ATTI(0):distanceTravelled,IMU_ATTI(0):directionOfTravel[mag],IMU_ATTI(0):directionOfTravel[true],IMU_ATTI(0):temperature,General:relativeHeight,General:absoluteHeight,GPS(0):Long,GPS(0):Lat,GPS(0):Date,GPS(0):Time,GPS:dateTimeStamp,GPS(0):heightMSL,GPS(0):hDOP,GPS(0):pDOP,GPS(0):sAcc,GPS(0):numGPS,GPS(0):numGLNAS,GPS(0):numSV,GPS(0):velN,GPS(0):velE,GPS(0):velD,HP:Longitude,HP:Latitude,HP:rthHeight,BatBlackBox:tick,BatBlackBox:id,BatBlackBox:rsoc,BatBlackBox:index,BatBlackBox:rm,BatBlackBox:fcc,BatBlackBox:cell_min,BatBlackBox:cell_max,BatBlackBox:current,BatBlackBox:voltage,BatBlackBox:temp,BatBlackBox:flag,BatBlackBox:reserve,BatBlackBox:user_data,OA:avoidObst,OA:emergBrake,OA:radiusLimit,OA:airportLimit,OA:groundForceLanding,OA:horizNearBoundary,OA:vertLowLimit,OA:vertAirportLimit,OA:roofLimit,OA:hitGroundLimit,Motor:Speed:RFront,Motor:Speed:LFront,Motor:Speed:LBack,Motor:Speed:RBack,Motor:EscTemp:RFront,Motor:EscTemp:LFront,Motor:EscTemp:LBack,Motor:EscTemp:RBack,Motor:PPMrecv:RFront,Motor:PPMrecv:LFront,Motor:PPMrecv:LBack,Motor:PPMrecv:RBack,Motor:PPMsend:RFront,Motor:PPMsend:LFront,Motor:PPMsend:LBack,Motor:PPMsend:RBack,Motor:V_out:RFront,Motor:V_out:LFront,Motor:V_out:LBack,Motor:V_out:RBack,Motor:Volts:RFront,Motor:Volts:LFront,Motor:Volts:LBack,Motor:Volts:RBack,Motor:Current:RFront,Motor:Current:LFront,Motor:Current:LBack,Motor:Current:RBack,Motor:Status:RFront,Motor:Status:LFront,Motor:Status:LBack,Motor:Status:RBack,Motor:thrustAngle,IMU_ATTI(1):Longitude,IMU_ATTI(1):Latitude,IMU_ATTI(1):numSats,IMU_ATTI(1):barometer:Raw,IMU_ATTI(1):barometer:Smooth,IMU_ATTI(1):accel:X,IMU_ATTI(1):accel:Y,IMU_ATTI(1):accel:Z,IMU_ATTI(1):accel:Composite,IMU_ATTI(1):gyro:X,IMU_ATTI(1):gyro:Y,IMU_ATTI(1):gyro:Z,IMU_ATTI(1):gyro:Composite,IMU_ATTI(1):mag:X,IMU_ATTI(1):mag:Y,IMU_ATTI(1):mag:Z,IMU_ATTI(1):mag:Mod,IMU_ATTI(1):velN,IMU_ATTI(1):velE,IMU_ATTI(1):velD,IMU_ATTI(1):velComposite,IMU_ATTI(1):velH,IMU_ATTI(1):GPS-H,IMU_ATTI(1):roll,IMU_ATTI(1):pitch,IMU_ATTI(1):yaw,IMU_ATTI(1):yaw360,IMU_ATTI(1):totalGyro:Z,IMU_ATTI(1):totalGyro:X,IMU_ATTI(1):totalGyro:Y,IMU_ATTI(1):magYaw,IMU_ATTI(1):distanceHP,IMU_ATTI(1):distanceTravelled,IMU_ATTI(1):directionOfTravel[mag],IMU_ATTI(1):directionOfTravel[true],IMU_ATTI(1):temperature,IMUEX(0):err,IMUEX(0):rtk_Longitude,IMUEX(0):rtk_Latitude,IMUEX(0):rtk_Alti,IMUEX(1):err,IMUEX(1):rtk_Longitude,IMUEX(1):rtk_Latitude,IMUEX(1):rtk_Alti,BattInfo:Voltage,BattInfo:BatVoltage,BattInfo:AdVoltage,BattInfo:AvgCurrent,BattInfo:R_time,BattInfo:R_CAP_MAH,BattInfo:LowCellVoltage,BattInfo:LowCellVolThreshold,BattInfo:BatCurrent,BattInfo:Remaining%,BattInfo:Temp,BattInfo:status,battery_info:BatDynCnt,battery_info:Vol1Protect,battery_info:Vol2Protect,battery_info:Cap1Protect,battery_info:Cap2Protect,battery_info:Batpresent,battery_info:sopPercentage,battery_info:sopValue,battery_info:sopScale,battery_info:sopFlg,BattInfo:WindHeading:WindDir,battery_info:home_dir,BattInfo:Wind:rangeMin,BattInfo:Wind:rangeMax,battery_info:cap_speed,battery_info:against_wind,battery_info:emergency_land_cap,battery_info:intel_bat_land_cap,battery_info:intel_bat_gh_cap,BattInfo:Smart:SmartGh,BattInfo:Smart:SmartLand,BattInfo:GoHome:CntDown,BattInfo:GoHome:GhCmd,BattInfo:GoHome:CapLevel,BattInfo:GoHome:LandCapLv,Attribute|Value,ConvertDatV3,3.6.6-Tablet
7293533,1.896,,,,,,,,,,,,,,,,,,,,,,,,,,,,,,,,,,,,,,,,,,,,,,,,,,,,,,,,,,,,,,,,,,,,,,,,,,,,,,,,,,,,,,,,,,,,,,,,,,,,,,,,,,,,,,,,,,,,,,,,,,,,,,,,,,,,,,,,,,,,,,,,,,,,,,,,,,,,,,,,,,,,,,,,,OK,,,,,,,,,,,,,,,,,,,,,,,,,,Firmware Date| Jul 26 2019
39127827,10.169,,,,,,,,,,,,,,,,,,,,,,,,,,,,,,,,,,,,,,,,,,,,,,,,,,,,,,,,,,,,,,,,,,,,,,,,,,,,,,,,,,,,,,,,,,,,,,,,,,,,,,,,,,,,,,,,,,,,,,,,,,,,,,,,,,,,,,,,,,,,,,,,,,,,,,,,,,,,,,17.146,17.146,17.294,1.6311269,0,3289,4.285,12.0,1.307,99,15.5,OK,8,0,0,0,0,0,65,100,0.0,0,0.0,589232.0,2.69E-43,0.0,-4.4526828E-17,67,1.3322676E-15,-1.3322747E-15,9.4E-44,False,False,0,None,0.0,1.0842022E-19,ACType|MavicEnterprise
39434735,10.249,,,0,607.28174,607.23566,0.061000183,-0.0033383504,-1.004987,1.0068421,0.23283555,-0.104046635,0.14267935,0.29222506,481,-179,1409,1499.0,0.0,0.0,0.08774607,0.08774607,0.0,0.0,0.19779660310875657,3.4907432885745346,20.774624234944262,20.77462423494427,0.0,0.0,0.0,18.000379283810847,,0.0,,,45.22,,,0.0,0.0,20151018,7,2015-10-18T00:00:07Z,-17.0,99.99,99.99,3.75E7,0,0,0,0.0,0.0,0.0,,,,,,,,,,,,,,,,,,,,,,,,,,,,,,,,,,,,,,,,,,,,,,,,,,,,,,,,,,,,,,,,,,,,,,,,,,,,,,,,,,,,,,,,,,,,,,,,,,,,,,,,,17.146,17.146,17.294,1.6311269,0,3289,4.285,12.0,1.307,99,15.5,OK,8,0,0,0,0,0,65,100,0.0,0,0.0,589232.0,2.69E-43,0.0,-4.4526828E-17,67,1.3322676E-15,-1.3322747E-15,9.4E-44,False,False,0,None,0.0,1.0842022E-19,
39586167,10.288,,,0,607.1945,607.1998,0.061691515,-0.0028650323,-1.0049489,1.0068446,0.19224074,0.013063136,0.05326601,0.19991101,478,-179,1406,1495.0,0.0,0.0,0.106967784,0.106967784,0.0,0.0,0.19767051532918975,3.4930142787358114,20.774102679162198,20.774102679162183,0.002657776963410415,0.00959210220047679,6.518021527204622E-4,18.092532553824164,,0.0,,,45.31,,,0.0,0.0,20151018,7,2015-10-18T00:00:07Z,-17.0,99.99,99.99,3.75E7,0,0,0,0.0,0.0,0.0,,,,,,,,,,,,,,,,,,false,false,false,false,false,false,false,false,false,false,0,0,0,0,42,54,55,41,703,754,803,855,700,750,800,850,0.0,0.0,0.0,0.0,1707.3,1701.1,1701.7,1709.7,0.0,0.0,0.0,0.0,0,0,0,0,-45.0,,,,,,,,,,,,,,,,,,,,,,,,,,,,,,,,,,,,,NONE,0.0,0.0,0.0,,,,,17.146,17.146,17.294,1.6311269,0,3289,4.285,12.0,1.307,99,15.5,OK,8,0,0,0,0,0,65,100,0.0,0,0.0,589232.0,2.69E-43,0.0,-4.4526828E-17,67,1.3322676E-15,-1.3322747E-15,9.4E-44,False,False,0,None,0.0,1.0842022E-19,
39882019,10.365,,,0,607.1945,607.1998,0.061691515,-0.0028650323,-1.0049489,1.0068446,0.19224074,0.013063136,0.05326601,0.19991101,478,-179,1406,1495.0,0.0,0.0,0.106967784,0.106967784,0.0,0.0,0.19767051532918975,3.4930142787358114,20.774102679162198,20.774102679162183,0.002657776963410415,0.00959210220047679,6.518021527204622E-4,18.092532553824164,,0.0,,,45.31,,,0.0,0.0,20151018,7,2015-10-18T00:00:07Z,-17.0,99.99,99.99,3.75E7,0,0,0,0.0,0.0,0.0,,,,,,,,,,,,,,,,,,false,false,false,false,false,false,false,false,false,false,0,0,0,0,42,54,55,41,703,754,803,855,700,750,800,850,0.0,0.0,0.0,0.0,1707.3,1701.1,1701.7,1709.7,0.0,0.0,0.0,0.0,0,0,0,0,-45.0,,,,,,,,,,,,,,,,,,,,,,,,,,,,,,,,,,,,,NONE,0.0,0.0,0.0,,,,,17.146,17.146,17.294,1.6311269,0,3289,4.285,12.0,1.307,99,15.5,OK,8,0,0,0,0,0,65,100,0.0,0,0.0,589232.0,2.69E-43,0.0,-4.4526828E-17,67,1.3322676E-15,-1.3322747E-15,9.4E-44,False,False,0,None,0.0,1.0842022E-19,
40278519,10.468,,,0,607.2104,607.18176,0.061718345,-0.0033846116,-1.0051168,1.0070157,0.061336286,-0.16161215,0.044037305,0.17838137,481,-179,1406,1496.0,0.0,0.0,0.10836212,0.10836212,0.0,0.0,0.20235481682357367,3.4907756775511345,20.776277118567677,20.77627711856769,0.007513560657012232,0.022246503176980258,-0.006761325581259843,18.015113090532676,,0.0,,,45.34,,,0.0,0.0,20151018,8,2015-10-18T00:00:08Z,-17.0,99.99,99.99,3.75E7,0,0,0,0.0,0.0,0.0,,,,,,,,,,,,,,,,,,false,false,false,false,false,false,false,false,false,false,0,0,0,0,41,54,55,42,703,755,803,855,700,750,800,850,0.0,0.0,0.0,0.0,1706.7,1701.1,1701.1,1706.7,0.0,0.0,0.0,0.0,0,0,0,0,-45.0,,,,,,,,,,,,,,,,,,,,,,,,,,,,,,,,,,,,,NONE,0.0,0.0,0.0,,,,,17.143,17.143,17.292,1.6311269,0,3289,4.285,12.0,1.307,99,15.5,OK,8,0,0,0,0,0,65,100,0.0,0,0.0,589232.0,2.69E-43,0.0,-4.4526828E-17,67,1.3322676E-15,-1.3322747E-15,9.4E-44,False,False,0,None,0.0,1.0842022E-19,dateTime|2015-10-18 0:0:8 GMT
40585352,10.548,,,0,607.0439,607.1316,0.061438352,-0.0036742175,-1.0038754,1.0057603,0.20860583,0.0044459295,0.0070205256,0.20877127,484,-179,1406,1497.0,0.0,0.0,0.11089483,0.11089483,0.0,0.0,0.20061393796454416,3.4905956150949877,20.77397980161023,20.77397980161021,0.010061210647566567,0.035715896503826866,-0.01460350248065471,17.922559050227253,,0.0,,,45.41,,,0.0,0.0,20151018,8,2015-10-18T00:00:08Z,-17.0,99.99,99.99,3.75E7,0,0,0,0.0,0.0,0.0,,,,,,,,,,,,,,,,,,false,false,false,false,false,false,false,false,false,false,0,0,0,0,42,55,55,42,703,754,803,855,700,750,800,850,0.0,0.0,0.0,0.0,1706.7,1701.1,1701.1,1706.7,0.0,0.0,0.0,0.0,0,0,0,0,-45.0,,,,,,,,,,,,,,,,,,,,,,,,,,,,,,,,,,,,,NONE,0.0,0.0,0.0,,,,,17.143,17.143,17.292,1.6311269,0,3289,4.285,12.0,1.307,99,15.5,OK,8,0,0,0,0,0,65,100,0.0,0,0.0,589232.0,2.69E-43,0.0,-4.4526828E-17,67,1.3322676E-15,-1.3322747E-15,9.4E-44,False,False,0,None,0.0,1.0842022E-19,
40738242,10.588,,,0,607.1628,607.1105,0.060993172,-0.003705822,-1.0052797,1.007135,0.29142442,-0.043833945,-0.06608084,0.30202034,481,-179,1406,1496.0,0.0,0.0,0.11684754,0.11684754,0.0,0.0,0.20150290607817442,3.489137719243917,20.77217571917267,20.77217571917265,0.007113590360244124,0.060671731057712217,-0.016569305049684832,18.014363690716415,,0.0,,,45.41,,,0.0,0.0,20151018,8,2015-10-18T00:00:08Z,-17.0,99.99,99.99,3.75E7,0,0,0,0.0,0.0,0.0,,,,,,,,,,,,,,,,,,false,false,false,false,false,false,false,false,false,false,0,0,0,0,43,54,55,43,944,945,944,855,940,940,940,940,0.0,0.0,0.0,0.0,1707.3,1701.7,1701.7,1706.1,0.0,0.0,0.0,0.0,0,0,0,0,-45.0,,,,,,,,,,,,,,,,,,,,,,,,,,,,,,,,,,,,,NONE,0.0,0.0,0.0,,,,,17.145,17.145,17.28,1.6450671,0,3288,4.285,12.0,1.185,99,15.5,OK,9,0,0,0,0,0,65,100,0.0,0,0.0,589232.0,2.69E-43,0.0,-4.4526828E-17,67,1.3322676E-15,-1.3322747E-15,9.4E-44,False,False,0,None,0.0,1.0842022E-19,
41046624,10.668,,,0,607.1628,607.1105,0.060993172,-0.003705822,-1.0052797,1.007135,0.29142442,-0.043833945,-0.06608084,0.30202034,481,-179,1406,1496.0,0.0,0.0,0.11684754,0.11684754,0.0,0.0,0.20150290607817442,3.489137719243917,20.77217571917267,20.77217571917265,0.007113590360244124,0.060671731057712217,-0.016569305049684832,18.014363690716415,,0.0,,,45.41,,,0.0,0.0,20151018,8,2015-10-18T00:00:08Z,-17.0,99.99,99.99,3.75E7,0,0,0,0.0,0.0,0.0,,,,,,,,,,,,,,,,,,false,false,false,false,false,false,false,false,false,false,0,0,0,0,43,54,55,43,944,945,944,855,940,940,940,940,0.0,0.0,0.0,0.0,1707.3,1701.7,1701.7,1706.1,0.0,0.0,0.0,0.0,0,0,0,0,-45.0,,,,,,,,,,,,,,,,,,,,,,,,,,,,,,,,,,,,,NONE,0.0,0.0,0.0,,,,,17.145,17.145,17.28,1.6450671,0,3288,4.285,12.0,1.185,99,15.5,OK,9,0,0,0,0,0,65,100,0.0,0,0.0,589232.0,2.69E-43,0.0,-4.4526828E-17,67,1.3322676E-15,-1.3322747E-15,9.4E-44,False,False,0,None,0.0,1.0842022E-19,
41430756,10.768,,,0,607.12317,607.1149,0.06194909,-0.0033776267,-1.004359,1.0062734,-0.056202717,0.0025744853,-0.008936424,0.056966946,481,-179,1409,1499.0,0.0,0.0,0.09761828,0.09761828,0.0,0.0,0.19913218866661914,3.4915620513905616,20.772437924827877,20.772437924827898,0.0033704871005256006,0.07240848578488465,-0.0186280102439691,18.00280829563264,,0.0,,,45.46,,,0.0,0.0,20151018,8,2015-10-18T00:00:08Z,-17.0,99.99,99.99,3.75E7,0,0,0,0.0,0.0,0.0,,,,,,,,,,,,,,,,,,false,false,false,false,false,false,false,false,false,false,0,0,0,0,41,53,56,42,944,945,944,944,940,940,940,940,0.0,0.0,0.0,0.0,1707.3,1701.7,1701.1,1707.9,0.0,0.0,0.0,0.0,0,0,0,0,-45.0,,,,,,,,,,,,,,,,,,,,,,,,,,,,,,,,,,,,,NONE,0.0,0.0,0.0,,,,,17.145,17.145,17.28,1.6450671,0,3288,4.285,12.0,1.185,99,15.5,OK,9,0,0,0,0,0,65,100,0.0,0,0.0,589232.0,2.69E-43,0.0,-4.4526828E-17,67,1.3322676E-15,-1.3322747E-15,9.4E-44,False,False,0,None,0.0,1.0842022E-19,
41737426,10.847,,,0,607.2289,607.0831,0.06131506,-0.0026281578,-1.0034707,1.0053456,0.06593369,0.094768405,0.06734227,0.1336536,481,-179,1412,1502.0,0.0,0.0,0.11502401,0.11502401,0.0,0.0,0.19677317943478337,3.4911796928300243,20.77234832175684,20.77234832175685,0.006284859259514466,0.07289404807827286,-0.013770732172930953,17.99326673681033,,0.0,,,45.53,,,0.0,0.0,20151018,8,2015-10-18T00:00:08Z,-17.0,99.99,99.99,3.75E7,0,0,0,0.0,0.0,0.0,,,,,,,,,,,,,,,,,,false,false,false,false,false,false,false,false,false,false,0,0,0,0,41,53,56,42,944,945,944,944,940,940,940,940,0.0,0.0,0.0,0.0,1707.3,1701.7,1701.1,1707.9,0.0,0.0,0.0,0.0,0,0,0,0,-45.0,,,,,,,,,,,,,,,,,,,,,,,,,,,,,,,,,,,,,NONE,0.0,0.0,0.0,,,,,17.154,17.154,17.276,1.6450671,0,3288,4.285,12.0,1.185,99,15.5,OK,9,0,0,0,0,0,65,100,0.0,0,0.0,589232.0,2.69E-43,0.0,-4.4526828E-17,67,1.3322676E-15,-1.3322747E-15,9.4E-44,False,False,0,None,0.0,1.0842022E-19,
41890190,10.887,,,0,607.03864,607.07904,0.06165255,-0.0028223796,-1.002447,1.004345,0.16565111,-0.1553736,0.010273952,0.22734731,481,-179,1412,1502.0,0.0,0.0,0.10216182,0.10216182,0.0,0.0,0.19479037916012681,3.4878362703381702,20.76860224012922,20.768602240129212,0.01015774235921139,0.08444963436551185,-0.016794801929470728,17.991176666369597,,0.0,,,45.54,,,0.0,0.0,20151018,8,2015-10-18T00:00:08Z,-17.0,99.99,99.99,3.75E7,0,0,0,0.0,0.0,0.0,,,,,,,,,,,,,,,,,,false,false,false,false,false,false,false,false,false,false,0,0,0,0,42,56,54,42,944,945,944,944,940,940,940,940,0.0,0.0,0.0,0.0,1706.7,1700.5,1701.1,1707.3,0.0,0.0,0.0,0.0,0,0,0,0,-45.0,,,,,,,,,,,,,,,,,,,,,,,,,,,,,,,,,,,,,NONE,0.0,0.0,0.0,,,,,17.154,17.154,17.276,1.6450671,0,3288,4.285,12.0,1.185,99,15.5,OK,9,0,0,0,0,0,65,100,0.0,0,0.0,589232.0,2.69E-43,0.0,-4.4526828E-17,67,1.3322676E-15,-1.3322747E-15,9.4E-44,False,False,0,None,0.0,1.0842022E-19,
42198688,10.967,,,0,607.03864,607.07904,0.06165255,-0.0028223796,-1.002447,1.004345,0.16565111,-0.1553736,0.010273952,0.22734731,481,-179,1412,1502.0,0.0,0.0,0.10216182,0.10216182,0.0,0.0,0.19479037916012681,3.4878362703381702,20.76860224012922,20.768602240129212,0.01015774235921139,0.08444963436551185,-0.016794801929470728,17.991176666369597,,0.0,,,45.54,,,0.0,0.0,20151018,8,2015-10-18T00:00:08Z,-17.0,99.99,99.99,3.75E7,0,0,0,0.0,0.0,0.0,,,,,,,,,,,,,,,,,,false,false,false,false,false,false,false,false,false,false,0,0,0,0,42,53,54,41,944,945,944,945,940,940,940,940,0.0,0.0,0.0,0.0,1706.1,1701.7,1701.7,1707.9,0.0,0.0,0.0,0.0,0,0,0,0,-45.0,,,,,,,,,,,,,,,,,,,,,,,,,,,,,,,,,,,,,NONE,0.0,0.0,0.0,,,,,17.154,17.154,17.276,1.6450671,0,3288,4.285,12.0,1.185,99,15.5,OK,9,0,0,0,0,0,65,100,0.0,0,0.0,589232.0,2.69E-43,0.0,-4.4526828E-17,67,1.3322676E-15,-1.3322747E-15,9.4E-44,False,False,0,None,0.0,1.0842022E-19,
42582548,11.067,,,0,607.1734,607.0592,0.061745778,-0.0037928596,-1.0035961,1.0055009,0.08002807,0.020431831,-0.012416058,0.08352312,484,-179,1409,1500.0,0.0,0.0,0.10783389,0.10783389,0.0,0.0,0.19204156856856525,3.4899153540980095,20.76818709799248,20.768187097992495,0.010050846934942055,0.09670952180840192,-0.023528668833453815,17.899345165991708,,0.0,,,45.57,,,0.0,0.0,20151018,8,2015-10-18T00:00:08Z,-17.0,99.99,99.99,3.75E7,0,0,0,0.0,0.0,0.0,,,,,,,,,,,,,,,,,,false,false,false,false,false,false,false,false,false,false,0,0,0,0,42,53,54,41,944,945,944,945,940,940,940,940,0.0,0.0,0.0,0.0,1706.1,1701.7,1701.7,1707.9,0.0,0.0,0.0,0.0,0,0,0,0,-45.0,,,,,,,,,,,,,,,,,,,,,,,,,,,,,,,,,,,,,NONE,0.0,0.0,0.0,,,,,17.164,17.164,17.286,1.6450671,0,3288,4.285,12.0,1.185,99,15.5,OK,9,0,0,0,0,0,65,100,0.0,0,0.0,589232.0,2.69E-43,0.0,-4.4526828E-17,67,1.3322676E-15,-1.3322747E-15,9.4E-44,False,False,0,None,0.0,1.0842022E-19,
42762085,11.114,,,0,606.99634,607.0349,0.061231375,-0.0034814598,-1.0058317,1.0076997,0.073904276,-0.05450932,0.060888622,0.11018408,484,-179,1406,1497.0,0.0,0.0,0.11771395,0.11771395,0.0,0.0,0.19109099526965978,3.489312795961742,20.76907151710542,20.76907151710543,0.01246946124292144,0.10439021668458007,-0.025229018306323393,17.902101965838327,,0.0,,,45.62,,,0.0,0.0,20151018,8,2015-10-18T00:00:08Z,-17.0,99.99,99.99,3.75E7,0,0,0,0.0,0.0,0.0,,,,,,,,,,,,,,,,,,false,false,false,false,false,false,false,false,false,false,0,0,0,0,43,54,55,43,944,944,944,945,940,940,940,940,0.0,0.0,0.0,0.0,1706.1,1701.1,1701.7,1706.7,0.0,0.0,0.0,0.0,0,0,0,0,-45.0,,,,,,,,,,,,,,,,,,,,,,,,,,,,,,,,,,,,,NONE,0.0,0.0,0.0,,,,,17.164,17.164,17.286,1.6450671,0,3288,4.285,12.0,1.185,99,15.5,OK,9,0,0,0,0,0,65,100,0.0,0,0.0,589232.0,2.69E-43,0.0,-4.4526828E-17,67,1.3322676E-15,-1.3322747E-15,9.4E-44,False,False,0,None,0.0,1.0842022E-19,
42966626,11.167,,,0,606.99634,607.0349,0.061231375,-0.0034814598,-1.0058317,1.0076997,0.073904276,-0.05450932,0.060888622,0.11018408,484,-179,1406,1497.0,0.0,0.0,0.11771395,0.11771395,0.0,0.0,0.19109099526965978,3.489312795961742,20.76907151710542,20.76907151710543,0.01246946124292144,0.10439021668458007,-0.025229018306323393,17.902101965838327,,0.0,,,45.62,,,0.0,0.0,20151018,8,2015-10-18T00:00:08Z,-17.0,99.99,99.99,3.75E7,0,0,0,0.0,0.0,0.0,,,,,,,,,,,,,,,,,,false,false,false,false,false,false,false,false,false,false,0,0,0,0,44,55,55,43,944,944,944,944,940,940,940,940,0.0,0.0,0.0,0.0,1706.7,1701.7,1701.7,1706.7,0.0,0.0,0.0,0.0,0,0,0,0,-45.0,,,,,,,,,,,,,,,,,,,,,,,,,,,,,,,,,,,,,NONE,0.0,0.0,0.0,,,,,17.164,17.164,17.286,1.6450671,0,3288,4.285,12.0,1.185,99,15.5,OK,9,0,0,0,0,0,65,100,0.0,0,0.0,589232.0,2.69E-43,0.0,-4.4526828E-17,67,1.3322676E-15,-1.3322747E-15,9.4E-44,False,False,0,None,0.0,1.0842022E-19,
43350547,11.267,,,0,607.14166,607.03516,0.06238655,-0.0025124205,-1.0027125,1.0046545,0.23387872,-0.0025852716,-0.057446726,0.24084447,484,-179,1409,1500.0,0.0,0.0,0.102391295,0.102391295,0.0,0.0,0.1913218215095512,3.4875452280882473,20.769423787330304,20.76942378733031,0.012641223290963769,0.11974961025540887,-0.02807822796640799,17.89940454307635,,0.0,,,45.65,,,0.0,0.0,20151018,8,2015-10-18T00:00:08Z,-17.0,99.99,99.99,3.75E7,0,0,0,0.0,0.0,0.0,,,,,,,,,,,,,,,,,,false,false,false,false,false,false,false,false,false,false,0,0,0,0,44,55,55,43,944,944,944,944,940,940,940,940,0.0,0.0,0.0,0.0,1706.7,1701.7,1701.7,1706.7,0.0,0.0,0.0,0.0,0,0,0,0,-45.0,,,,,,,,,,,,,,,,,,,,,,,,,,,,,,,,,,,,,NONE,0.0,0.0,0.0,,,,,17.167,17.167,17.284,1.6450671,0,3288,4.285,12.0,1.185,99,15.5,OK,9,0,0,0,0,0,65,100,0.0,0,0.0,589232.0,2.69E-43,0.0,-4.4526828E-17,67,1.3322676E-15,-1.3322747E-15,9.4E-44,False,False,0,None,0.0,1.0842022E-19,
43504232,11.307,,,0,607.0809,607.02423,0.061313197,-0.0027610771,-1.0048797,1.0067523,0.1717886,0.04869331,0.14862758,0.23231986,481,-179,1409,1499.0,0.0,0.0,0.10098282,0.10098282,0.0,0.0,0.1928383240065242,3.4890744938790985,20.76744660177711,20.767446601777124,0.017191000247495345,0.1399917519386908,-0.025777511564250774,17.99037998426106,,0.0,,,45.71,,,0.0,0.0,20151018,8,2015-10-18T00:00:08Z,-17.0,99.99,99.99,3.75E7,0,0,0,0.0,0.0,0.0,,,,,,,,,,,,,,,,,,false,false,false,false,false,false,false,false,false,false,0,0,0,0,43,55,54,42,944,945,944,945,940,940,940,940,0.0,0.0,0.0,0.0,1706.1,1701.1,1701.1,1706.1,0.0,0.0,0.0,0.0,0,0,0,0,-45.0,,,,,,,,,,,,,,,,,,,,,,,,,,,,,,,,,,,,,NONE,0.0,0.0,0.0,,,,,17.167,17.167,17.284,1.6450671,0,3288,4.285,12.0,1.185,99,15.5,OK,9,0,0,0,0,0,65,100,0.0,0,0.0,589232.0,2.69E-43,0.0,-4.4526828E-17,67,1.3322676E-15,-1.3322747E-15,9.4E-44,False,False,0,None,0.0,1.0842022E-19,
43722020,11.363,,,0,607.0809,607.02423,0.061313197,-0.0027610771,-1.0048797,1.0067523,0.1717886,0.04869331,0.14862758,0.23231986,481,-179,1409,1499.0,0.0,0.0,0.10098282,0.10098282,0.0,0.0,0.1928383240065242,3.4890744938790985,20.76744660177711,20.767446601777124,0.017191000247495345,0.1399917519386908,-0.025777511564250774,17.99037998426106,,0.0,,,45.71,,,0.0,0.0,20151018,8,2015-10-18T00:00:08Z,-17.0,99.99,99.99,3.75E7,0,0,0,0.0,0.0,0.0,,,,,,,,,,,,,,,,,,false,false,false,false,false,false,false,false,false,false,0,0,0,0,43,55,54,42,944,945,944,945,940,940,940,940,0.0,0.0,0.0,0.0,1706.1,1701.1,1701.1,1706.1,0.0,0.0,0.0,0.0,0,0,0,0,-45.0,,,,,,,,,,,,,,,,,,,,,,,,,,,,,,,,,,,,,NONE,0.0,0.0,0.0,,,,,17.167,17.167,17.284,1.6450671,0,3288,4.285,12.0,1.185,99,15.5,OK,9,0,0,0,0,0,65,100,0.0,0,0.0,589232.0,2.69E-43,0.0,-4.4526828E-17,67,1.3322676E-15,-1.3322747E-15,9.4E-44,False,False,0,None,0.0,1.0842022E-19,
44041185,11.446,,,0,607.30286,607.0109,0.06292157,-0.0035216347,-1.0019665,1.0039464,0.10602562,-0.030828439,0.029893536,0.11439165,478,-179,1406,1495.0,0.0,0.0,0.09790933,0.09790933,0.0,0.0,0.19363579462089953,3.4887305007204263,20.76808126802081,20.768081268020808,0.026099981791676864,0.1538558918295642,-0.024885976599807694,18.086489887585078,,0.0,,,45.71,,,0.0,0.0,20151018,9,2015-10-18T00:00:09Z,-17.0,99.99,99.99,3.75E7,0,0,0,0.0,0.0,0.0,,,,,,,,,,,,,,,,,,false,false,false,false,false,false,false,false,false,false,0,0,0,0,43,55,55,43,944,945,944,946,940,940,940,940,0.0,0.0,0.0,0.0,1706.1,1700.5,1701.7,1706.7,0.0,0.0,0.0,0.0,0,0,0,0,-45.0,,,,,,,,,,,,,,,,,,,,,,,,,,,,,,,,,,,,,NONE,0.0,0.0,0.0,,,,,17.166,17.166,17.284,1.6450671,0,3288,4.285,12.0,1.185,99,15.5,OK,9,0,0,0,0,0,65,100,0.0,0,0.0,589232.0,2.69E-43,0.0,-4.4526828E-17,67,1.3322676E-15,-1.3322747E-15,9.4E-44,False,False,0,None,0.0,1.0842022E-19,
44194179,11.486,,,0,607.0677,607.0169,0.06180904,-0.003090268,-1.0051005,1.0070039,0.13117363,0.0021587866,-0.0501699,0.14045711,475,-182,1406,1495.0,0.0,0.0,0.079275936,0.079275936,0.0,0.0,0.19509704584199047,3.490432563397696,20.766432711991598,20.76643271199157,0.02508832155169441,0.16569060971818927,-0.026316407948483944,18.455796931904935,,0.0,,,45.75,,,0.0,0.0,20151018,9,2015-10-18T00:00:09Z,-17.0,99.99,99.99,3.75E7,0,0,0,0.0,0.0,0.0,,,,,,,,,,,,,,,,,,false,false,false,false,false,false,false,false,false,false,0,0,0,0,42,56,55,43,944,945,944,945,940,940,940,940,0.0,0.0,0.0,0.0,1706.7,1701.1,1702.4,1707.9,0.0,0.0,0.0,0.0,0,0,0,0,-45.0,,,,,,,,,,,,,,,,,,,,,,,,,,,,,,,,,,,,,NONE,0.0,0.0,0.0,,,,,17.166,17.166,17.284,1.6450671,0,3288,4.285,12.0,1.185,99,15.5,OK,9,0,0,0,0,0,65,100,0.0,0,0.0,589232.0,2.69E-43,0.0,-4.4526828E-17,67,1.3322676E-15,-1.3322747E-15,9.4E-44,False,False,0,None,0.0,1.0842022E-19,
44502777,11.566,,,0,607.0677,607.0169,0.06180904,-0.003090268,-1.0051005,1.0070039,0.13117363,0.0021587866,-0.0501699,0.14045711,475,-182,1406,1495.0,0.0,0.0,0.079275936,0.079275936,0.0,0.0,0.19509704584199047,3.490432563397696,20.766432711991598,20.76643271199157,0.02508832155169441,0.16569060971818927,-0.026316407948483944,18.455796931904935,,0.0,,,45.75,,,0.0,0.0,20151018,9,2015-10-18T00:00:09Z,-17.0,99.99,99.99,3.75E7,0,0,0,0.0,0.0,0.0,,,,,,,,,,,,,,,,,,false,false,false,false,false,false,false,false,false,false,0,0,0,0,42,54,55,43,944,945,944,945,940,940,940,940,0.0,0.0,0.0,0.0,1706.7,1700.5,1701.7,1708.5,0.0,0.0,0.0,0.0,0,0,0,0,-45.0,,,,,,,,,,,,,,,,,,,,,,,,,,,,,,,,,,,,,NONE,0.0,0.0,0.0,,,,,17.166,17.166,17.284,1.6450671,0,3288,4.285,12.0,1.185,99,15.5,OK,9,0,0,0,0,0,65,100,0.0,0,0.0,589232.0,2.69E-43,0.0,-4.4526828E-17,67,1.3322676E-15,-1.3322747E-15,9.4E-44,False,False,0,None,0.0,1.0842022E-19,
44682085,11.613,,,0,607.0333,607.02203,0.059867732,-0.004083819,-1.0034344,1.0052271,0.12521043,-0.032677818,0.032290578,0.1333723,475,-182,1402,1491.0,0.0,0.0,0.06460536,0.06460536,0.0,0.0,0.1954999238081332,3.491536777187588,20.767533959507652,20.76753395950766,0.024195844728357715,0.17848845755271517,-0.02783981736897834,18.46212944945143,,0.0,,,45.79,,,0.0,0.0,20151018,9,2015-10-18T00:00:09Z,-17.0,99.99,99.99,3.75E7,0,0,0,0.0,0.0,0.0,,,,,,,,,,,,,,,,,,false,false,false,false,false,false,false,false,false,false,0,0,0,0,42,54,55,43,944,945,944,945,940,940,940,940,0.0,0.0,0.0,0.0,1706.7,1700.5,1701.7,1708.5,0.0,0.0,0.0,0.0,0,0,0,0,-45.0,,,,,,,,,,,,,,,,,,,,,,,,,,,,,,,,,,,,,NONE,0.0,0.0,0.0,,,,,17.169,17.169,17.289,1.619238,0,3288,4.285,12.0,1.172,99,15.5,OK,10,0,0,0,0,0,65,100,0.0,0,0.0,589232.0,2.69E-43,0.0,-4.4526828E-17,67,1.3322676E-15,-1.3322747E-15,9.4E-44,False,False,0,None,0.0,1.0842022E-19,
44886172,11.666,,,0,607.0333,607.02203,0.059867732,-0.004083819,-1.0034344,1.0052271,0.12521043,-0.032677818,0.032290578,0.1333723,475,-182,1402,1491.0,0.0,0.0,0.06460536,0.06460536,0.0,0.0,0.1954999238081332,3.491536777187588,20.767533959507652,20.76753395950766,0.024195844728357715,0.17848845755271517,-0.02783981736897834,18.46212944945143,,0.0,,,45.79,,,0.0,0.0,20151018,9,2015-10-18T00:00:09Z,-17.0,99.99,99.99,3.75E7,0,0,0,0.0,0.0,0.0,,,,,,,,,,,,,,,,,,false,false,false,false,false,false,false,false,false,false,0,0,0,0,42,54,55,43,944,945,944,945,940,940,940,940,0.0,0.0,0.0,0.0,1706.7,1700.5,1701.7,1708.5,0.0,0.0,0.0,0.0,0,0,0,0,-45.0,,,,,,,,,,,,,,,,,,,,,,,,,,,,,,,,,,,,,NONE,0.0,0.0,0.0,,,,,17.169,17.169,17.289,1.619238,0,3288,4.285,12.0,1.172,99,15.5,OK,10,0,0,0,0,0,65,100,0.0,0,0.0,589232.0,2.69E-43,0.0,-4.4526828E-17,67,1.3322676E-15,-1.3322747E-15,9.4E-44,False,False,0,None,0.0,1.0842022E-19,
45019952,11.700,,,0,607.0439,607.0198,0.06062212,-0.006687168,-1.0030845,1.004937,0.1763469,-0.08726259,0.016379194,0.19743674,481,-179,1409,1499.0,0.0,0.0,0.058954053,0.058954053,0.0,0.0,0.1999938893223288,3.493795787822922,20.76725173213148,20.767251732131456,0.026624343194012582,0.19353540586016757,-0.03382454077537975,18.003155995959435,,0.0,,,45.78,,,0.0,0.0,20151018,9,2015-10-18T00:00:09Z,-17.0,99.99,99.99,3.75E7,0,0,0,0.0,0.0,0.0,,,,,,,,,,,,,,,,,,false,false,false,false,false,false,false,false,false,false,0,0,0,0,41,56,55,42,944,945,944,944,940,940,940,940,0.0,0.0,0.0,0.0,1706.1,1699.3,1700.5,1706.1,0.0,0.0,0.0,0.0,0,0,0,0,-45.0,,,,,,,,,,,,,,,,,,,,,,,,,,,,,,,,,,,,,NONE,0.0,0.0,0.0,,,,,17.169,17.169,17.289,1.619238,0,3288,4.285,12.0,1.172,99,15.5,OK,10,0,0,0,0,0,65,100,0.0,0,0.0,589232.0,2.69E-43,0.0,-4.4526828E-17,67,1.3322676E-15,-1.3322747E-15,9.4E-44,False,False,0,None,0.0,1.0842022E-19,
45270759,11.766,,,0,607.0439,607.0198,0.06062212,-0.006687168,-1.0030845,1.004937,0.1763469,-0.08726259,0.016379194,0.19743674,481,-179,1409,1499.0,0.0,0.0,0.058954053,0.058954053,0.0,0.0,0.1999938893223288,3.493795787822922,20.76725173213148,20.767251732131456,0.026624343194012582,0.19353540586016757,-0.03382454077537975,18.003155995959435,,0.0,,,45.78,,,0.0,0.0,20151018,9,2015-10-18T00:00:09Z,-17.0,99.99,99.99,3.75E7,0,0,0,0.0,0.0,0.0,,,,,,,,,,,,,,,,,,false,false,false,false,false,false,false,false,false,false,0,0,0,0,43,55,54,43,944,944,944,945,940,940,940,940,0.0,0.0,0.0,0.0,1706.1,1699.3,1700.5,1706.1,0.0,0.0,0.0,0.0,0,0,0,0,-45.0,,,,,,,,,,,,,,,,,,,,,,,,,,,,,,,,,,,,,NONE,0.0,0.0,0.0,,,,,17.169,17.169,17.289,1.619238,0,3288,4.285,12.0,1.172,99,15.5,OK,10,0,0,0,0,0,65,100,0.0,0,0.0,589232.0,2.69E-43,0.0,-4.4526828E-17,67,1.3322676E-15,-1.3322747E-15,9.4E-44,False,False,0,None,0.0,1.0842022E-19,
45499791,11.825,,,0,607.176,607.04614,0.06198311,-0.0015606647,-1.0019175,1.0038341,0.26993352,0.010273011,0.014405429,0.27051276,481,-179,1409,1499.0,0.0,0.0,0.040809654,0.040809654,0.0,0.0,0.20386779432852212,3.494383272421517,20.769803100076142,20.76980310007616,0.02816077010344377,0.21580877365941736,-0.03766700671749751,18.011477547845946,,0.0,,,45.85,,,0.0,0.0,20151018,9,2015-10-18T00:00:09Z,-17.0,99.99,99.99,3.75E7,0,0,0,0.0,0.0,0.0,,,,,,,,,,,,,,,,,,false,false,false,false,false,false,false,false,false,false,0,0,0,0,43,55,54,43,944,944,944,945,940,940,940,940,0.0,0.0,0.0,0.0,1706.1,1699.3,1700.5,1706.1,0.0,0.0,0.0,0.0,0,0,0,0,-45.0,,,,,,,,,,,,,,,,,,,,,,,,,,,,,,,,,,,,,NONE,0.0,0.0,0.0,,,,,17.167,17.167,17.278,1.619238,0,3288,4.285,12.0,1.172,99,15.5,OK,10,0,0,0,0,0,65,100,0.0,0,0.0,589232.0,2.69E-43,0.0,-4.4526828E-17,67,1.3322676E-15,-1.3322747E-15,9.4E-44,False,False,0,None,0.0,1.0842022E-19,
45642031,11.862,,,0,607.176,607.04614,0.06198311,-0.0015606647,-1.0019175,1.0038341,0.26993352,0.010273011,0.014405429,0.27051276,481,-179,1409,1499.0,0.0,0.0,0.040809654,0.040809654,0.0,0.0,0.20386779432852212,3.494383272421517,20.769803100076142,20.76980310007616,0.02816077010344377,0.21580877365941736,-0.03766700671749751,18.011477547845946,,0.0,,,45.85,,,0.0,0.0,20151018,9,2015-10-18T00:00:09Z,-17.0,99.99,99.99,3.75E7,0,0,0,0.0,0.0,0.0,,,,,,,,,,,,,,,,,,false,false,false,false,false,false,false,false,false,false,0,0,0,0,43,55,54,43,944,944,944,945,940,940,940,940,0.0,0.0,0.0,0.0,1706.1,1699.3,1700.5,1706.1,0.0,0.0,0.0,0.0,0,0,0,0,-45.0,,,,,,,,,,,,,,,,,,,,,,,,,,,,,,,,,,,,,NONE,0.0,0.0,0.0,,,,,17.167,17.167,17.278,1.619238,0,3288,4.285,12.0,1.172,99,15.5,OK,10,0,0,0,0,0,65,100,0.0,0,0.0,589232.0,2.69E-43,0.0,-4.4526828E-17,67,1.3322676E-15,-1.3322747E-15,9.4E-44,False,False,0,None,0.0,1.0842022E-19,
46038725,11.965,,,0,607.08356,607.0392,0.06432253,-0.0030461974,-1.0027097,1.0047754,0.023213303,0.025679063,-0.021598145,0.04080137,481,-182,1409,1499.0,0.0,0.0,0.042663075,0.042663075,0.0,0.0,0.20583323223328812,3.4962941169574964,20.770049224045817,20.770049224045806,0.027801877371805877,0.23043583005388865,-0.03587311705570086,18.288781115322266,,0.0,,,45.87,,,0.0,0.0,20151018,9,2015-10-18T00:00:09Z,-17.0,99.99,99.99,3.75E7,0,0,0,0.0,0.0,0.0,,,,,,,,,,,,,,,,,,false,false,false,false,false,false,false,false,false,false,0,0,0,0,42,54,55,43,944,945,944,945,940,940,940,940,0.0,0.0,0.0,0.0,1704.8,1699.3,1700.5,1706.7,0.0,0.0,0.0,0.0,0,0,0,0,-45.0,,,,,,,,,,,,,,,,,,,,,,,,,,,,,,,,,,,,,NONE,0.0,0.0,0.0,,,,,17.167,17.167,17.278,1.619238,0,3288,4.285,12.0,1.172,99,15.5,OK,10,0,0,0,0,0,65,100,0.0,0,0.0,589232.0,2.69E-43,0.0,-4.4526828E-17,67,1.3322676E-15,-1.3322747E-15,9.4E-44,False,False,0,None,0.0,1.0842022E-19,
46422552,12.065,,,0,606.73474,607.05475,0.061968923,-0.003901409,-1.0027343,1.0046549,0.2740059,0.09083818,0.037402097,0.2910837,481,-179,1415,1505.0,0.0,0.0,0.018577991,0.018577991,0.0,0.0,0.20573671051541476,3.4937284607614942,20.77240229036176,20.772402290361754,0.028591052223611794,0.24527755516694735,-0.03005479506251823,18.00725315622634,,0.0,,,45.88,,,0.0,0.0,20151018,9,2015-10-18T00:00:09Z,-17.0,99.99,99.99,3.75E7,0,0,0,0.0,0.0,0.0,,,,,,,,,,,,,,,,,,false,false,false,false,false,false,false,false,false,false,0,0,0,0,42,54,55,43,944,945,944,945,940,940,940,940,0.0,0.0,0.0,0.0,1704.8,1699.3,1700.5,1706.7,0.0,0.0,0.0,0.0,0,0,0,0,-45.0,,,,,,,,,,,,,,,,,,,,,,,,,,,,,,,,,,,,,NONE,0.0,0.0,0.0,,,,,17.163,17.163,17.273,1.619238,0,3288,4.291,12.0,1.172,99,15.5,OK,10,0,0,0,0,0,65,100,0.0,0,0.0,589232.0,2.69E-43,0.0,-4.4526828E-17,67,1.3322676E-15,-1.3322747E-15,9.4E-44,False,False,0,None,0.0,1.0842022E-19,
46576819,12.105,,,0,607.19714,607.0677,0.060093462,-0.0039108526,-1.0033399,1.0051454,0.20495605,-0.01079231,0.24186005,0.31720614,481,-179,1409,1499.0,0.0,0.0,0.0011857506,0.0011857506,0.0,0.0,0.2073245295031147,3.4926671062472288,20.77423586499394,20.774235864993955,0.042514894758191514,0.26915830868100005,-0.026063756218564098,18.0205048384637,,0.0,,,45.9,,,0.0,0.0,20151018,9,2015-10-18T00:00:09Z,-17.0,99.99,99.99,3.75E7,0,0,0,0.0,0.0,0.0,,,,,,,,,,,,,,,,,,false,false,false,false,false,false,false,false,false,false,0,0,0,0,43,54,54,44,944,945,944,945,940,940,940,940,0.0,0.0,0.0,0.0,1706.7,1699.3,1699.9,1706.7,0.0,0.0,0.0,0.0,0,0,0,0,-45.0,,,,,,,,,,,,,,,,,,,,,,,,,,,,,,,,,,,,,NONE,0.0,0.0,0.0,,,,,17.163,17.163,17.273,1.619238,0,3288,4.291,12.0,1.172,99,15.5,OK,10,0,0,0,0,0,65,100,0.0,0,0.0,589232.0,2.69E-43,0.0,-4.4526828E-17,67,1.3322676E-15,-1.3322747E-15,9.4E-44,False,False,0,None,0.0,1.0842022E-19,
46806639,12.165,,,0,607.19714,607.0677,0.060093462,-0.0039108526,-1.0033399,1.0051454,0.20495605,-0.01079231,0.24186005,0.31720614,481,-179,1409,1499.0,0.0,0.0,0.0011857506,0.0011857506,0.0,0.0,0.2073245295031147,3.4926671062472288,20.77423586499394,20.774235864993955,0.042514894758191514,0.26915830868100005,-0.026063756218564098,18.0205048384637,,0.0,,,45.9,,,0.0,0.0,20151018,9,2015-10-18T00:00:09Z,-17.0,99.99,99.99,3.75E7,0,0,0,0.0,0.0,0.0,,,,,,,,,,,,,,,,,,false,false,false,false,false,false,false,false,false,false,0,0,0,0,42,54,53,42,944,944,944,945,940,940,940,940,0.0,0.0,0.0,0.0,1706.1,1700.5,1699.9,1706.7,0.0,0.0,0.0,0.0,0,0,0,0,-45.0,,,,,,,,,,,,,,,,,,,,,,,,,,,,,,,,,,,,,NONE,0.0,0.0,0.0,,,,,17.163,17.163,17.273,1.619238,0,3288,4.291,12.0,1.172,99,15.5,OK,10,0,0,0,0,0,65,100,0.0,0,0.0,589232.0,2.69E-43,0.0,-4.4526828E-17,67,1.3322676E-15,-1.3322747E-15,9.4E-44,False,False,0,None,0.0,1.0842022E-19,
46959644,12.205,,,0,607.1628,607.09357,0.062110387,-0.004648215,-1.0014458,1.0033808,0.2297111,-0.021745682,0.21406202,0.31474215,481,-182,1409,1499.0,0.0,0.0,-0.0084288735,0.0084288735,0.0,0.0,0.20686503054515637,3.493278991189981,20.779355245576934,20.779355245576937,0.06526875568151354,0.2908513940731866,-0.027687641136095266,18.293287029599092,,0.0,,,45.91,,,0.0,0.0,20151018,9,2015-10-18T00:00:09Z,-17.0,99.99,99.99,3.75E7,0,0,0,0.0,0.0,0.0,,,,,,,,,,,,,,,,,,false,false,false,false,false,false,false,false,false,false,0,0,0,0,42,54,53,42,944,944,944,945,940,940,940,940,0.0,0.0,0.0,0.0,1706.1,1700.5,1699.9,1706.7,0.0,0.0,0.0,0.0,0,0,0,0,-45.0,,,,,,,,,,,,,,,,,,,,,,,,,,,,,,,,,,,,,NONE,0.0,0.0,0.0,,,,,17.165,17.165,17.277,1.619238,0,3288,4.291,12.0,1.172,99,15.5,OK,10,0,0,0,0,0,65,100,0.0,0,0.0,589232.0,2.69E-43,0.0,-4.4526828E-17,67,1.3322676E-15,-1.3322747E-15,9.4E-44,False,False,0,None,0.0,1.0842022E-19,
47190639,12.265,,,0,607.1628,607.09357,0.062110387,-0.004648215,-1.0014458,1.0033808,0.2297111,-0.021745682,0.21406202,0.31474215,481,-182,1409,1499.0,0.0,0.0,-0.0084288735,0.0084288735,0.0,0.0,0.20686503054515637,3.493278991189981,20.779355245576934,20.779355245576937,0.06526875568151354,0.2908513940731866,-0.027687641136095266,18.293287029599092,,0.0,,,45.91,,,0.0,0.0,20151018,9,2015-10-18T00:00:09Z,-17.0,99.99,99.99,3.75E7,0,0,0,0.0,0.0,0.0,,,,,,,,,,,,,,,,,,false,false,false,false,false,false,false,false,false,false,0,0,0,0,42,54,53,42,944,944,944,945,940,940,940,940,0.0,0.0,0.0,0.0,1706.1,1700.5,1699.9,1706.7,0.0,0.0,0.0,0.0,0,0,0,0,-45.0,,,,,,,,,,,,,,,,,,,,,,,,,,,,,,,,,,,,,NONE,0.0,0.0,0.0,,,,,17.165,17.165,17.277,1.619238,0,3288,4.291,12.0,1.172,99,15.5,OK,10,0,0,0,0,0,65,100,0.0,0,0.0,589232.0,2.69E-43,0.0,-4.4526828E-17,67,1.3322676E-15,-1.3322747E-15,9.4E-44,False,False,0,None,0.0,1.0842022E-19,
47562024,12.361,,,0,607.1628,607.09357,0.062110387,-0.004648215,-1.0014458,1.0033808,0.2297111,-0.021745682,0.21406202,0.31474215,481,-182,1409,1499.0,0.0,0.0,-0.0084288735,0.0084288735,0.0,0.0,0.20686503054515637,3.493278991189981,20.779355245576934,20.779355245576937,0.06526875568151354,0.2908513940731866,-0.027687641136095266,18.293287029599092,,0.0,,,45.91,,,0.0,0.0,20151018,9,2015-10-18T00:00:09Z,-17.0,99.99,99.99,3.75E7,0,0,0,0.0,0.0,0.0,,,,,,,,,,,,,,,,,,false,false,false,false,false,false,false,false,false,false,0,0,0,0,42,54,53,42,944,944,944,945,940,940,940,940,0.0,0.0,0.0,0.0,1706.1,1700.5,1699.9,1706.7,0.0,0.0,0.0,0.0,0,0,0,0,-45.0,,,,,,,,,,,,,,,,,,,,,,,,,,,,,,,,,,,,,NONE,0.0,0.0,0.0,,,,,17.165,17.165,17.277,1.619238,0,3288,4.291,12.0,1.172,99,15.5,OK,10,0,0,0,0,0,65,100,0.0,0,0.0,589232.0,2.69E-43,0.0,-4.4526828E-17,67,1.3322676E-15,-1.3322747E-15,9.4E-44,False,False,0,None,0.0,1.0842022E-19,
47804461,12.424,,,0,607.26587,607.1091,0.061390392,-0.0025157412,-1.0028523,1.0047327,0.06159144,-0.15099095,0.040668625,0.1680646,481,-179,1412,1502.0,0.0,0.0,-0.023586305,0.023586305,0.0,0.0,0.20711122274912863,3.4956920666544815,20.784661360562627,20.78466136056261,0.0906913729106166,0.3199239576025637,-0.044927095291311135,18.013406691604654,,0.0,,,45.93,,,0.0,0.0,20151018,10,2015-10-18T00:00:10Z,-17.0,99.99,99.99,3.75E7,0,0,0,0.0,0.0,0.0,,,,,,,,,,,,,,,,,,false,false,false,false,false,false,false,false,false,false,0,0,0,0,42,55,53,42,944,945,944,945,940,940,940,940,0.0,0.0,0.0,0.0,1704.8,1699.3,1700.5,1706.1,0.0,0.0,0.0,0.0,0,0,0,0,-45.0,,,,,,,,,,,,,,,,,,,,,,,,,,,,,,,,,,,,,NONE,0.0,0.0,0.0,,,,,17.165,17.165,17.277,1.619238,0,3288,4.291,12.0,1.172,99,15.5,OK,10,0,0,0,0,0,65,100,0.0,0,0.0,589232.0,2.69E-43,0.0,-4.4526828E-17,67,1.3322676E-15,-1.3322747E-15,9.4E-44,False,False,0,None,0.0,1.0842022E-19,
47958598,12.464,,,0,607.26587,607.1091,0.061390392,-0.0025157412,-1.0028523,1.0047327,0.06159144,-0.15099095,0.040668625,0.1680646,481,-179,1412,1502.0,0.0,0.0,-0.023586305,0.023586305,0.0,0.0,0.20711122274912863,3.4956920666544815,20.784661360562627,20.78466136056261,0.0906913729106166,0.3199239576025637,-0.044927095291311135,18.013406691604654,,0.0,,,45.93,,,0.0,0.0,20151018,10,2015-10-18T00:00:10Z,-17.0,99.99,99.99,3.75E7,0,0,0,0.0,0.0,0.0,,,,,,,,,,,,,,,,,,false,false,false,false,false,false,false,false,false,false,0,0,0,0,42,55,53,42,944,945,944,945,940,940,940,940,0.0,0.0,0.0,0.0,1704.8,1699.3,1700.5,1706.1,0.0,0.0,0.0,0.0,0,0,0,0,-45.0,,,,,,,,,,,,,,,,,,,,,,,,,,,,,,,,,,,,,NONE,0.0,0.0,0.0,,,,,17.165,17.165,17.277,1.619238,0,3288,4.291,12.0,1.172,99,15.5,OK,10,0,0,0,0,0,65,100,0.0,0,0.0,589232.0,2.69E-43,0.0,-4.4526828E-17,67,1.3322676E-15,-1.3322747E-15,9.4E-44,False,False,0,None,0.0,1.0842022E-19,
48342399,12.564,,,0,607.26587,607.1091,0.061390392,-0.0025157412,-1.0028523,1.0047327,0.06159144,-0.15099095,0.040668625,0.1680646,481,-179,1412,1502.0,0.0,0.0,-0.023586305,0.023586305,0.0,0.0,0.20711122274912863,3.4956920666544815,20.784661360562627,20.78466136056261,0.0906913729106166,0.3199239576025637,-0.044927095291311135,18.013406691604654,,0.0,,,45.93,,,0.0,0.0,20151018,10,2015-10-18T00:00:10Z,-17.0,99.99,99.99,3.75E7,0,0,0,0.0,0.0,0.0,,,,,,,,,,,,,,,,,,false,false,false,false,false,false,false,false,false,false,0,0,0,0,43,55,54,42,944,945,944,944,940,940,940,940,0.0,0.0,0.0,0.0,1706.1,1698.7,1699.3,1704.8,0.0,0.0,0.0,0.0,0,0,0,0,-45.0,,,,,,,,,,,,,,,,,,,,,,,,,,,,,,,,,,,,,NONE,0.0,0.0,0.0,,,,,17.165,17.165,17.277,1.619238,0,3288,4.291,12.0,1.172,99,15.5,OK,10,0,0,0,0,0,65,100,0.0,0,0.0,589232.0,2.69E-43,0.0,-4.4526828E-17,67,1.3322676E-15,-1.3322747E-15,9.4E-44,False,False,0,None,0.0,1.0842022E-19,
48522079,12.611,,,0,607.26587,607.1091,0.061390392,-0.0025157412,-1.0028523,1.0047327,0.06159144,-0.15099095,0.040668625,0.1680646,481,-179,1412,1502.0,0.0,0.0,-0.023586305,0.023586305,0.0,0.0,0.20711122274912863,3.4956920666544815,20.784661360562627,20.78466136056261,0.0906913729106166,0.3199239576025637,-0.044927095291311135,18.013406691604654,,0.0,,,45.93,,,0.0,0.0,20151018,10,2015-10-18T00:00:10Z,-17.0,99.99,99.99,3.75E7,0,0,0,0.0,0.0,0.0,,,,,,,,,,,,,,,,,,false,false,false,false,false,false,false,false,false,false,0,0,0,0,43,54,55,43,944,945,944,945,940,940,940,940,0.0,0.0,0.0,0.0,1705.5,1699.3,1699.9,1706.1,0.0,0.0,0.0,0.0,0,0,0,0,-45.0,,,,,,,,,,,,,,,,,,,,,,,,,,,,,,,,,,,,,NONE,0.0,0.0,0.0,,,,,17.162,17.162,17.268,1.567949,0,3288,4.291,12.0,1.219,99,15.5,OK,11,0,0,0,0,0,65,100,0.0,0,0.0,589232.0,2.69E-43,0.0,-4.4526828E-17,67,1.3322676E-15,-1.3322747E-15,9.4E-44,False,False,0,None,0.0,1.0842022E-19,
48726726,12.664,,,0,607.26587,607.1091,0.061390392,-0.0025157412,-1.0028523,1.0047327,0.06159144,-0.15099095,0.040668625,0.1680646,481,-179,1412,1502.0,0.0,0.0,-0.023586305,0.023586305,0.0,0.0,0.20711122274912863,3.4956920666544815,20.784661360562627,20.78466136056261,0.0906913729106166,0.3199239576025637,-0.044927095291311135,18.013406691604654,,0.0,,,45.93,,,0.0,0.0,20151018,10,2015-10-18T00:00:10Z,-17.0,99.99,99.99,3.75E7,0,0,0,0.0,0.0,0.0,,,,,,,,,,,,,,,,,,false,false,false,false,false,false,false,false,false,false,0,0,0,0,43,54,55,43,944,945,944,945,940,940,940,940,0.0,0.0,0.0,0.0,1705.5,1699.3,1699.9,1706.1,0.0,0.0,0.0,0.0,0,0,0,0,-45.0,,,,,,,,,,,,,,,,,,,,,,,,,,,,,,,,,,,,,NONE,0.0,0.0,0.0,,,,,17.162,17.162,17.268,1.567949,0,3288,4.291,12.0,1.219,99,15.5,OK,11,0,0,0,0,0,65,100,0.0,0,0.0,589232.0,2.69E-43,0.0,-4.4526828E-17,67,1.3322676E-15,-1.3322747E-15,9.4E-44,False,False,0,None,0.0,1.0842022E-19,
48883763,12.705,,,0,607.26587,607.1091,0.061390392,-0.0025157412,-1.0028523,1.0047327,0.06159144,-0.15099095,0.040668625,0.1680646,481,-179,1412,1502.0,0.0,0.0,-0.023586305,0.023586305,0.0,0.0,0.20711122274912863,3.4956920666544815,20.784661360562627,20.78466136056261,0.0906913729106166,0.3199239576025637,-0.044927095291311135,18.013406691604654,,0.0,,,45.93,,,0.0,0.0,20151018,10,2015-10-18T00:00:10Z,-17.0,99.99,99.99,3.75E7,0,0,0,0.0,0.0,0.0,,,,,,,,,,,,,,,,,,false,false,false,false,false,false,false,false,false,false,0,0,0,0,43,54,55,43,944,945,944,945,940,940,940,940,0.0,0.0,0.0,0.0,1705.5,1699.3,1699.9,1706.1,0.0,0.0,0.0,0.0,0,0,0,0,-45.0,,,,,,,,,,,,,,,,,,,,,,,,,,,,,,,,,,,,,NONE,0.0,0.0,0.0,,,,,17.162,17.162,17.268,1.567949,0,3288,4.291,12.0,1.219,99,15.5,OK,11,0,0,0,0,0,65,100,0.0,0,0.0,589232.0,2.69E-43,0.0,-4.4526828E-17,67,1.3322676E-15,-1.3322747E-15,9.4E-44,False,False,0,None,0.0,1.0842022E-19,
49110785,12.764,,,0,607.26587,607.1091,0.061390392,-0.0025157412,-1.0028523,1.0047327,0.06159144,-0.15099095,0.040668625,0.1680646,481,-179,1412,1502.0,0.0,0.0,-0.023586305,0.023586305,0.0,0.0,0.20711122274912863,3.4956920666544815,20.784661360562627,20.78466136056261,0.0906913729106166,0.3199239576025637,-0.044927095291311135,18.013406691604654,,0.0,,,45.93,,,0.0,0.0,20151018,10,2015-10-18T00:00:10Z,-17.0,99.99,99.99,3.75E7,0,0,0,0.0,0.0,0.0,,,,,,,,,,,,,,,,,,false,false,false,false,false,false,false,false,false,false,0,0,0,0,43,54,55,42,944,945,944,944,940,940,940,940,0.0,0.0,0.0,0.0,1704.2,1698.7,1699.3,1706.1,0.0,0.0,0.0,0.0,0,0,0,0,-45.0,,,,,,,,,,,,,,,,,,,,,,,,,,,,,,,,,,,,,NONE,0.0,0.0,0.0,,,,,17.162,17.162,17.268,1.567949,0,3288,4.291,12.0,1.219,99,15.5,OK,11,0,0,0,0,0,65,100,0.0,0,0.0,589232.0,2.69E-43,0.0,-4.4526828E-17,67,1.3322676E-15,-1.3322747E-15,9.4E-44,False,False,0,None,0.0,1.0842022E-19,
49417538,12.843,,,0,607.26587,607.1091,0.061390392,-0.0025157412,-1.0028523,1.0047327,0.06159144,-0.15099095,0.040668625,0.1680646,481,-179,1412,1502.0,0.0,0.0,-0.023586305,0.023586305,0.0,0.0,0.20711122274912863,3.4956920666544815,20.784661360562627,20.78466136056261,0.0906913729106166,0.3199239576025637,-0.044927095291311135,18.013406691604654,,0.0,,,45.93,,,0.0,0.0,20151018,10,2015-10-18T00:00:10Z,-17.0,99.99,99.99,3.75E7,0,0,0,0.0,0.0,0.0,,,,,,,,,,,,,,,,,,false,false,false,false,false,false,false,false,false,false,0,0,0,0,43,54,55,42,944,945,944,944,940,940,940,940,0.0,0.0,0.0,0.0,1704.2,1698.7,1699.3,1706.1,0.0,0.0,0.0,0.0,0,0,0,0,-45.0,,,,,,,,,,,,,,,,,,,,,,,,,,,,,,,,,,,,,NONE,0.0,0.0,0.0,,,,,17.154,17.154,17.262,1.567949,0,3288,4.291,12.0,1.219,99,15.5,OK,11,0,0,0,0,0,65,100,0.0,0,0.0,589232.0,2.69E-43,0.0,-4.4526828E-17,67,1.3322676E-15,-1.3322747E-15,9.4E-44,False,False,0,None,0.0,1.0842022E-19,
49570286,12.883,,,0,606.8272,607.11926,0.061534204,-0.003268851,-1.0017898,1.0036832,0.021471903,0.09350646,0.15310302,0.18067938,484,-179,1409,1500.0,0.0,0.0,-0.026006626,0.026006626,0.0,0.0,0.20513078977720853,3.4904253163589978,20.789014911566305,20.789014911566312,0.1390353261148329,0.34064737301344145,-0.05926885957158774,17.928400545910442,,0.0,,,46.11,,,0.0,0.0,20151018,10,2015-10-18T00:00:10Z,-17.0,99.99,99.99,3.75E7,0,0,0,0.0,0.0,0.0,,,,,,,,,,,,,,,,,,false,false,false,false,false,false,false,false,false,false,0,0,0,0,43,54,55,42,944,945,944,944,940,940,940,940,0.0,0.0,0.0,0.0,1704.2,1698.7,1699.3,1706.1,0.0,0.0,0.0,0.0,0,0,0,0,-45.0,,,,,,,,,,,,,,,,,,,,,,,,,,,,,,,,,,,,,NONE,0.0,0.0,0.0,,,,,17.154,17.154,17.262,1.567949,0,3288,4.291,12.0,1.219,99,15.5,OK,11,0,0,0,0,0,65,100,0.0,0,0.0,589232.0,2.69E-43,0.0,-4.4526828E-17,67,1.3322676E-15,-1.3322747E-15,9.4E-44,False,False,0,None,0.0,1.0842022E-19,
49878496,12.963,,,0,606.8272,607.11926,0.061534204,-0.003268851,-1.0017898,1.0036832,0.021471903,0.09350646,0.15310302,0.18067938,484,-179,1409,1500.0,0.0,0.0,-0.026006626,0.026006626,0.0,0.0,0.20513078977720853,3.4904253163589978,20.789014911566305,20.789014911566312,0.1390353261148329,0.34064737301344145,-0.05926885957158774,17.928400545910442,,0.0,,,46.11,,,0.0,0.0,20151018,10,2015-10-18T00:00:10Z,-17.0,99.99,99.99,3.75E7,0,0,0,0.0,0.0,0.0,,,,,,,,,,,,,,,,,,false,false,false,false,false,false,false,false,false,false,0,0,0,0,43,54,55,42,944,945,944,944,940,940,940,940,0.0,0.0,0.0,0.0,1704.2,1698.7,1699.3,1706.1,0.0,0.0,0.0,0.0,0,0,0,0,-45.0,,,,,,,,,,,,,,,,,,,,,,,,,,,,,,,,,,,,,NONE,0.0,0.0,0.0,,,,,17.154,17.154,17.262,1.567949,0,3288,4.291,12.0,1.219,99,15.5,OK,11,0,0,0,0,0,65,100,0.0,0,0.0,589232.0,2.69E-43,0.0,-4.4526828E-17,67,1.3322676E-15,-1.3322747E-15,9.4E-44,False,False,0,None,0.0,1.0842022E-19,
50262641,13.063,,,0,606.8484,607.12964,0.061269537,-0.0042831316,-1.0026882,1.0045675,0.07257421,0.092145845,0.03226251,0.121650085,481,-179,1412,1502.0,0.0,0.0,-0.03310243,0.03310243,0.0,0.0,0.20260679494808315,3.489383589060518,20.789362423627498,20.789362423627495,0.14828601838846792,0.3453407574172059,-0.050003855115756723,18.007743860755127,,0.0,,,46.08,,,0.0,0.0,20151018,10,2015-10-18T00:00:10Z,-17.0,99.99,99.99,3.75E7,0,0,0,0.0,0.0,0.0,,,,,,,,,,,,,,,,,,false,false,false,false,false,false,false,false,false,false,0,0,0,0,43,55,55,42,944,944,944,945,940,940,940,940,0.0,0.0,0.0,0.0,1706.1,1699.3,1699.9,1706.7,0.0,0.0,0.0,0.0,0,0,0,0,-45.0,,,,,,,,,,,,,,,,,,,,,,,,,,,,,,,,,,,,,NONE,0.0,0.0,0.0,,,,,17.153,17.153,17.266,1.567949,0,3288,4.29,12.0,1.219,99,15.5,OK,11,0,0,0,0,0,65,100,0.0,0,0.0,589232.0,2.69E-43,0.0,-4.4526828E-17,67,1.3322676E-15,-1.3322747E-15,9.4E-44,False,False,0,None,0.0,1.0842022E-19,
50442083,13.110,,,0,607.0677,607.11523,0.063474685,-0.0022812416,-1.0024843,1.0044944,0.18642403,-0.044828203,0.047005594,0.19741583,481,-179,1412,1502.0,0.0,0.0,-0.022571146,0.022571146,0.0,0.0,0.20174086635304775,3.490848117277544,20.78874125323209,20.788741253232104,0.15224110067892474,0.35826347542367887,-0.04764294122778452,18.00473671607123,,0.0,,,46.11,,,0.0,0.0,20151018,10,2015-10-18T00:00:10Z,-17.0,99.99,99.99,3.75E7,0,0,0,0.0,0.0,0.0,,,,,,,,,,,,,,,,,,false,false,false,false,false,false,false,false,false,false,0,0,0,0,43,55,55,42,944,944,944,945,940,940,940,940,0.0,0.0,0.0,0.0,1706.1,1699.3,1699.9,1706.7,0.0,0.0,0.0,0.0,0,0,0,0,-45.0,,,,,,,,,,,,,,,,,,,,,,,,,,,,,,,,,,,,,NONE,0.0,0.0,0.0,,,,,17.153,17.153,17.266,1.567949,0,3288,4.29,12.0,1.219,99,15.5,OK,11,0,0,0,0,0,65,100,0.0,0,0.0,589232.0,2.69E-43,0.0,-4.4526828E-17,67,1.3322676E-15,-1.3322747E-15,9.4E-44,False,False,0,None,0.0,1.0842022E-19,
50646841,13.163,,,0,607.0677,607.11523,0.063474685,-0.0022812416,-1.0024843,1.0044944,0.18642403,-0.044828203,0.047005594,0.19741583,481,-179,1412,1502.0,0.0,0.0,-0.022571146,0.022571146,0.0,0.0,0.20174086635304775,3.490848117277544,20.78874125323209,20.788741253232104,0.15224110067892474,0.35826347542367887,-0.04764294122778452,18.00473671607123,,0.0,,,46.11,,,0.0,0.0,20151018,10,2015-10-18T00:00:10Z,-17.0,99.99,99.99,3.75E7,0,0,0,0.0,0.0,0.0,,,,,,,,,,,,,,,,,,false,false,false,false,false,false,false,false,false,false,0,0,0,0,44,54,54,43,944,944,944,945,940,940,940,940,0.0,0.0,0.0,0.0,1704.8,1699.9,1699.9,1706.1,0.0,0.0,0.0,0.0,0,0,0,0,-45.0,,,,,,,,,,,,,,,,,,,,,,,,,,,,,,,,,,,,,NONE,0.0,0.0,0.0,,,,,17.153,17.153,17.266,1.567949,0,3288,4.29,12.0,1.219,99,15.5,OK,11,0,0,0,0,0,65,100,0.0,0,0.0,589232.0,2.69E-43,0.0,-4.4526828E-17,67,1.3322676E-15,-1.3322747E-15,9.4E-44,False,False,0,None,0.0,1.0842022E-19,
50876496,13.223,,,0,606.98315,607.115,0.0626408,-0.001987785,-1.0029953,1.0049514,0.033420186,-0.12629493,0.055734545,0.142034,484,-179,1409,1500.0,0.0,0.0,-0.021677613,0.021677613,0.0,0.0,0.20302466640645292,3.490783005234801,20.787930759317554,20.787930759317533,0.1573713520867773,0.3692412309853183,-0.0561878458769229,17.923414614515572,,0.0,,,46.17,,,0.0,0.0,20151018,10,2015-10-18T00:00:10Z,-17.0,99.99,99.99,3.75E7,0,0,0,0.0,0.0,0.0,,,,,,,,,,,,,,,,,,false,false,false,false,false,false,false,false,false,false,0,0,0,0,44,54,54,43,944,944,944,945,940,940,940,940,0.0,0.0,0.0,0.0,1704.8,1699.9,1699.9,1706.1,0.0,0.0,0.0,0.0,0,0,0,0,-45.0,,,,,,,,,,,,,,,,,,,,,,,,,,,,,,,,,,,,,NONE,0.0,0.0,0.0,,,,,17.155,17.155,17.272,1.567949,0,3288,4.29,12.0,1.219,99,15.5,OK,11,0,0,0,0,0,65,100,0.0,0,0.0,589232.0,2.69E-43,0.0,-4.4526828E-17,67,1.3322676E-15,-1.3322747E-15,9.4E-44,False,False,0,None,0.0,1.0842022E-19,
51030675,13.263,,,0,606.98315,607.115,0.0626408,-0.001987785,-1.0029953,1.0049514,0.033420186,-0.12629493,0.055734545,0.142034,484,-179,1409,1500.0,0.0,0.0,-0.021677613,0.021677613,0.0,0.0,0.20302466640645292,3.490783005234801,20.787930759317554,20.787930759317533,0.1573713520867773,0.3692412309853183,-0.0561878458769229,17.923414614515572,,0.0,,,46.17,,,0.0,0.0,20151018,10,2015-10-18T00:00:10Z,-17.0,99.99,99.99,3.75E7,0,0,0,0.0,0.0,0.0,,,,,,,,,,,,,,,,,,false,false,false,false,false,false,false,false,false,false,0,0,0,0,44,54,55,44,944,945,944,945,940,940,940,940,0.0,0.0,0.0,0.0,1706.1,1699.3,1700.5,1705.5,0.0,0.0,0.0,0.0,0,0,0,0,-45.0,,,,,,,,,,,,,,,,,,,,,,,,,,,,,,,,,,,,,NONE,0.0,0.0,0.0,,,,,17.155,17.155,17.272,1.567949,0,3288,4.29,12.0,1.219,99,15.5,OK,11,0,0,0,0,0,65,100,0.0,0,0.0,589232.0,2.69E-43,0.0,-4.4526828E-17,67,1.3322676E-15,-1.3322747E-15,9.4E-44,False,False,0,None,0.0,1.0842022E-19,
51402018,13.359,,,0,606.98315,607.115,0.0626408,-0.001987785,-1.0029953,1.0049514,0.033420186,-0.12629493,0.055734545,0.142034,484,-179,1409,1500.0,0.0,0.0,-0.021677613,0.021677613,0.0,0.0,0.20302466640645292,3.490783005234801,20.787930759317554,20.787930759317533,0.1573713520867773,0.3692412309853183,-0.0561878458769229,17.923414614515572,,0.0,,,46.17,,,0.0,0.0,20151018,10,2015-10-18T00:00:10Z,-17.0,99.99,99.99,3.75E7,0,0,0,0.0,0.0,0.0,,,,,,,,,,,,,,,,,,false,false,false,false,false,false,false,false,false,false,0,0,0,0,44,54,55,44,944,945,944,945,940,940,940,940,0.0,0.0,0.0,0.0,1706.1,1699.3,1700.5,1705.5,0.0,0.0,0.0,0.0,0,0,0,0,-45.0,,,,,,,,,,,,,,,,,,,,,,,,,,,,,,,,,,,,,NONE,0.0,0.0,0.0,,,,,17.155,17.155,17.272,1.567949,0,3288,4.29,12.0,1.219,99,15.5,OK,11,0,0,0,0,0,65,100,0.0,0,0.0,589232.0,2.69E-43,0.0,-4.4526828E-17,67,1.3322676E-15,-1.3322747E-15,9.4E-44,False,False,0,None,0.0,1.0842022E-19,
51798607,13.462,,,0,607.0466,607.1117,0.06049569,-0.0041862987,-1.0024464,1.0042789,0.30437845,-0.060548026,0.002951769,0.31035626,487,-179,1409,1501.0,0.0,0.0,-0.018896937,0.018896937,0.0,0.0,0.2038255480593453,3.4889729199245987,20.789780382300815,20.78978038230082,0.16322651552605819,0.40294357286331606,-0.07482926252973052,17.838583064535452,,0.0,,,46.22,,,0.0,0.0,20151018,11,2015-10-18T00:00:11Z,-17.0,99.99,99.99,3.75E7,0,0,0,0.0,0.0,0.0,,,,,,,,,,,,,,,,,,false,false,false,false,false,false,false,false,false,false,0,0,0,0,43,55,55,43,944,946,944,945,940,940,940,940,0.0,0.0,0.0,0.0,1704.8,1699.3,1699.9,1705.5,0.0,0.0,0.0,0.0,0,0,0,0,-45.0,,,,,,,,,,,,,,,,,,,,,,,,,,,,,,,,,,,,,NONE,0.0,0.0,0.0,,,,,17.155,17.155,17.272,1.567949,0,3288,4.29,12.0,1.219,99,15.5,OK,11,0,0,0,0,0,65,100,0.0,0,0.0,589232.0,2.69E-43,0.0,-4.4526828E-17,67,1.3322676E-15,-1.3322747E-15,9.4E-44,False,False,0,None,0.0,1.0842022E-19,
52182772,13.562,,,0,607.0466,607.1117,0.06049569,-0.0041862987,-1.0024464,1.0042789,0.30437845,-0.060548026,0.002951769,0.31035626,487,-179,1409,1501.0,0.0,0.0,-0.018896937,0.018896937,0.0,0.0,0.2038255480593453,3.4889729199245987,20.789780382300815,20.78978038230082,0.16322651552605819,0.40294357286331606,-0.07482926252973052,17.838583064535452,,0.0,,,46.22,,,0.0,0.0,20151018,11,2015-10-18T00:00:11Z,-17.0,99.99,99.99,3.75E7,0,0,0,0.0,0.0,0.0,,,,,,,,,,,,,,,,,,false,false,false,false,false,false,false,false,false,false,0,0,0,0,43,55,55,43,944,946,945,944,940,940,940,940,0.0,0.0,0.0,0.0,1704.2,1698.7,1699.9,1704.8,0.0,0.0,0.0,0.0,0,0,0,0,-45.0,,,,,,,,,,,,,,,,,,,,,,,,,,,,,,,,,,,,,NONE,0.0,0.0,0.0,,,,,17.155,17.155,17.272,1.567949,0,3288,4.29,12.0,1.219,99,15.5,OK,11,0,0,0,0,0,65,100,0.0,0,0.0,589232.0,2.69E-43,0.0,-4.4526828E-17,67,1.3322676E-15,-1.3322747E-15,9.4E-44,False,False,0,None,0.0,1.0842022E-19,
52566670,13.662,,,0,607.0466,607.1117,0.06049569,-0.0041862987,-1.0024464,1.0042789,0.30437845,-0.060548026,0.002951769,0.31035626,487,-179,1409,1501.0,0.0,0.0,-0.018896937,0.018896937,0.0,0.0,0.2038255480593453,3.4889729199245987,20.789780382300815,20.78978038230082,0.16322651552605819,0.40294357286331606,-0.07482926252973052,17.838583064535452,,0.0,,,46.22,,,0.0,0.0,20151018,11,2015-10-18T00:00:11Z,-17.0,99.99,99.99,3.75E7,0,0,0,0.0,0.0,0.0,,,,,,,,,,,,,,,,,,false,false,false,false,false,false,false,false,false,false,0,0,0,0,43,55,55,43,944,946,945,944,940,940,940,940,0.0,0.0,0.0,0.0,1704.2,1698.7,1699.9,1704.8,0.0,0.0,0.0,0.0,0,0,0,0,-45.0,,,,,,,,,,,,,,,,,,,,,,,,,,,,,,,,,,,,,NONE,0.0,0.0,0.0,,,,,17.151,17.151,17.266,1.5071027,0,3287,4.29,12.0,1.27,99,15.5,OK,12,0,0,0,0,0,65,100,0.0,0,0.0,589232.0,2.69E-43,0.0,-4.4526828E-17,67,1.3322676E-15,-1.3322747E-15,9.4E-44,False,False,0,None,0.0,1.0842022E-19,
52950776,13.762,,,0,607.3557,607.0869,0.06072951,-0.003362976,-1.0018859,1.0037304,0.13168493,-0.08258102,-0.064660065,0.16834925,484,-179,1412,1503.0,0.0,0.0,-0.011498238,0.011498238,0.0,0.0,0.2106582770780406,3.4941070727115076,20.797245031739358,20.79724503173935,0.15398916331161516,0.46821957589751295,-0.09625480018944119,17.93382108855564,,0.0,,,46.28,,,0.0,0.0,20151018,11,2015-10-18T00:00:11Z,-17.0,99.99,99.99,3.75E7,0,0,0,0.0,0.0,0.0,,,,,,,,,,,,,,,,,,false,false,false,false,false,false,false,false,false,false,0,0,0,0,42,55,55,43,944,945,944,945,940,940,940,940,0.0,0.0,0.0,0.0,1706.1,1699.3,1699.9,1706.1,0.0,0.0,0.0,0.0,0,0,0,0,-45.0,,,,,,,,,,,,,,,,,,,,,,,,,,,,,,,,,,,,,NONE,0.0,0.0,0.0,,,,,17.151,17.151,17.266,1.5071027,0,3287,4.29,12.0,1.27,99,15.5,OK,12,0,0,0,0,0,65,100,0.0,0,0.0,589232.0,2.69E-43,0.0,-4.4526828E-17,67,1.3322676E-15,-1.3322747E-15,9.4E-44,False,False,0,None,0.0,1.0842022E-19,
53257607,13.841,,,0,607.2711,607.0758,0.061196983,-0.004116117,-1.0018473,1.003723,0.008999761,0.1648496,0.19367915,0.2544956,484,-182,1409,1500.0,0.0,0.0,-0.004809294,0.004809294,0.0,0.0,0.21105763344325568,3.4930055437930965,20.79661498619362,20.796614986193617,0.16042774427454806,0.4752403187342828,-0.09214926119753064,18.212953212117913,,0.0,,,46.39,,,0.0,0.0,20151018,11,2015-10-18T00:00:11Z,-17.0,99.99,99.99,3.75E7,0,0,0,0.0,0.0,0.0,,,,,,,,,,,,,,,,,,false,false,false,false,false,false,false,false,false,false,0,0,0,0,42,55,55,43,944,945,944,945,940,940,940,940,0.0,0.0,0.0,0.0,1706.1,1699.3,1699.9,1706.1,0.0,0.0,0.0,0.0,0,0,0,0,-45.0,,,,,,,,,,,,,,,,,,,,,,,,,,,,,,,,,,,,,NONE,0.0,0.0,0.0,,,,,17.151,17.151,17.266,1.5071027,0,3287,4.29,12.0,1.27,99,15.5,OK,12,0,0,0,0,0,65,100,0.0,0,0.0,589232.0,2.69E-43,0.0,-4.4526828E-17,67,1.3322676E-15,-1.3322747E-15,9.4E-44,False,False,0,None,0.0,1.0842022E-19,
53410289,13.881,,,0,607.176,607.07074,0.060016528,-0.002271792,-1.0035088,1.0053045,0.10338838,0.16789655,0.04596299,0.20246236,484,-179,1406,1497.0,0.0,0.0,-0.009526275,0.009526275,0.0,0.0,0.21254182253415171,3.494939405129019,20.796773654752865,20.796773654752883,0.1723851566557781,0.48084814399742043,-0.07554624280828293,17.946235054035068,,0.0,,,46.41,,,0.0,0.0,20151018,11,2015-10-18T00:00:11Z,-17.0,99.99,99.99,3.75E7,0,0,0,0.0,0.0,0.0,,,,,,,,,,,,,,,,,,false,false,false,false,false,false,false,false,false,false,0,0,0,0,42,55,55,43,944,945,944,945,940,940,940,940,0.0,0.0,0.0,0.0,1706.1,1699.3,1699.9,1706.1,0.0,0.0,0.0,0.0,0,0,0,0,-45.0,,,,,,,,,,,,,,,,,,,,,,,,,,,,,,,,,,,,,NONE,0.0,0.0,0.0,,,,,17.151,17.151,17.266,1.5071027,0,3287,4.29,12.0,1.27,99,15.5,OK,12,0,0,0,0,0,65,100,0.0,0,0.0,589232.0,2.69E-43,0.0,-4.4526828E-17,67,1.3322676E-15,-1.3322747E-15,9.4E-44,False,False,0,None,0.0,1.0842022E-19,
53581335,13.926,,,0,607.176,607.07074,0.060016528,-0.002271792,-1.0035088,1.0053045,0.10338838,0.16789655,0.04596299,0.20246236,484,-179,1406,1497.0,0.0,0.0,-0.009526275,0.009526275,0.0,0.0,0.21254182253415171,3.494939405129019,20.796773654752865,20.796773654752883,0.1723851566557781,0.48084814399742043,-0.07554624280828293,17.946235054035068,,0.0,,,46.41,,,0.0,0.0,20151018,11,2015-10-18T00:00:11Z,-17.0,99.99,99.99,3.75E7,0,0,0,0.0,0.0,0.0,,,,,,,,,,,,,,,,,,false,false,false,false,false,false,false,false,false,false,0,0,0,0,42,55,55,43,944,945,944,945,940,940,940,940,0.0,0.0,0.0,0.0,1706.1,1699.3,1699.9,1706.1,0.0,0.0,0.0,0.0,0,0,0,0,-45.0,,,,,,,,,,,,,,,,,,,,,,,,,,,,,,,,,,,,,NONE,0.0,0.0,0.0,,,,,17.151,17.151,17.266,1.5071027,0,3287,4.29,12.0,1.27,99,15.5,OK,12,0,0,0,0,0,65,100,0.0,0,0.0,589232.0,2.69E-43,0.0,-4.4526828E-17,67,1.3322676E-15,-1.3322747E-15,9.4E-44,False,False,0,None,0.0,1.0842022E-19,
53718831,13.961,,,0,607.176,607.07074,0.060016528,-0.002271792,-1.0035088,1.0053045,0.10338838,0.16789655,0.04596299,0.20246236,484,-179,1406,1497.0,0.0,0.0,-0.009526275,0.009526275,0.0,0.0,0.21254182253415171,3.494939405129019,20.796773654752865,20.796773654752883,0.1723851566557781,0.48084814399742043,-0.07554624280828293,17.946235054035068,,0.0,,,46.41,,,0.0,0.0,20151018,11,2015-10-18T00:00:11Z,-17.0,99.99,99.99,3.75E7,0,0,0,0.0,0.0,0.0,,,,,,,,,,,,,,,,,,false,false,false,false,false,false,false,false,false,false,0,0,0,0,43,55,53,42,944,945,944,944,940,940,940,940,0.0,0.0,0.0,0.0,1704.8,1698.1,1699.3,1706.7,0.0,0.0,0.0,0.0,0,0,0,0,-45.0,,,,,,,,,,,,,,,,,,,,,,,,,,,,,,,,,,,,,NONE,0.0,0.0,0.0,,,,,17.151,17.151,17.266,1.5071027,0,3287,4.29,12.0,1.27,99,15.5,OK,12,0,0,0,0,0,65,100,0.0,0,0.0,589232.0,2.69E-43,0.0,-4.4526828E-17,67,1.3322676E-15,-1.3322747E-15,9.4E-44,False,False,0,None,0.0,1.0842022E-19,
54102704,14.061,,,0,607.176,607.07074,0.060016528,-0.002271792,-1.0035088,1.0053045,0.10338838,0.16789655,0.04596299,0.20246236,484,-179,1406,1497.0,0.0,0.0,-0.009526275,0.009526275,0.0,0.0,0.21254182253415171,3.494939405129019,20.796773654752865,20.796773654752883,0.1723851566557781,0.48084814399742043,-0.07554624280828293,17.946235054035068,,0.0,,,46.41,,,0.0,0.0,20151018,11,2015-10-18T00:00:11Z,-17.0,99.99,99.99,3.75E7,0,0,0,0.0,0.0,0.0,,,,,,,,,,,,,,,,,,false,false,false,false,false,false,false,false,false,false,0,0,0,0,43,55,53,42,944,945,944,944,940,940,940,940,0.0,0.0,0.0,0.0,1704.8,1698.1,1699.3,1706.7,0.0,0.0,0.0,0.0,0,0,0,0,-45.0,,,,,,,,,,,,,,,,,,,,,,,,,,,,,,,,,,,,,NONE,0.0,0.0,0.0,,,,,17.149,17.149,17.26,1.5071027,0,3287,4.287,12.0,1.27,99,15.5,OK,12,0,0,0,0,0,65,100,0.0,0,0.0,589232.0,2.69E-43,0.0,-4.4526828E-17,67,1.3322676E-15,-1.3322747E-15,9.4E-44,False,False,0,None,0.0,1.0842022E-19,
54282083,14.108,,,0,607.0043,607.0728,0.060979247,-0.0024662856,-1.0033065,1.0051609,0.27495968,-0.0028581691,-0.17558506,0.32625315,487,-179,1409,1501.0,0.007413028,0.0094342055,-0.013576424,0.018118402,0.011998216863797576,-0.011998216863797576,0.21451789173538754,3.4915060716676725,20.796136193828435,20.79613619382843,0.15944767659354342,0.5186107743195699,-0.05907388688395289,17.860725054741938,,0.0,,,46.48,,,0.0,0.0,20151018,11,2015-10-18T00:00:11Z,-17.0,99.99,99.99,3.75E7,0,0,0,0.0,0.0,0.0,,,,,,,,,,,,,,,,,,false,false,false,false,false,false,false,false,false,false,0,0,0,0,44,55,55,43,944,946,944,944,940,940,940,940,0.0,0.0,0.0,0.0,1704.8,1699.3,1699.3,1704.8,0.0,0.0,0.0,0.0,0,0,0,0,-45.0,,,,,,,,,,,,,,,,,,,,,,,,,,,,,,,,,,,,,NONE,0.0,0.0,0.0,,,,,17.149,17.149,17.26,1.5071027,0,3287,4.287,12.0,1.27,99,15.5,OK,12,0,0,0,0,0,65,100,0.0,0,0.0,589232.0,2.69E-43,0.0,-4.4526828E-17,67,1.3322676E-15,-1.3322747E-15,9.4E-44,False,False,0,None,0.0,1.0842022E-19,
54486707,14.161,,,0,607.0043,607.0728,0.060979247,-0.0024662856,-1.0033065,1.0051609,0.27495968,-0.0028581691,-0.17558506,0.32625315,487,-179,1409,1501.0,0.007413028,0.0094342055,-0.013576424,0.018118402,0.011998216863797576,-0.011998216863797576,0.21451789173538754,3.4915060716676725,20.796136193828435,20.79613619382843,0.15944767659354342,0.5186107743195699,-0.05907388688395289,17.860725054741938,,0.0,,,46.48,,,0.0,0.0,20151018,11,2015-10-18T00:00:11Z,-17.0,99.99,99.99,3.75E7,0,0,0,0.0,0.0,0.0,,,,,,,,,,,,,,,,,,false,false,false,false,false,false,false,false,false,false,0,0,0,0,43,54,55,43,944,945,944,945,940,940,940,940,0.0,0.0,0.0,0.0,1704.8,1698.7,1699.3,1704.8,0.0,0.0,0.0,0.0,0,0,0,0,-45.0,,,,,,,,,,,,,,,,,,,,,,,,,,,,,,,,,,,,,NONE,0.0,0.0,0.0,,,,,17.149,17.149,17.26,1.5071027,0,3287,4.287,12.0,1.27,99,15.5,OK,12,0,0,0,0,0,65,100,0.0,0,0.0,589232.0,2.69E-43,0.0,-4.4526828E-17,67,1.3322676E-15,-1.3322747E-15,9.4E-44,False,False,0,None,0.0,1.0842022E-19,
