Tick#,offsetTime,IMU_ATTI(0):Longitude,IMU_ATTI(0):Latitude,IMU_ATTI(0):numSats,IMU_ATTI(0):barometer:Raw,IMU_ATTI(0):barometer:Smooth,IMU_ATTI(0):accel:X,IMU_ATTI(0):accel:Y,IMU_ATTI(0):accel:Z,IMU_ATTI(0):accel:Composite,IMU_ATTI(0):gyro:X,IMU_ATTI(0):gyro:Y,IMU_ATTI(0):gyro:Z,IMU_ATTI(0):gyro:Composite,IMU_ATTI(0):mag:X,IMU_ATTI(0):mag:Y,IMU_ATTI(0):mag:Z,IMU_ATTI(0):mag:Mod,IMU_ATTI(0):velN,IMU_ATTI(0):velE,IMU_ATTI(0):velD,IMU_ATTI(0):velComposite,IMU_ATTI(0):velH,IMU_ATTI(0):GPS-H,IMU_ATTI(0):roll,IMU_ATTI(0):pitch,IMU_ATTI(0):yaw,IMU_ATTI(0):yaw360,IMU_ATTI(0):totalGyro:Z,IMU_ATTI(0):totalGyro:X,IMU_ATTI(0):totalGyro:Y,IMU_ATTI(0):magYaw,IMU_ATTI(0):distanceHP,IMU_ATTI(0):distanceTravelled,IMU_ATTI(0):directionOfTravel[mag],IMU_ATTI(0):directionOfTravel[true],IMU_ATTI(0):temperature,General:relativeHeight,General:absoluteHeight,GPS(0):Long,GPS(0):Lat,GPS(0):Date,GPS(0):Time,GPS:dateTimeStamp,GPS(0):heightMSL,GPS(0):hDOP,GPS(0):pDOP,GPS(0):sAcc,GPS(0):numGPS,GPS(0):numGLNAS,GPS(0):numSV,GPS(0):velN,GPS(0):velE,GPS(0):velD,HP:Longitude,HP:Latitude,HP:rthHeight,OA:avoidObst,OA:emergBrake,OA:radiusLimit,OA:airportLimit,OA:groundForceLanding,OA:horizNearBoundary,OA:vertLowLimit,OA:vertAirportLimit,OA:roofLimit,OA:hitGroundLimit,Motor:Speed:RFront,Motor:Speed:LFront,Motor:Speed:LBack,Motor:Speed:RBack,Motor:EscTemp:RFront,Motor:EscTemp:LFront,Motor:EscTemp:LBack,Motor:EscTemp:RBack,Motor:PPMrecv:RFront,Motor:PPMrecv:LFront,Motor:PPMrecv:LBack,Motor:PPMrecv:RBack,Motor:PPMsend:RFront,Motor:PPMsend:LFront,Motor:PPMsend:LBack,Motor:PPMsend:RBack,Motor:V_out:RFront,Motor:V_out:LFront,Motor:V_out:LBack,Motor:V_out:RBack,Motor:Volts:RFront,Motor:Volts:LFront,Motor:Volts:LBack,Motor:Volts:RBack,Motor:Current:RFront,Motor:Current:LFront,Motor:Current:LBack,Motor:Current:RBack,Motor:Status:RFront,Motor:Status:LFront,Motor:Status:LBack,Motor:Status:RBack,Motor:thrustAngle,IMU_ATTI(1):Longitude,IMU_ATTI(1):Latitude,IMU_ATTI(1):numSats,IMU_ATTI(1):barometer:Raw,IMU_ATTI(1):barometer:Smooth,IMU_ATTI(1):accel:X,IMU_ATTI(1):accel:Y,IMU_ATTI(1):accel:Z,IMU_ATTI(1):accel:Composite,IMU_ATTI(1):gyro:X,IMU_ATTI(1):gyro:Y,IMU_ATTI(1):gyro:Z,IMU_ATTI(1):gyro:Composite,IMU_ATTI(1):mag:X,IMU_ATTI(1):mag:Y,IMU_ATTI(1):mag:Z,IMU_ATTI(1):mag:Mod,IMU_ATTI(1):velN,IMU_ATTI(1):velE,IMU_ATTI(1):velD,IMU_ATTI(1):velComposite,IMU_ATTI(1):velH,IMU_ATTI(1):GPS-H,IMU_ATTI(1):roll,IMU_ATTI(1):pitch,IMU_ATTI(1):yaw,IMU_ATTI(1):yaw360,IMU_ATTI(1):totalGyro:Z,IMU_ATTI(1):totalGyro:X,IMU_ATTI(1):totalGyro:Y,IMU_ATTI(1):magYaw,IMU_ATTI(1):distanceHP,IMU_ATTI(1):distanceTravelled,IMU_ATTI(1):directionOfTravel[mag],IMU_ATTI(1):directionOfTravel[true],IMU_ATTI(1):temperature,IMUEX(0):err,IMUEX(0):rtk_Longitude,IMUEX(0):rtk_Latitude,IMUEX(0):rtk_Alti,IMUEX(1):err,IMUEX(1):rtk_Longitude,IMUEX(1):rtk_Latitude,IMUEX(1):rtk_Alti,BattInfo:Voltage,BattInfo:BatVoltage,BattInfo:AdVoltage,BattInfo:AvgCurrent,BattInfo:R_time,BattInfo:R_CAP_MAH,BattInfo:LowCellVoltage,BattInfo:LowCellVolThreshold,BattInfo:BatCurrent,BattInfo:Remaining%,BattInfo:Temp,BattInfo:status,battery_info:BatDynCnt,battery_info:Vol1Protect,battery_info:Vol2Protect,battery_info:Cap1Protect,battery_info:Cap2Protect,battery_info:Batpresent,battery_info:sopPercentage,battery_info:sopValue,battery_info:sopScale,battery_info:sopFlg,BattInfo:WindHeading:WindDir,battery_info:home_dir,BattInfo:Wind:rangeMin,BattInfo:Wind:rangeMax,battery_info:cap_speed,battery_info:against_wind,battery_info:emergency_land_cap,battery_info:intel_bat_land_cap,battery_info:intel_bat_gh_cap,BattInfo:Smart:SmartGh,BattInfo:Smart:SmartLand,BattInfo:GoHome:CntDown,BattInfo:GoHome:GhCmd,BattInfo:GoHome:CapLevel,BattInfo:GoHome:LandCapLv,Attribute|Value,ConvertDatV3,3.6.6-Tablet
7323062,1.903,,,,,,,,,,,,,,,,,,,,,,,,,,,,,,,,,,,,,,,,,,,,,,,,,,,,,,,,,,,,,,,,,,,,,,,,,,,,,,,,,,,,,,,,,,,,,,,,,,,,,,,,,,,,,,,,,,,,,,,,,,,,,,,,,,,,,,,,,,,,,,,,,,,,,,,,,,,OK,,,,,,,,,,,,,,,,,,,,,,,,,,Firmware Date| Jul 26 2019
8128009,2.112,,,,,,,,,,,,,,,,,,,,,,,,,,,,,,,,,,,,,,,,,,,,,,,,,,,,,,,,,,,,,,,,,,,,,,,,,,,,,,,,,,,,,,,,,,,,,,,,,,,,,,,,,,,,,,,,,,,,,,,,,,,,,,,,,,,,,,,,,,,,,,,,,,,,,,,,,,,OK,,,,,,,,,,,,,,,,,,,,,,,,,,ACType|MavicEnterprise
23343526,6.067,,,,,,,,,,,,,,,,,,,,,,,,,,,,,,,,,,,,,,,9.0941522,62.6929153,20190920,185031,2019-09-20T18:50:31Z,626.379,0.69,1.13,24.52,9,7,16,-0.01,-0.01,0.0,,,,,,,,,,,,,,,,,,,,,,,,,,,,,,,,,,,,,,,,,,,,,,,,,,,,,,,,,,,,,,,,,,,,,,,,,,,,,,,,,,,,,,,,,,,,,,,,,,,,,,OK,,,,,,,,,,,,,,,,,,,,,,,,,,
23489645,6.105,,,16,565.5278,565.3739,0.05787086,-0.057389762,-1.000429,1.0037434,0.31681806,-0.017047469,-0.20527796,0.3778933,42,-343,1447,1487.0,-0.019735843,0.0020821975,-0.0066164257,0.020919276,0.01984537802939502,-0.01984537802939502,3.331679866529017,3.3589248476933333,74.63441391900486,74.63441391900483,0.0,0.0,0.0,73.61638754758461,,0.0,,,64.41,,,9.0941522,62.6929153,20190920,185031,2019-09-20T18:50:31Z,626.379,0.69,1.13,24.52,9,7,16,-0.01,-0.01,0.0,,,,false,false,false,false,false,false,false,false,false,false,,,,,,,,,,,,,,,,,,,,,,,,,,,,,,,,,,,,,,,,,,,,,,,,,,,,,,,,,,,,,,,,,,,,,,,,,,,,,,,,,,,,,,,,,OK,,,,,,,,,,,,,,,,,,,,,,,,,,
23800257,6.186,,,16,565.5278,565.3739,0.05787086,-0.057389762,-1.000429,1.0037434,0.31681806,-0.017047469,-0.20527796,0.3778933,42,-343,1447,1487.0,-0.019735843,0.0020821975,-0.0066164257,0.020919276,0.01984537802939502,-0.01984537802939502,3.331679866529017,3.3589248476933333,74.63441391900486,74.63441391900483,0.0,0.0,0.0,73.61638754758461,,0.0,,,64.41,,,9.0941522,62.6929153,20190920,185031,2019-09-20T18:50:31Z,626.379,0.69,1.13,24.52,9,7,16,-0.01,-0.01,0.0,,,,false,false,false,false,false,false,false,false,false,false,,,,,,,,,,,,,,,,,,,,,,,,,,,,,,,,,,,,,,,,,,,,,,,,,,,,,,,,,,,,,,,,,,,,,,,,,,,,,,15.154,15.154,15.216,0.6469066,0,1172,3.784,12.0,1.378,35,26.8,OK,5,0,0,0,0,0,65,100,0.0,0,0.0,589232.0,2.69E-43,0.0,0.0,0,7.3897485E-14,-7.389794E-14,9.4E-44,False,False,0,None,0.0,1.0842353E-19,
24111540,6.266,,,16,565.36395,565.37524,0.05742374,-0.05808078,-0.99953216,1.0028636,0.24043512,0.04928858,-0.10725019,0.26784512,36,-340,1450,1489.0,-0.0119321635,-0.0071594557,-0.011069173,0.017780915,0.01391525538358898,-0.01391525538358898,3.329881133644914,3.3617980998131545,74.65340988515585,74.65340988515584,-0.005351680574998343,0.011997479579551374,0.0024594522778850153,74.22692112865148,,0.0,,,64.43,,,9.0941506,62.692915,20190920,185031,2019-09-20T18:50:31Z,626.666,0.69,1.13,23.11,9,7,16,0.01,0.0,0.01,,,,false,false,false,false,false,false,false,false,false,false,,,,,,,,,,,,,,,,,,,,,,,,,,,,,,,,,,,,,,,,,,,,,,,,,,,,,,,,,,,,,,,,,,,,,,,,,,,,,,15.154,15.154,15.216,0.6469066,0,1172,3.784,12.0,1.378,35,26.8,OK,5,0,0,0,0,0,65,100,0.0,0,0.0,589232.0,2.69E-43,0.0,0.0,0,7.3897485E-14,-7.389794E-14,9.4E-44,False,False,0,None,0.0,1.0842353E-19,dateTime|2019-9-20 18:50:31 GMT
24257645,6.304,,,16,565.2662,565.34326,0.05815023,-0.058467355,-0.9962358,0.9996427,0.29729012,0.08445341,-0.111410886,0.3285212,42,-340,1447,1487.0,-0.018649697,-0.009605719,0.022546217,0.030796314,0.020978108315588703,-0.020978108315588703,3.321981074732335,3.358751573171124,74.67037217035352,74.67037217035352,-0.016263053792448665,0.038830424558286974,0.009133291227248916,73.49665874958013,,0.0,,,64.49,,,9.0941506,62.692915,20190920,185031,2019-09-20T18:50:31Z,626.666,0.69,1.13,23.11,9,7,16,0.01,0.0,0.01,,,,false,false,false,false,false,false,false,false,false,false,,,,,,,,,,,,,,,,,,,,,,,,,,,,,,,,,,,,,,,,,,,,,,,,,,,,,,,,,,,,,,,,,,,,,,NONE,0.0,0.0,0.0,,,,,15.154,15.154,15.216,0.6469066,0,1172,3.784,12.0,1.378,35,26.8,OK,5,0,0,0,0,0,65,100,0.0,0,0.0,589232.0,2.69E-43,0.0,0.0,0,7.3897485E-14,-7.389794E-14,9.4E-44,False,False,0,None,0.0,1.0842353E-19,
24553345,6.381,,,16,565.2662,565.34326,0.05815023,-0.058467355,-0.9962358,0.9996427,0.29729012,0.08445341,-0.111410886,0.3285212,42,-340,1447,1487.0,-0.018649697,-0.009605719,0.022546217,0.030796314,0.020978108315588703,-0.020978108315588703,3.321981074732335,3.358751573171124,74.67037217035352,74.67037217035352,-0.016263053792448665,0.038830424558286974,0.009133291227248916,73.49665874958013,,0.0,,,64.49,,,9.0941506,62.692915,20190920,185031,2019-09-20T18:50:31Z,626.666,0.69,1.13,23.11,9,7,16,0.01,0.0,0.01,,,,false,false,false,false,false,false,false,false,false,false,,,,,,,,,,,,,,,,,,,,,,,,,,,,,,,,,,,,,,,,,,,,,,,,,,,,,,,,,,,,,,,,,,,,,,NONE,0.0,0.0,0.0,,,,,15.154,15.154,15.216,0.6469066,0,1172,3.784,12.0,1.378,35,26.8,OK,5,0,0,0,0,0,65,100,0.0,0,0.0,589232.0,2.69E-43,0.0,0.0,0,7.3897485E-14,-7.389794E-14,9.4E-44,False,False,0,None,0.0,1.0842353E-19,
24889167,6.469,,,16,565.5304,565.3526,0.057250604,-0.057534844,-0.9992408,1.0025319,0.15392141,-0.019075258,-0.17548262,0.23420039,33,-340,1450,1489.0,-0.014708297,-0.012527911,0.006385576,0.020348419,0.019320521657567806,-0.019320521657567806,3.3206621352127716,3.360134022424658,74.68835508240018,74.68835508240016,-0.030578835237414302,0.061345558870282375,0.012395614617001376,74.5994547289732,,0.0,,,64.47,,,9.0941504,62.6929141,20190920,185031,2019-09-20T18:50:31Z,626.819,0.69,1.13,21.9,9,7,16,0.01,-0.01,0.01,,,,false,false,false,false,false,false,false,false,false,false,,,,,,,,,,,,,,,,,,,,,,,,,,,,,,,,,,,,,,,,,,,,,,,,,,,,,,,,,,,,,,,,,,,,,,NONE,0.0,0.0,0.0,,,,,15.157,15.157,15.226,0.6469066,0,1172,3.784,12.0,1.378,35,26.8,OK,5,0,0,0,0,0,65,100,0.0,0,0.0,589232.0,2.69E-43,0.0,0.0,0,7.3897485E-14,-7.389794E-14,9.4E-44,False,False,0,None,0.0,1.0842353E-19,
25025648,6.504,,,16,565.541,565.3882,0.057503022,-0.05760959,-0.9989715,1.0022821,0.2496844,0.11749654,-0.16340512,0.32070073,42,-337,1447,1486.0,-0.014129596,-0.012819705,-0.03400203,0.03898882,0.019078530216873394,-0.019078530216873394,3.271644974512106,3.314983825118272,74.70733960527546,74.70733960527548,-0.047489666061718255,0.08148588468128168,0.01730693307578367,73.47090023288358,,0.0,,,64.52,,,9.0941504,62.6929141,20190920,185031,2019-09-20T18:50:31Z,626.819,0.69,1.13,21.9,9,7,16,0.01,-0.01,0.01,,,,false,false,false,false,false,false,false,false,false,false,,,,,,,,,,,,,,,,,,,,,,,,,,,,,,,,,,,,,,,,,,,,,,,,,,,,,,,,,,,,,,,,,,,,,,NONE,0.0,0.0,0.0,,,,,15.157,15.157,15.226,0.6469066,0,1172,3.784,12.0,1.378,35,26.8,OK,5,0,0,0,0,0,65,100,0.0,0,0.0,589232.0,2.69E-43,0.0,0.0,0,7.3897485E-14,-7.389794E-14,9.4E-44,False,False,0,None,0.0,1.0842353E-19,
25336366,6.585,,,16,565.541,565.3882,0.057503022,-0.05760959,-0.9989715,1.0022821,0.2496844,0.11749654,-0.16340512,0.32070073,42,-337,1447,1486.0,-0.014129596,-0.012819705,-0.03400203,0.03898882,0.019078530216873394,-0.019078530216873394,3.271644974512106,3.314983825118272,74.70733960527546,74.70733960527548,-0.047489666061718255,0.08148588468128168,0.01730693307578367,73.47090023288358,,0.0,,,64.52,,,9.0941504,62.6929141,20190920,185031,2019-09-20T18:50:31Z,626.819,0.69,1.13,21.9,9,7,16,0.01,-0.01,0.01,,,,false,false,false,false,false,false,false,false,false,false,,,,,,,,,,,,,,,,,,,,,,,,,,,,,,,,,,,,,,,,,,,,,,,,,,,,,,,,,,,,,,,,,,,,,,NONE,0.0,0.0,0.0,,,,,15.16,15.16,15.234,0.6469066,0,1172,3.784,12.0,1.378,35,26.8,OK,5,0,0,0,0,0,65,100,0.0,0,0.0,589232.0,2.69E-43,0.0,0.0,0,7.3897485E-14,-7.389794E-14,9.4E-44,False,False,0,None,0.0,1.0842353E-19,
25513305,6.631,,,16,565.6731,565.3766,0.05825985,-0.057303805,-0.9972022,1.0005449,0.22418939,0.073308334,-0.014282719,0.23630275,36,-340,1444,1483.0,-6.9303875E-5,-0.007088689,-0.019900069,0.021125033,0.007089027809466,-0.007089027809466,3.269521932078461,3.315480388503338,74.7205527510768,74.72055275107681,-0.05635616313938359,0.10513185078535672,0.026827960656843286,74.34645714352587,,0.0,,,64.53,,,9.0941504,62.6929141,20190920,185031,2019-09-20T18:50:31Z,626.819,0.69,1.13,21.9,9,7,16,0.01,-0.01,0.01,,,,false,false,false,false,false,false,false,false,false,false,,,,,,,,,,,,,,,,,,,,,,,,,,,,,,,,,,,,,,,,,,,,,,,,,,,,,,,,,,,,,,,,,,,,,,NONE,0.0,0.0,0.0,,,,,15.16,15.16,15.234,0.6469066,0,1172,3.784,12.0,1.378,35,26.8,OK,5,0,0,0,0,0,65,100,0.0,0,0.0,589232.0,2.69E-43,0.0,0.0,0,7.3897485E-14,-7.389794E-14,9.4E-44,False,False,0,None,0.0,1.0842353E-19,
25657167,6.668,,,16,565.6731,565.3766,0.05825985,-0.057303805,-0.9972022,1.0005449,0.22418939,0.073308334,-0.014282719,0.23630275,36,-340,1444,1483.0,-6.9303875E-5,-0.007088689,-0.019900069,0.021125033,0.007089027809466,-0.007089027809466,3.269521932078461,3.315480388503338,74.7205527510768,74.72055275107681,-0.05635616313938359,0.10513185078535672,0.026827960656843286,74.34645714352587,,0.0,,,64.53,,,9.09415,62.6929133,20190920,185031,2019-09-20T18:50:31Z,627.06,0.69,1.13,20.86,9,7,16,0.0,0.0,0.01,,,,false,false,false,false,false,false,false,false,false,false,,,,,,,,,,,,,,,,,,,,,,,,,,,,,,,,,,,,,,,,,,,,,,,,,,,,,,,,,,,,,,,,,,,,,,NONE,0.0,0.0,0.0,,,,,15.16,15.16,15.234,0.6469066,0,1172,3.784,12.0,1.378,35,26.8,OK,5,0,0,0,0,0,65,100,0.0,0,0.0,589232.0,2.69E-43,0.0,0.0,0,7.3897485E-14,-7.389794E-14,9.4E-44,False,False,0,None,0.0,1.0842353E-19,
25793681,6.704,,,16,565.46173,565.38654,0.058132943,-0.0586858,-0.9986548,1.0020653,0.1702244,0.09842895,-0.04407352,0.20151198,42,-337,1444,1483.0,0.0054781283,-0.007213458,-0.03062785,0.031939145,0.009057806876090781,-0.009057806876090781,3.261713124112677,3.3382237178172365,74.7357846105026,74.7357846105026,-0.05926842402470556,0.12481502191530033,0.035398488877413814,73.40425278393441,,0.0,,,64.5,,,9.09415,62.6929133,20190920,185031,2019-09-20T18:50:31Z,627.06,0.69,1.13,20.86,9,7,16,0.0,0.0,0.01,,,,false,false,false,false,false,false,false,false,false,false,,,,,,,,,,,,,,,,,,,,,,,,,,,,,,,,,,,,,,,,,,,,,,,,,,,,,,,,,,,,,,,,,,,,,,NONE,0.0,0.0,0.0,,,,,15.16,15.16,15.234,0.6469066,0,1172,3.784,12.0,1.378,35,26.8,OK,5,0,0,0,0,0,65,100,0.0,0,0.0,589232.0,2.69E-43,0.0,0.0,0,7.3897485E-14,-7.389794E-14,9.4E-44,False,False,0,None,0.0,1.0842353E-19,
26026121,6.764,,,16,565.46173,565.38654,0.058132943,-0.0586858,-0.9986548,1.0020653,0.1702244,0.09842895,-0.04407352,0.20151198,42,-337,1444,1483.0,0.0054781283,-0.007213458,-0.03062785,0.031939145,0.009057806876090781,-0.009057806876090781,3.261713124112677,3.3382237178172365,74.7357846105026,74.7357846105026,-0.05926842402470556,0.12481502191530033,0.035398488877413814,73.40425278393441,,0.0,,,64.5,,,9.09415,62.6929133,20190920,185031,2019-09-20T18:50:31Z,627.06,0.69,1.13,20.86,9,7,16,0.0,0.0,0.01,,,,false,false,false,false,false,false,false,false,false,false,,,,,,,,,,,,,,,,,,,,,,,,,,,,,,,,,,,,,,,,,,,,,,,,,,,,,,,,,,,,,,,,,,,,,,NONE,0.0,0.0,0.0,,,,,15.16,15.16,15.234,0.6469066,0,1172,3.784,12.0,1.378,35,26.8,OK,5,0,0,0,0,0,65,100,0.0,0,0.0,589232.0,2.69E-43,0.0,0.0,0,7.3897485E-14,-7.389794E-14,9.4E-44,False,False,0,None,0.0,1.0842353E-19,
26177699,6.803,,,16,565.2794,565.4017,0.0581074,-0.05886082,-0.99606174,0.9994899,0.20866631,0.053358905,-0.20313327,0.29606068,42,-340,1453,1492.0,0.011899573,-0.011144181,-0.044132628,0.04704765,0.01630314676040395,-0.01630314676040395,3.262617745207443,3.336846674280748,74.74855794696606,74.74855794696606,-0.07160460641166973,0.1437225311047589,0.042973048424281284,73.47575403879199,,0.0,,,64.57,,,9.09415,62.6929133,20190920,185031,2019-09-20T18:50:31Z,627.06,0.69,1.13,20.86,9,7,16,0.0,0.0,0.01,,,,false,false,false,false,false,false,false,false,false,false,,,,,,,,,,,,,,,,,,,,,,,,,,,,,,,,,,,,,,,,,,,,,,,,,,,,,,,,,,,,,,,,,,,,,,NONE,0.0,0.0,0.0,,,,,15.158,15.158,15.229,0.6469066,0,1172,3.784,12.0,1.378,35,26.8,OK,5,0,0,0,0,0,65,100,0.0,0,0.0,589232.0,2.69E-43,0.0,0.0,0,7.3897485E-14,-7.389794E-14,9.4E-44,False,False,0,None,0.0,1.0842353E-19,
26410389,6.864,,,16,565.2794,565.4017,0.0581074,-0.05886082,-0.99606174,0.9994899,0.20866631,0.053358905,-0.20313327,0.29606068,42,-340,1453,1492.0,0.011899573,-0.011144181,-0.044132628,0.04704765,0.01630314676040395,-0.01630314676040395,3.262617745207443,3.336846674280748,74.74855794696606,74.74855794696606,-0.07160460641166973,0.1437225311047589,0.042973048424281284,73.47575403879199,,0.0,,,64.57,,,9.09415,62.6929133,20190920,185031,2019-09-20T18:50:31Z,627.06,0.69,1.13,20.86,9,7,16,0.0,0.0,0.01,,,,false,false,false,false,false,false,false,false,false,false,,,,,,,,,,,,,,,,,,,,,,,,,,,,,,,,,,,,,,,,,,,,,,,,,,,,,,,,,,,,,,,,,,,,,,NONE,0.0,0.0,0.0,,,,,15.158,15.158,15.229,0.6469066,0,1172,3.784,12.0,1.378,35,26.8,OK,5,0,0,0,0,0,65,100,0.0,0,0.0,589232.0,2.69E-43,0.0,0.0,0,7.3897485E-14,-7.389794E-14,9.4E-44,False,False,0,None,0.0,1.0842353E-19,
26559570,6.903,,,16,565.2794,565.4017,0.0581074,-0.05886082,-0.99606174,0.9994899,0.20866631,0.053358905,-0.20313327,0.29606068,42,-340,1453,1492.0,0.011899573,-0.011144181,-0.044132628,0.04704765,0.01630314676040395,-0.01630314676040395,3.262617745207443,3.336846674280748,74.74855794696606,74.74855794696606,-0.07160460641166973,0.1437225311047589,0.042973048424281284,73.47575403879199,,0.0,,,64.57,,,9.0941486,62.6929126,20190920,185031,2019-09-20T18:50:31Z,627.198,0.69,1.13,19.97,9,7,16,-0.01,0.01,0.01,,,,false,false,false,false,false,false,false,false,false,false,,,,,,,,,,,,,,,,,,,,,,,,,,,,,,,,,,,,,,,,,,,,,,,,,,,,,,,,,,,,,,,,,,,,,,NONE,0.0,0.0,0.0,,,,,15.158,15.158,15.229,0.6469066,0,1172,3.784,12.0,1.378,35,26.8,OK,5,0,0,0,0,0,65,100,0.0,0,0.0,589232.0,2.69E-43,0.0,0.0,0,7.3897485E-14,-7.389794E-14,9.4E-44,False,False,0,None,0.0,1.0842353E-19,
26872713,6.984,,,16,565.3322,565.402,0.058085922,-0.05759626,-0.9976384,1.0009863,0.25373423,0.07617614,-0.058189224,0.2712376,39,-337,1444,1483.0,0.012164875,-0.011383501,-0.04116098,0.044404894,0.016660381002016996,-0.016660381002016996,3.295726412568664,3.316826794801893,74.75980374464982,74.75980374464984,-0.08469205712353944,0.16688029409709665,0.04946037187616214,73.88093821049212,,0.0,,,64.53,,,9.0941486,62.6929126,20190920,185031,2019-09-20T18:50:31Z,627.198,0.69,1.13,19.97,9,7,16,-0.01,0.01,0.01,,,,false,false,false,false,false,false,false,false,false,false,,,,,,,,,,,,,,,,,,,,,,,,,,,,,,,,,,,,,,,,,,,,,,,,,,,,,,,,,,,,,,,,,,,,,,NONE,0.0,0.0,0.0,,,,,15.151,15.151,15.216,0.6469066,0,1172,3.784,12.0,1.378,35,26.8,OK,5,0,0,0,0,0,65,100,0.0,0,0.0,589232.0,2.69E-43,0.0,0.0,0,7.3897485E-14,-7.389794E-14,9.4E-44,False,False,0,None,0.0,1.0842353E-19,
27193169,7.067,,,16,565.3164,565.40894,0.05795977,-0.05855344,-0.99906486,1.0024562,0.38744494,0.021362957,-0.23000582,0.45107943,36,-346,1450,1491.0,0.007649465,-0.006463364,-0.044650648,0.045759916,0.010014459117293057,-0.010014459117293057,3.290835033659956,3.317423917021053,74.76786490863418,74.76786490863418,-0.0990212162666033,0.19875995008263925,0.05431005015708253,74.53966534580496,,0.0,,,64.55,,,9.0941488,62.6929123,20190920,185032,2019-09-20T18:50:32Z,627.156,0.69,1.13,19.18,9,7,16,-0.01,-0.01,0.0,,,,false,false,false,false,false,false,false,false,false,false,,,,,,,,,,,,,,,,,,,,,,,,,,,,,,,,,,,,,,,,,,,,,,,,,,,,,,,,,,,,,,,,,,,,,,NONE,0.0,0.0,0.0,,,,,15.151,15.151,15.216,0.6469066,0,1172,3.784,12.0,1.378,35,26.8,OK,5,0,0,0,0,0,65,100,0.0,0,0.0,589232.0,2.69E-43,0.0,0.0,0,7.3897485E-14,-7.389794E-14,9.4E-44,False,False,0,None,0.0,1.0842353E-19,
27329752,7.103,,,16,565.45905,565.425,0.05799616,-0.05829764,-0.9970699,1.0004551,0.24788184,0.13258381,-0.0931807,0.29615286,39,-346,1453,1494.0,0.003618101,-0.001970653,-0.047931258,0.048107997,0.004119966867932751,-0.004119966867932751,3.321655147290701,3.300124169104345,74.7773459733003,74.77734597330027,-0.1151497580367054,0.23046577425555242,0.06199272507485006,74.23485951943077,,0.0,,,64.57,,,9.0941488,62.6929123,20190920,185032,2019-09-20T18:50:32Z,627.156,0.69,1.13,19.18,9,7,16,-0.01,-0.01,0.0,,,,false,false,false,false,false,false,false,false,false,false,,,,,,,,,,,,,,,,,,,,,,,,,,,,,,,,,,,,,,,,,,,,,,,,,,,,,,,,,,,,,,,,,,,,,,NONE,0.0,0.0,0.0,,,,,15.151,15.151,15.216,0.6469066,0,1172,3.784,12.0,1.378,35,26.8,OK,5,0,0,0,0,0,65,100,0.0,0,0.0,589232.0,2.69E-43,0.0,0.0,0,7.3897485E-14,-7.389794E-14,9.4E-44,False,False,0,None,0.0,1.0842353E-19,
27483610,7.143,,,16,565.45905,565.425,0.05799616,-0.05829764,-0.9970699,1.0004551,0.24788184,0.13258381,-0.0931807,0.29615286,39,-346,1453,1494.0,0.003618101,-0.001970653,-0.047931258,0.048107997,0.004119966867932751,-0.004119966867932751,3.321655147290701,3.300124169104345,74.7773459733003,74.77734597330027,-0.1151497580367054,0.23046577425555242,0.06199272507485006,74.23485951943077,,0.0,,,64.57,,,9.0941488,62.6929123,20190920,185032,2019-09-20T18:50:32Z,627.156,0.69,1.13,19.18,9,7,16,-0.01,-0.01,0.0,,,,false,false,false,false,false,false,false,false,false,false,,,,,,,,,,,,,,,,,,,,,,,,,,,,,,,,,,,,,,,,,,,,,,,,,,,,,,,,,,,,,,,,,,,,,,NONE,0.0,0.0,0.0,,,,,15.151,15.151,15.216,0.6469066,0,1172,3.784,12.0,1.378,35,26.8,OK,5,0,0,0,0,0,65,100,0.0,0,0.0,589232.0,2.69E-43,0.0,0.0,0,7.3897485E-14,-7.389794E-14,9.4E-44,False,False,0,None,0.0,1.0842353E-19,
27640280,7.184,,,16,565.45905,565.425,0.05799616,-0.05829764,-0.9970699,1.0004551,0.24788184,0.13258381,-0.0931807,0.29615286,39,-346,1453,1494.0,0.003618101,-0.001970653,-0.047931258,0.048107997,0.004119966867932751,-0.004119966867932751,3.321655147290701,3.300124169104345,74.7773459733003,74.77734597330027,-0.1151497580367054,0.23046577425555242,0.06199272507485006,74.23485951943077,,0.0,,,64.57,,,9.0941488,62.6929123,20190920,185032,2019-09-20T18:50:32Z,627.156,0.69,1.13,19.18,9,7,16,-0.01,-0.01,0.0,,,,false,false,false,false,false,false,false,false,false,false,,,,,,,,,,,,,,,,,,,,,,,,,,,,,,,,,,,,,,,,,,,,,,,,,,,,,,,,,,,,,,,,,,,,,,NONE,0.0,0.0,0.0,,,,,15.153,15.153,15.232,0.83332384,0,1171,3.784,12.0,1.362,35,26.8,OK,6,0,0,0,0,0,65,100,0.0,0,0.0,589232.0,2.69E-43,0.0,0.0,0,7.3897485E-14,-7.389794E-14,9.4E-44,False,False,0,None,0.0,1.0842353E-19,
27961164,7.267,,,16,565.42206,565.4322,0.057717007,-0.058280956,-0.9964041,0.9997745,0.27795482,0.03596844,-0.048084892,0.2843673,36,-343,1450,1490.0,-0.0040716073,0.0061909165,-0.049802274,0.05035049,0.0074098201603318955,-0.0074098201603318955,3.3215379579078492,3.3029477980773825,74.783964474516,74.78396447451598,-0.12219671857763431,0.25669686006225406,0.07040086580250299,74.50797778940183,,0.0,,,64.55,,,9.0941491,62.692912,20190920,185032,2019-09-20T18:50:32Z,627.103,0.69,1.13,18.46,9,7,16,0.01,-0.01,0.0,,,,false,false,false,false,false,false,false,false,false,false,,,,,,,,,,,,,,,,,,,,,,,,,,,,,,,,,,,,,,,,,,,,,,,,,,,,,,,,,,,,,,,,,,,,,,NONE,0.0,0.0,0.0,,,,,15.153,15.153,15.232,0.83332384,0,1171,3.784,12.0,1.362,35,26.8,OK,6,0,0,0,0,0,65,100,0.0,0,0.0,589232.0,2.69E-43,0.0,0.0,0,7.3897485E-14,-7.389794E-14,9.4E-44,False,False,0,None,0.0,1.0842353E-19,
28097641,7.302,,,16,565.2794,565.4224,0.057694778,-0.05821632,-0.9984136,1.0017722,0.17902955,-0.031305823,-0.088341095,0.20207866,39,-343,1450,1490.0,-0.004067085,0.0052192584,-0.03619638,0.036796194,0.006616784568848706,-0.006616784568848706,3.308998697896262,3.344167040042661,74.78924812541854,74.78924812541857,-0.12900450899426352,0.27950082792858605,0.07063353501121249,73.99596538468393,,0.0,,,64.56,,,9.0941491,62.692912,20190920,185032,2019-09-20T18:50:32Z,627.103,0.69,1.13,18.46,9,7,16,0.01,-0.01,0.0,,,,false,false,false,false,false,false,false,false,false,false,,,,,,,,,,,,,,,,,,,,,,,,,,,,,,,,,,,,,,,,,,,,,,,,,,,,,,,,,,,,,,,,,,,,,,NONE,0.0,0.0,0.0,,,,,15.153,15.153,15.232,0.83332384,0,1171,3.784,12.0,1.362,35,26.8,OK,6,0,0,0,0,0,65,100,0.0,0,0.0,589232.0,2.69E-43,0.0,0.0,0,7.3897485E-14,-7.389794E-14,9.4E-44,False,False,0,None,0.0,1.0842353E-19,
28393359,7.379,,,16,565.2794,565.4224,0.057694778,-0.05821632,-0.9984136,1.0017722,0.17902955,-0.031305823,-0.088341095,0.20207866,39,-343,1450,1490.0,-0.004067085,0.0052192584,-0.03619638,0.036796194,0.006616784568848706,-0.006616784568848706,3.308998697896262,3.344167040042661,74.78924812541854,74.78924812541857,-0.12900450899426352,0.27950082792858605,0.07063353501121249,73.99596538468393,,0.0,,,64.56,,,9.0941491,62.692912,20190920,185032,2019-09-20T18:50:32Z,627.103,0.69,1.13,18.46,9,7,16,0.01,-0.01,0.0,,,,false,false,false,false,false,false,false,false,false,false,,,,,,,,,,,,,,,,,,,,,,,,,,,,,,,,,,,,,,,,,,,,,,,,,,,,,,,,,,,,,,,,,,,,,,NONE,0.0,0.0,0.0,,,,,15.153,15.153,15.232,0.83332384,0,1171,3.784,12.0,1.362,35,26.8,OK,6,0,0,0,0,0,65,100,0.0,0,0.0,589232.0,2.69E-43,0.0,0.0,0,7.3897485E-14,-7.389794E-14,9.4E-44,False,False,0,None,0.0,1.0842353E-19,
28719552,7.464,,,16,565.3111,565.41614,0.05757852,-0.057108175,-0.99643105,0.9997257,0.2708761,0.02192126,-0.34287402,0.4375123,36,-343,1453,1493.0,-0.007596559,-0.004145127,-0.027926996,0.02923708,0.008653888568520465,-0.008653888568520465,3.3061332110014825,3.343908217836353,74.79863550559402,74.798635505594,-0.15052166879576373,0.30195062594123206,0.07016525562489066,74.35114596926657,,0.0,,,64.6,,,9.0941493,62.6929107,20190920,185032,2019-09-20T18:50:32Z,626.986,0.69,1.13,17.82,9,7,16,0.01,0.0,0.0,,,,false,false,false,false,false,false,false,false,false,false,,,,,,,,,,,,,,,,,,,,,,,,,,,,,,,,,,,,,,,,,,,,,,,,,,,,,,,,,,,,,,,,,,,,,,NONE,0.0,0.0,0.0,,,,,15.157,15.157,15.232,0.83332384,0,1171,3.784,12.0,1.362,35,26.8,OK,6,0,0,0,0,0,65,100,0.0,0,0.0,589232.0,2.69E-43,0.0,0.0,0,7.3897485E-14,-7.389794E-14,9.4E-44,False,False,0,None,0.0,1.0842353E-19,
28865642,7.502,,,16,565.25824,565.39624,0.057593863,-0.058152318,-0.99682504,1.0001794,0.18183684,-0.018062072,-0.22421168,0.2892434,36,-343,1444,1484.0,-0.0041874996,-0.0071570566,-0.019747753,0.021418039,0.0082920814251481,-0.0082920814251481,3.262104235741346,3.330314098728331,74.80940003875816,74.80940003875816,-0.17881987372025568,0.3245415047004121,0.07035783340918218,74.39993993477802,,0.0,,,64.57,,,9.0941493,62.6929107,20190920,185032,2019-09-20T18:50:32Z,626.986,0.69,1.13,17.82,9,7,16,0.01,0.0,0.0,,,,false,false,false,false,false,false,false,false,false,false,,,,,,,,,,,,,,,,,,,,,,,,,,,,,,,,,,,,,,,,,,,,,,,,,,,,,,,,,,,,,,,,,,,,,,NONE,0.0,0.0,0.0,,,,,15.157,15.157,15.232,0.83332384,0,1171,3.784,12.0,1.362,35,26.8,OK,6,0,0,0,0,0,65,100,0.0,0,0.0,589232.0,2.69E-43,0.0,0.0,0,7.3897485E-14,-7.389794E-14,9.4E-44,False,False,0,None,0.0,1.0842353E-19,
29176349,7.583,,,16,565.25824,565.39624,0.057593863,-0.058152318,-0.99682504,1.0001794,0.18183684,-0.018062072,-0.22421168,0.2892434,36,-343,1444,1484.0,-0.0041874996,-0.0071570566,-0.019747753,0.021418039,0.0082920814251481,-0.0082920814251481,3.262104235741346,3.330314098728331,74.80940003875816,74.80940003875816,-0.17881987372025568,0.3245415047004121,0.07035783340918218,74.39993993477802,,0.0,,,64.57,,,9.0941493,62.6929107,20190920,185032,2019-09-20T18:50:32Z,626.986,0.69,1.13,17.82,9,7,16,0.01,0.0,0.0,,,,false,false,false,false,false,false,false,false,false,false,,,,,,,,,,,,,,,,,,,,,,,,,,,,,,,,,,,,,,,,,,,,,,,,,,,,,,,,,,,,,,,,,,,,,,NONE,0.0,0.0,0.0,,,,,15.154,15.154,15.224,0.83332384,0,1171,3.784,12.0,1.362,35,26.8,OK,6,0,0,0,0,0,65,100,0.0,0,0.0,589232.0,2.69E-43,0.0,0.0,0,7.3897485E-14,-7.389794E-14,9.4E-44,False,False,0,None,0.0,1.0842353E-19,
29314749,7.619,,,16,565.34283,565.3811,0.057981748,-0.05780423,-0.99506193,0.9984245,0.13782799,0.12606671,-0.13399695,0.22987944,36,-340,1435,1475.0,0.006714018,-0.010319549,-0.0035403022,0.012810342,0.012311422306304156,-0.012311422306304156,3.2650835498512296,3.3317012670849424,74.81370971448516,74.81370971448519,-0.19669409038350044,0.34049242858719936,0.07574714643461113,74.33944513745871,,0.0,,,64.6,,,9.0941493,62.6929107,20190920,185032,2019-09-20T18:50:32Z,626.986,0.69,1.13,17.82,9,7,16,0.01,0.0,0.0,,,,false,false,false,false,false,false,false,false,false,false,,,,,,,,,,,,,,,,,,,,,,,,,,,,,,,,,,,,,,,,,,,,,,,,,,,,,,,,,,,,,,,,,,,,,,NONE,0.0,0.0,0.0,,,,,15.154,15.154,15.224,0.83332384,0,1171,3.784,12.0,1.362,35,26.8,OK,6,0,0,0,0,0,65,100,0.0,0,0.0,589232.0,2.69E-43,0.0,0.0,0,7.3897485E-14,-7.389794E-14,9.4E-44,False,False,0,None,0.0,1.0842353E-19,
29497195,7.666,,,16,565.34283,565.3811,0.057981748,-0.05780423,-0.99506193,0.9984245,0.13782799,0.12606671,-0.13399695,0.22987944,36,-340,1435,1475.0,0.006714018,-0.010319549,-0.0035403022,0.012810342,0.012311422306304156,-0.012311422306304156,3.2650835498512296,3.3317012670849424,74.81370971448516,74.81370971448519,-0.19669409038350044,0.34049242858719936,0.07574714643461113,74.33944513745871,,0.0,,,64.6,,,9.0941482,62.6929096,20190920,185032,2019-09-20T18:50:32Z,626.937,0.69,1.13,17.24,9,7,16,-0.02,-0.01,0.02,,,,false,false,false,false,false,false,false,false,false,false,,,,,,,,,,,,,,,,,,,,,,,,,,,,,,,,,,,,,,,,,,,,,,,,,,,,,,,,,,,,,,,,,,,,,,NONE,0.0,0.0,0.0,,,,,15.154,15.154,15.224,0.83332384,0,1171,3.784,12.0,1.362,35,26.8,OK,6,0,0,0,0,0,65,100,0.0,0,0.0,589232.0,2.69E-43,0.0,0.0,0,7.3897485E-14,-7.389794E-14,9.4E-44,False,False,0,None,0.0,1.0842353E-19,
29633693,7.702,,,16,565.24243,565.37256,0.056868955,-0.057921804,-0.9956816,0.9989849,0.28293905,0.01758479,-0.24634555,0.37556607,39,-346,1453,1494.0,0.0072432226,-0.010254299,0.004756631,0.013425367,0.012554478764653302,-0.012554478764653302,3.2735067814205006,3.310524981871722,74.81888181939179,74.81888181939178,-0.21567607363042754,0.3614919046709081,0.08291644907914195,74.1582037360928,,0.0,,,64.6,,,9.0941482,62.6929096,20190920,185032,2019-09-20T18:50:32Z,626.937,0.69,1.13,17.24,9,7,16,-0.02,-0.01,0.02,,,,false,false,false,false,false,false,false,false,false,false,0,0,0,0,45,59,59,45,944,946,945,945,940,940,940,940,0.0,0.0,0.0,0.0,1506.1,1503.7,1503.7,1506.7,0.0,0.0,0.0,0.0,0,0,0,0,-45.0,,,,,,,,,,,,,,,,,,,,,,,,,,,,,,,,,,,,,NONE,0.0,0.0,0.0,,,,,15.154,15.154,15.224,0.83332384,0,1171,3.784,12.0,1.362,35,26.8,OK,6,0,0,0,0,0,65,100,0.0,0,0.0,589232.0,2.69E-43,0.0,0.0,0,7.3897485E-14,-7.389794E-14,9.4E-44,False,False,0,None,0.0,1.0842353E-19,
29942949,7.782,,,16,565.24243,565.37256,0.056868955,-0.057921804,-0.9956816,0.9989849,0.28293905,0.01758479,-0.24634555,0.37556607,39,-346,1453,1494.0,0.0072432226,-0.010254299,0.004756631,0.013425367,0.012554478764653302,-0.012554478764653302,3.2735067814205006,3.310524981871722,74.81888181939179,74.81888181939178,-0.21567607363042754,0.3614919046709081,0.08291644907914195,74.1582037360928,,0.0,,,64.6,,,9.0941482,62.6929096,20190920,185032,2019-09-20T18:50:32Z,626.937,0.69,1.13,17.24,9,7,16,-0.02,-0.01,0.02,,,,false,false,false,false,false,false,false,false,false,false,0,0,0,0,45,59,59,45,944,946,945,945,940,940,940,940,0.0,0.0,0.0,0.0,1506.1,1503.7,1503.7,1506.7,0.0,0.0,0.0,0.0,0,0,0,0,-45.0,,,,,,,,,,,,,,,,,,,,,,,,,,,,,,,,,,,,,NONE,0.0,0.0,0.0,,,,,15.154,15.154,15.224,0.83332384,0,1171,3.784,12.0,1.362,35,26.8,OK,6,0,0,0,0,0,65,100,0.0,0,0.0,589232.0,2.69E-43,0.0,0.0,0,7.3897485E-14,-7.389794E-14,9.4E-44,False,False,0,None,0.0,1.0842353E-19,
30250195,7.862,,,16,565.2107,565.34784,0.057568252,-0.058688276,-0.99622124,0.9996075,0.21642067,-0.015407411,-0.25937477,0.3381576,39,-343,1450,1490.0,0.010870373,-0.004725199,0.027555335,0.029996485,0.011852953779972494,-0.011852953779972494,3.2731393386703065,3.3100185670889677,74.82279026429251,74.82279026429251,-0.24091089578194916,0.38640934117769055,0.0830250975727991,74.06776103806479,,0.0,,,64.57,,,9.0941482,62.6929096,20190920,185032,2019-09-20T18:50:32Z,626.937,0.69,1.13,17.24,9,7,16,-0.02,-0.01,0.02,,,,false,false,false,false,false,false,false,false,false,false,0,0,0,0,44,57,59,44,944,946,945,945,940,940,940,940,0.0,0.0,0.0,0.0,1506.7,1503.7,1503.7,1506.7,0.0,0.0,0.0,0.0,0,0,0,0,-45.0,,,,,,,,,,,,,,,,,,,,,,,,,,,,,,,,,,,,,NONE,0.0,0.0,0.0,,,,,15.154,15.154,15.226,0.83332384,0,1171,3.784,12.0,1.362,35,26.8,OK,6,0,0,0,0,0,65,100,0.0,0,0.0,589232.0,2.69E-43,0.0,0.0,0,7.3897485E-14,-7.389794E-14,9.4E-44,False,False,0,None,0.0,1.0842353E-19,
30401694,7.901,,,16,565.1658,565.3205,0.05812086,-0.05749486,-0.99467987,0.99803394,0.2651978,0.1401303,-0.21846189,0.3710687,39,-343,1450,1490.0,0.011183454,-0.005623552,0.05203829,0.05352268,0.012517746420229075,-0.012517746420229075,3.317962954180555,3.3404265423437747,74.82159451759745,74.82159451759742,-0.26475553791456974,0.4104426995941445,0.0892489240589152,74.01594182068493,,0.0,,,64.58,,,9.0941481,62.6929087,20190920,185032,2019-09-20T18:50:32Z,626.828,0.69,1.13,16.75,9,7,16,-0.01,0.01,0.02,,,,false,false,false,false,false,false,false,false,false,false,0,0,0,0,44,59,59,44,944,946,945,945,940,940,940,940,0.0,0.0,0.0,0.0,1507.3,1503.7,1503.1,1507.3,0.0,0.0,0.0,0.0,0,0,0,0,-45.0,,,,,,,,,,,,,,,,,,,,,,,,,,,,,,,,,,,,,NONE,0.0,0.0,0.0,,,,,15.154,15.154,15.226,0.83332384,0,1171,3.784,12.0,1.362,35,26.8,OK,6,0,0,0,0,0,65,100,0.0,0,0.0,589232.0,2.69E-43,0.0,0.0,0,7.3897485E-14,-7.389794E-14,9.4E-44,False,False,0,None,0.0,1.0842353E-19,
30711249,7.982,,,16,565.1658,565.3205,0.05812086,-0.05749486,-0.99467987,0.99803394,0.2651978,0.1401303,-0.21846189,0.3710687,39,-343,1450,1490.0,0.011183454,-0.005623552,0.05203829,0.05352268,0.012517746420229075,-0.012517746420229075,3.317962954180555,3.3404265423437747,74.82159451759745,74.82159451759742,-0.26475553791456974,0.4104426995941445,0.0892489240589152,74.01594182068493,,0.0,,,64.58,,,9.0941481,62.6929087,20190920,185032,2019-09-20T18:50:32Z,626.828,0.69,1.13,16.75,9,7,16,-0.01,0.01,0.02,,,,false,false,false,false,false,false,false,false,false,false,0,0,0,0,44,59,59,45,944,945,945,945,940,940,940,940,0.0,0.0,0.0,0.0,1507.3,1501.8,1503.7,1506.7,0.0,0.0,0.0,0.0,0,0,0,0,-45.0,,,,,,,,,,,,,,,,,,,,,,,,,,,,,,,,,,,,,NONE,0.0,0.0,0.0,,,,,15.154,15.154,15.226,0.83332384,0,1171,3.784,12.0,1.362,35,26.8,OK,6,0,0,0,0,0,65,100,0.0,0,0.0,589232.0,2.69E-43,0.0,0.0,0,7.3897485E-14,-7.389794E-14,9.4E-44,False,False,0,None,0.0,1.0842353E-19,
31023490,8.063,,,16,565.0918,565.25885,0.05792244,-0.05727288,-0.9959555,0.99928105,0.19874597,0.18713416,-0.10842493,0.29372627,39,-343,1450,1490.0,-0.0105039505,-0.008676548,0.07425228,0.07549183,0.013624076330091698,-0.013624076330091698,3.3195872230462946,3.3405989231002016,74.82616379577802,74.82616379577803,-0.28106746867450894,0.43359388847612257,0.10557969863860836,74.01693736539762,,0.0,,,64.61,,,9.0941488,62.6929084,20190920,185032,2019-09-20T18:50:32Z,626.734,0.69,1.13,16.3,9,7,16,0.0,-0.01,0.0,,,,false,false,false,false,false,false,false,false,false,false,0,0,0,0,44,59,59,45,944,945,945,945,940,940,940,940,0.0,0.0,0.0,0.0,1507.3,1501.8,1503.7,1506.7,0.0,0.0,0.0,0.0,0,0,0,0,-45.0,,,,,,,,,,,,,,,,,,,,,,,,,,,,,,,,,,,,,NONE,0.0,0.0,0.0,,,,,15.154,15.154,15.228,0.83332384,0,1171,3.784,12.0,1.362,35,26.8,OK,6,0,0,0,0,0,65,100,0.0,0,0.0,589232.0,2.69E-43,0.0,0.0,0,7.3897485E-14,-7.389794E-14,9.4E-44,False,False,0,None,0.0,1.0842353E-19,
31169716,8.101,,,16,565.2556,565.2355,0.05770911,-0.058001395,-0.9958407,0.9991963,0.26981723,-0.04641727,-0.19956894,0.3387974,42,-343,1453,1493.0,-0.010292234,-0.008196594,0.089269035,0.090233445,0.01315728848089625,-0.01315728848089625,3.3126577693456465,3.3020401444358716,74.83394824962802,74.83394824962801,-0.29643694566448286,0.4569760774306412,0.11260173759830995,73.74253814153994,,0.0,,,64.56,,,9.0941488,62.6929084,20190920,185032,2019-09-20T18:50:32Z,626.734,0.69,1.13,16.3,9,7,16,0.0,-0.01,0.0,,,,false,false,false,false,false,false,false,false,false,false,0,0,0,0,44,59,59,45,944,945,945,945,940,940,940,940,0.0,0.0,0.0,0.0,1507.3,1501.8,1503.7,1506.7,0.0,0.0,0.0,0.0,0,0,0,0,-45.0,,,,,,,,,,,,,,,,,,,,,,,,,,,,,,,,,,,,,NONE,0.0,0.0,0.0,,,,,15.154,15.154,15.228,0.83332384,0,1171,3.784,12.0,1.362,35,26.8,OK,6,0,0,0,0,0,65,100,0.0,0,0.0,589232.0,2.69E-43,0.0,0.0,0,7.3897485E-14,-7.389794E-14,9.4E-44,False,False,0,None,0.0,1.0842353E-19,
31477282,8.181,,,16,565.2556,565.2355,0.05770911,-0.058001395,-0.9958407,0.9991963,0.26981723,-0.04641727,-0.19956894,0.3387974,42,-343,1453,1493.0,-0.010292234,-0.008196594,0.089269035,0.090233445,0.01315728848089625,-0.01315728848089625,3.3126577693456465,3.3020401444358716,74.83394824962802,74.83394824962801,-0.29643694566448286,0.4569760774306412,0.11260173759830995,73.74253814153994,,0.0,,,64.56,,,9.0941488,62.6929084,20190920,185032,2019-09-20T18:50:32Z,626.734,0.69,1.13,16.3,9,7,16,0.0,-0.01,0.0,,,,false,false,false,false,false,false,false,false,false,false,0,0,0,0,44,59,59,45,944,945,945,945,940,940,940,940,0.0,0.0,0.0,0.0,1507.3,1501.8,1503.7,1506.7,0.0,0.0,0.0,0.0,0,0,0,0,-45.0,,,,,,,,,,,,,,,,,,,,,,,,,,,,,,,,,,,,,NONE,0.0,0.0,0.0,,,,,15.154,15.154,15.228,0.83332384,0,1171,3.784,12.0,1.362,35,26.8,OK,6,0,0,0,0,0,65,100,0.0,0,0.0,589232.0,2.69E-43,0.0,0.0,0,7.3897485E-14,-7.389794E-14,9.4E-44,False,False,0,None,0.0,1.0842353E-19,
31791506,8.262,,,16,565.2741,565.2152,0.057266336,-0.05668921,-0.9967907,1.0000424,0.17002924,0.022679849,-0.010849869,0.17187797,42,-343,1450,1490.0,-0.010709747,0.0023542636,0.100472204,0.10106882,0.010965456276108317,-0.010965456276108317,3.307444283374924,3.300385169260516,74.83818746729277,74.83818746729276,-0.30693636664125185,0.4789234176252747,0.11141729413501972,73.75777564171325,,0.0,,,64.57,,,9.0941495,62.6929079,20190920,185033,2019-09-20T18:50:33Z,626.694,0.69,1.13,15.89,9,7,16,-0.02,-0.01,0.0,,,,false,false,false,false,false,false,false,false,false,false,0,0,0,0,44,58,59,45,944,946,945,945,940,940,940,940,0.0,0.0,0.0,0.0,1506.7,1503.1,1503.1,1507.3,0.0,0.0,0.0,0.0,0,0,0,0,-45.0,,,,,,,,,,,,,,,,,,,,,,,,,,,,,,,,,,,,,NONE,0.0,0.0,0.0,,,,,15.156,15.156,15.236,0.9940879,0,1171,3.784,12.0,1.283,35,26.8,OK,7,0,0,0,0,0,65,100,0.0,0,0.0,589232.0,2.69E-43,0.0,0.0,0,7.3897485E-14,-7.389794E-14,9.4E-44,False,False,0,None,0.0,1.0842353E-19,
31937697,8.300,,,16,565.25824,565.1811,0.05708305,-0.058016736,-0.99622685,0.99954605,0.22672151,0.055087082,-0.095958345,0.2522801,45,-343,1453,1493.0,-0.010613233,0.002253931,0.12533782,0.12580656,0.010849927173083878,-0.010849927173083878,3.282504642071816,3.3220304567141374,74.84361654675459,74.84361654675456,-0.31226606244515803,0.49872115312843035,0.11529783920924827,73.28149434325881,,0.0,,,64.61,,,9.0941495,62.6929079,20190920,185033,2019-09-20T18:50:33Z,626.694,0.69,1.13,15.89,9,7,16,-0.02,-0.01,0.0,,,,false,false,false,false,false,false,false,false,false,false,0,0,0,0,44,58,59,45,944,946,945,945,940,940,940,940,0.0,0.0,0.0,0.0,1506.7,1503.1,1503.1,1507.3,0.0,0.0,0.0,0.0,0,0,0,0,-45.0,,,,,,,,,,,,,,,,,,,,,,,,,,,,,,,,,,,,,NONE,0.0,0.0,0.0,,,,,15.156,15.156,15.236,0.9940879,0,1171,3.784,12.0,1.283,35,26.8,OK,7,0,0,0,0,0,65,100,0.0,0,0.0,589232.0,2.69E-43,0.0,0.0,0,7.3897485E-14,-7.389794E-14,9.4E-44,False,False,0,None,0.0,1.0842353E-19,
32233318,8.377,,,16,565.25824,565.1811,0.05708305,-0.058016736,-0.99622685,0.99954605,0.22672151,0.055087082,-0.095958345,0.2522801,45,-343,1453,1493.0,-0.010613233,0.002253931,0.12533782,0.12580656,0.010849927173083878,-0.010849927173083878,3.282504642071816,3.3220304567141374,74.84361654675459,74.84361654675456,-0.31226606244515803,0.49872115312843035,0.11529783920924827,73.28149434325881,,0.0,,,64.61,,,9.0941495,62.6929079,20190920,185033,2019-09-20T18:50:33Z,626.694,0.69,1.13,15.89,9,7,16,-0.02,-0.01,0.0,,,,false,false,false,false,false,false,false,false,false,false,0,0,0,0,44,58,59,45,944,946,945,945,940,940,940,940,0.0,0.0,0.0,0.0,1506.7,1503.1,1503.1,1507.3,0.0,0.0,0.0,0.0,0,0,0,0,-45.0,,,,,,,,,,,,,,,,,,,,,,,,,,,,,,,,,,,,,NONE,0.0,0.0,0.0,,,,,15.156,15.156,15.236,0.9940879,0,1171,3.784,12.0,1.283,35,26.8,OK,7,0,0,0,0,0,65,100,0.0,0,0.0,589232.0,2.69E-43,0.0,0.0,0,7.3897485E-14,-7.389794E-14,9.4E-44,False,False,0,None,0.0,1.0842353E-19,
32404046,8.422,,,16,565.25824,565.1811,0.05708305,-0.058016736,-0.99622685,0.99954605,0.22672151,0.055087082,-0.095958345,0.2522801,45,-343,1453,1493.0,-0.010613233,0.002253931,0.12533782,0.12580656,0.010849927173083878,-0.010849927173083878,3.282504642071816,3.3220304567141374,74.84361654675459,74.84361654675456,-0.31226606244515803,0.49872115312843035,0.11529783920924827,73.28149434325881,,0.0,,,64.61,,,9.0941495,62.6929079,20190920,185033,2019-09-20T18:50:33Z,626.694,0.69,1.13,15.89,9,7,16,-0.02,-0.01,0.0,,,,false,false,false,false,false,false,false,false,false,false,0,0,0,0,45,58,59,45,944,945,944,945,940,940,940,940,0.0,0.0,0.0,0.0,1506.7,1503.7,1503.7,1506.7,0.0,0.0,0.0,0.0,0,0,0,0,-45.0,,,,,,,,,,,,,,,,,,,,,,,,,,,,,,,,,,,,,NONE,0.0,0.0,0.0,,,,,15.157,15.157,15.232,0.9940879,0,1171,3.784,12.0,1.283,35,26.8,OK,7,0,0,0,0,0,65,100,0.0,0,0.0,589232.0,2.69E-43,0.0,0.0,0,7.3897485E-14,-7.389794E-14,9.4E-44,False,False,0,None,0.0,1.0842353E-19,
32559536,8.462,,,16,565.25824,565.1811,0.05708305,-0.058016736,-0.99622685,0.99954605,0.22672151,0.055087082,-0.095958345,0.2522801,45,-343,1453,1493.0,-0.010613233,0.002253931,0.12533782,0.12580656,0.010849927173083878,-0.010849927173083878,3.282504642071816,3.3220304567141374,74.84361654675459,74.84361654675456,-0.31226606244515803,0.49872115312843035,0.11529783920924827,73.28149434325881,,0.0,,,64.61,,,9.09415,62.6929077,20190920,185033,2019-09-20T18:50:33Z,626.722,0.69,1.13,15.51,9,7,16,0.01,0.0,0.0,,,,false,false,false,false,false,false,false,false,false,false,0,0,0,0,45,58,59,45,944,945,944,945,940,940,940,940,0.0,0.0,0.0,0.0,1506.7,1503.7,1503.7,1506.7,0.0,0.0,0.0,0.0,0,0,0,0,-45.0,,,,,,,,,,,,,,,,,,,,,,,,,,,,,,,,,,,,,NONE,0.0,0.0,0.0,,,,,15.157,15.157,15.232,0.9940879,0,1171,3.784,12.0,1.283,35,26.8,OK,7,0,0,0,0,0,65,100,0.0,0,0.0,589232.0,2.69E-43,0.0,0.0,0,7.3897485E-14,-7.389794E-14,9.4E-44,False,False,0,None,0.0,1.0842353E-19,
32705788,8.500,,,16,565.25824,565.1811,0.05708305,-0.058016736,-0.99622685,0.99954605,0.22672151,0.055087082,-0.095958345,0.2522801,45,-343,1453,1493.0,-0.010613233,0.002253931,0.12533782,0.12580656,0.010849927173083878,-0.010849927173083878,3.282504642071816,3.3220304567141374,74.84361654675459,74.84361654675456,-0.31226606244515803,0.49872115312843035,0.11529783920924827,73.28149434325881,,0.0,,,64.61,,,9.09415,62.6929077,20190920,185033,2019-09-20T18:50:33Z,626.722,0.69,1.13,15.51,9,7,16,0.01,0.0,0.0,,,,false,false,false,false,false,false,false,false,false,false,0,0,0,0,45,58,58,45,944,945,945,944,940,940,940,940,0.0,0.0,0.0,0.0,1506.7,1502.5,1503.1,1506.7,0.0,0.0,0.0,0.0,0,0,0,0,-45.0,,,,,,,,,,,,,,,,,,,,,,,,,,,,,,,,,,,,,NONE,0.0,0.0,0.0,,,,,15.157,15.157,15.232,0.9940879,0,1171,3.784,12.0,1.283,35,26.8,OK,7,0,0,0,0,0,65,100,0.0,0,0.0,589232.0,2.69E-43,0.0,0.0,0,7.3897485E-14,-7.389794E-14,9.4E-44,False,False,0,None,0.0,1.0842353E-19,
32862919,8.541,,,16,565.25824,565.1811,0.05708305,-0.058016736,-0.99622685,0.99954605,0.22672151,0.055087082,-0.095958345,0.2522801,45,-343,1453,1493.0,-0.010613233,0.002253931,0.12533782,0.12580656,0.010849927173083878,-0.010849927173083878,3.282504642071816,3.3220304567141374,74.84361654675459,74.84361654675456,-0.31226606244515803,0.49872115312843035,0.11529783920924827,73.28149434325881,,0.0,,,64.61,,,9.09415,62.6929077,20190920,185033,2019-09-20T18:50:33Z,626.722,0.69,1.13,15.51,9,7,16,0.01,0.0,0.0,,,,false,false,false,false,false,false,false,false,false,false,0,0,0,0,45,58,58,45,944,945,945,944,940,940,940,940,0.0,0.0,0.0,0.0,1506.7,1502.5,1503.1,1506.7,0.0,0.0,0.0,0.0,0,0,0,0,-45.0,,,,,,,,,,,,,,,,,,,,,,,,,,,,,,,,,,,,,NONE,0.0,0.0,0.0,,,,,15.157,15.157,15.232,0.9940879,0,1171,3.784,12.0,1.283,35,26.8,OK,7,0,0,0,0,0,65,100,0.0,0,0.0,589232.0,2.69E-43,0.0,0.0,0,7.3897485E-14,-7.389794E-14,9.4E-44,False,False,0,None,0.0,1.0842353E-19,
33015515,8.581,,,16,565.25824,565.1811,0.05708305,-0.058016736,-0.99622685,0.99954605,0.22672151,0.055087082,-0.095958345,0.2522801,45,-343,1453,1493.0,-0.010613233,0.002253931,0.12533782,0.12580656,0.010849927173083878,-0.010849927173083878,3.282504642071816,3.3220304567141374,74.84361654675459,74.84361654675456,-0.31226606244515803,0.49872115312843035,0.11529783920924827,73.28149434325881,,0.0,,,64.61,,,9.09415,62.6929077,20190920,185033,2019-09-20T18:50:33Z,626.722,0.69,1.13,15.51,9,7,16,0.01,0.0,0.0,,,,false,false,false,false,false,false,false,false,false,false,0,0,0,0,45,59,58,45,944,946,944,945,940,940,940,940,0.0,0.0,0.0,0.0,1506.1,1502.5,1503.1,1507.3,0.0,0.0,0.0,0.0,0,0,0,0,-45.0,,,,,,,,,,,,,,,,,,,,,,,,,,,,,,,,,,,,,NONE,0.0,0.0,0.0,,,,,15.157,15.157,15.232,0.9940879,0,1171,3.784,12.0,1.283,35,26.8,OK,7,0,0,0,0,0,65,100,0.0,0,0.0,589232.0,2.69E-43,0.0,0.0,0,7.3897485E-14,-7.389794E-14,9.4E-44,False,False,0,None,0.0,1.0842353E-19,
33193321,8.627,,,16,565.2371,565.0757,0.057660174,-0.05729162,-0.99662834,0.99993753,0.18439707,0.12658224,-0.14732823,0.26782635,39,-343,1453,1493.0,-0.011636401,-0.007717736,0.16192728,0.16252819,0.013963139578400395,-0.013963139578400395,3.312695199221202,3.3237737950112294,74.84920051360957,74.84920051360956,-0.3486853875293036,0.560264460403039,0.14249323237850633,74.04696048070572,,0.0,,,64.67,,,9.09415,62.6929077,20190920,185033,2019-09-20T18:50:33Z,626.722,0.69,1.13,15.51,9,7,16,0.01,0.0,0.0,,,,false,false,false,false,false,false,false,false,false,false,0,0,0,0,45,59,58,45,944,946,944,945,940,940,940,940,0.0,0.0,0.0,0.0,1506.1,1502.5,1503.1,1507.3,0.0,0.0,0.0,0.0,0,0,0,0,-45.0,,,,,,,,,,,,,,,,,,,,,,,,,,,,,,,,,,,,,NONE,0.0,0.0,0.0,,,,,15.152,15.152,15.219,0.9940879,0,1171,3.784,12.0,1.283,35,26.8,OK,7,0,0,0,0,0,65,100,0.0,0,0.0,589232.0,2.69E-43,0.0,0.0,0,7.3897485E-14,-7.389794E-14,9.4E-44,False,False,0,None,0.0,1.0842353E-19,
33399258,8.680,,,16,565.2371,565.0757,0.057660174,-0.05729162,-0.99662834,0.99993753,0.18439707,0.12658224,-0.14732823,0.26782635,39,-343,1453,1493.0,-0.011636401,-0.007717736,0.16192728,0.16252819,0.013963139578400395,-0.013963139578400395,3.312695199221202,3.3237737950112294,74.84920051360957,74.84920051360956,-0.3486853875293036,0.560264460403039,0.14249323237850633,74.04696048070572,,0.0,,,64.67,,,9.09415,62.6929077,20190920,185033,2019-09-20T18:50:33Z,626.722,0.69,1.13,15.51,9,7,16,0.01,0.0,0.0,,,,false,false,false,false,false,false,false,false,false,false,0,0,0,0,45,59,58,45,944,946,944,945,940,940,940,940,0.0,0.0,0.0,0.0,1506.1,1502.5,1503.1,1507.3,0.0,0.0,0.0,0.0,0,0,0,0,-45.0,,,,,,,,,,,,,,,,,,,,,,,,,,,,,,,,,,,,,NONE,0.0,0.0,0.0,,,,,15.152,15.152,15.219,0.9940879,0,1171,3.784,12.0,1.283,35,26.8,OK,7,0,0,0,0,0,65,100,0.0,0,0.0,589232.0,2.69E-43,0.0,0.0,0,7.3897485E-14,-7.389794E-14,9.4E-44,False,False,0,None,0.0,1.0842353E-19,
33782951,8.780,,,16,565.2133,565.0694,0.057139825,-0.05754311,-0.99592966,0.99922574,0.25962844,0.009189342,-0.12032044,0.2863012,39,-343,1450,1490.0,-0.010641386,-0.0077023464,0.15370744,0.15426777,0.013136408394678863,-0.013136408394678863,3.2706390879503564,3.296150750881115,74.86102651934098,74.86102651934095,-0.36204201386815044,0.58242292273824,0.14926871974479583,74.10834972462577,,0.0,,,64.66,,,9.09415,62.6929077,20190920,185033,2019-09-20T18:50:33Z,626.722,0.69,1.13,15.51,9,7,16,0.01,0.0,0.0,,,,false,false,false,false,false,false,false,false,false,false,0,0,0,0,46,59,59,45,944,946,945,945,940,940,940,940,0.0,0.0,0.0,0.0,1506.1,1503.7,1503.1,1507.3,0.0,0.0,0.0,0.0,0,0,0,0,-45.0,,,,,,,,,,,,,,,,,,,,,,,,,,,,,,,,,,,,,NONE,0.0,0.0,0.0,,,,,15.152,15.152,15.219,0.9940879,0,1171,3.784,12.0,1.283,35,26.8,OK,7,0,0,0,0,0,65,100,0.0,0,0.0,589232.0,2.69E-43,0.0,0.0,0,7.3897485E-14,-7.389794E-14,9.4E-44,False,False,0,None,0.0,1.0842353E-19,
34090250,8.860,,,16,565.2133,565.0694,0.057139825,-0.05754311,-0.99592966,0.99922574,0.25962844,0.009189342,-0.12032044,0.2863012,39,-343,1450,1490.0,-0.010641386,-0.0077023464,0.15370744,0.15426777,0.013136408394678863,-0.013136408394678863,3.2706390879503564,3.296150750881115,74.86102651934098,74.86102651934095,-0.36204201386815044,0.58242292273824,0.14926871974479583,74.10834972462577,,0.0,,,64.66,,,9.09415,62.6929077,20190920,185033,2019-09-20T18:50:33Z,626.722,0.69,1.13,15.51,9,7,16,0.01,0.0,0.0,,,,false,false,false,false,false,false,false,false,false,false,0,0,0,0,46,58,59,45,945,945,944,945,940,940,940,940,0.0,0.0,0.0,0.0,1507.3,1502.5,1503.1,1507.9,0.0,0.0,0.0,0.0,0,0,0,0,-45.0,,,,,,,,,,,,,,,,,,,,,,,,,,,,,,,,,,,,,NONE,0.0,0.0,0.0,,,,,15.152,15.152,15.219,0.9940879,0,1171,3.784,12.0,1.283,35,26.8,OK,7,0,0,0,0,0,65,100,0.0,0,0.0,589232.0,2.69E-43,0.0,0.0,0,7.3897485E-14,-7.389794E-14,9.4E-44,False,False,0,None,0.0,1.0842353E-19,
34241697,8.899,9.094148221662405,62.69290790376127,16,565.1869,565.00854,0.05816889,-0.056832973,-0.9954235,0.99873996,0.24175262,0.039300334,-0.2562973,0.35450974,39,-343,1450,1490.0,0.004696746,-5.7628576E-4,0.18264313,0.18270442,0.004731968588970751,-0.004731968588970751,3.3081017056708486,3.288469444790951,74.86775030020803,74.86775030020806,-0.3996280267381765,0.6324601693244366,0.15410793309635887,74.16715172129216,,0.0,,,64.67,,,9.0941501,62.6929072,20190920,185033,2019-09-20T18:50:33Z,626.697,0.69,1.13,14.85,9,7,16,0.0,-0.01,0.01,,,,false,false,false,false,false,false,false,false,false,false,0,0,0,0,45,59,58,45,944,946,945,945,940,940,940,940,0.0,0.0,0.0,0.0,1506.7,1501.8,1502.5,1506.7,0.0,0.0,0.0,0.0,0,0,0,0,-45.0,0.0,0.0,,,,,,,,,,,,,,,,,,,,,,,,,,,,,,,,,,,NONE,0.0,0.0,0.0,,,,,15.152,15.152,15.219,0.9940879,0,1171,3.784,12.0,1.283,35,26.8,OK,7,0,0,0,0,0,65,100,0.0,0,0.0,589232.0,2.69E-43,0.0,0.0,0,7.3897485E-14,-7.389794E-14,9.4E-44,False,False,0,None,0.0,1.0842353E-19,
34551369,8.980,9.094148221662405,62.69290790376127,16,565.1869,565.00854,0.05816889,-0.056832973,-0.9954235,0.99873996,0.24175262,0.039300334,-0.2562973,0.35450974,39,-343,1450,1490.0,0.004696746,-5.7628576E-4,0.18264313,0.18270442,0.004731968588970751,-0.004731968588970751,3.3081017056708486,3.288469444790951,74.86775030020803,74.86775030020806,-0.3996280267381765,0.6324601693244366,0.15410793309635887,74.16715172129216,,0.0,,,64.67,,,9.0941501,62.6929072,20190920,185033,2019-09-20T18:50:33Z,626.697,0.69,1.13,14.85,9,7,16,0.0,-0.01,0.01,,,,false,false,false,false,false,false,false,false,false,false,0,0,0,0,46,58,59,45,944,946,944,945,940,940,940,940,0.0,0.0,0.0,0.0,1507.3,1502.5,1503.7,1506.1,0.0,0.0,0.0,0.0,0,0,0,0,-45.0,0.0,0.0,,,,,,,,,,,,,,,,,,,,,,,,,,,,,,,,,,,NONE,0.0,0.0,0.0,,,,,15.152,15.152,15.219,0.9940879,0,1171,3.784,12.0,1.283,35,26.8,OK,7,0,0,0,0,0,65,100,0.0,0,0.0,589232.0,2.69E-43,0.0,0.0,0,7.3897485E-14,-7.389794E-14,9.4E-44,False,False,0,None,0.0,1.0842353E-19,
34853922,9.058,9.094148221662405,62.69290790376127,16,565.1869,565.00854,0.05816889,-0.056832973,-0.9954235,0.99873996,0.24175262,0.039300334,-0.2562973,0.35450974,39,-343,1450,1490.0,0.004696746,-5.7628576E-4,0.18264313,0.18270442,0.004731968588970751,-0.004731968588970751,3.3081017056708486,3.288469444790951,74.86775030020803,74.86775030020806,-0.3996280267381765,0.6324601693244366,0.15410793309635887,74.16715172129216,,0.0,,,64.67,,,9.0941501,62.6929072,20190920,185033,2019-09-20T18:50:33Z,626.714,0.72,1.16,14.55,8,7,15,0.02,0.0,0.0,,,,false,false,false,false,false,false,false,false,false,false,0,0,0,0,46,58,59,45,944,946,944,945,940,940,940,940,0.0,0.0,0.0,0.0,1507.3,1502.5,1503.7,1506.1,0.0,0.0,0.0,0.0,0,0,0,0,-45.0,0.0,0.0,,,,,,,,,,,,,,,,,,,,,,,,,,,,,,,,,,,NONE,0.0,0.0,0.0,,,,,15.166,15.166,15.244,0.9940879,0,1171,3.785,12.0,1.283,35,26.8,OK,7,0,0,0,0,0,65,100,0.0,0,0.0,589232.0,2.69E-43,0.0,0.0,0,7.3897485E-14,-7.389794E-14,9.4E-44,False,False,0,None,0.0,1.0842353E-19,
35009689,9.099,9.094148170207138,62.69290795196346,15,565.1288,564.9695,0.05868331,-0.05853852,-0.9963657,0.9998076,0.21455675,0.08661974,-0.05597721,0.23805678,39,-343,1447,1487.0,-1.990156E-4,0.007179957,0.18856372,0.18870047,0.007182714592012573,0.14023779820709692,3.2909873387202024,3.316025345251057,74.87672453151505,74.87672453151504,-0.430792661429915,0.6779993163397922,0.1666746103434702,74.0813958086966,,0.00596804610993032,-26.09193003421003,-26.09193003421003,64.66,,,9.0941501,62.6929072,20190920,185033,2019-09-20T18:50:33Z,626.714,0.72,1.16,14.55,8,7,15,0.02,0.0,0.0,,,,false,false,false,false,false,false,false,false,false,false,0,0,0,0,46,58,59,45,944,946,944,945,940,940,940,940,0.0,0.0,0.0,0.0,1507.3,1502.5,1503.7,1506.1,0.0,0.0,0.0,0.0,0,0,0,0,-45.0,0.0,0.0,,,,,,,,,,,,,,,,,,,,,,,,,,,,,,,,,,,NONE,0.0,0.0,0.0,,,,,15.166,15.166,15.244,0.9940879,0,1171,3.785,12.0,1.283,35,26.8,OK,7,0,0,0,0,0,65,100,0.0,0,0.0,589232.0,2.69E-43,0.0,0.0,0,7.3897485E-14,-7.389794E-14,9.4E-44,False,False,0,None,0.0,1.0842353E-19,
35319450,9.179,9.094148170207138,62.69290795196346,15,565.1288,564.9695,0.05868331,-0.05853852,-0.9963657,0.9998076,0.21455675,0.08661974,-0.05597721,0.23805678,39,-343,1447,1487.0,-1.990156E-4,0.007179957,0.18856372,0.18870047,0.007182714592012573,-0.007182714592012573,3.2909873387202024,3.316025345251057,74.87672453151505,74.87672453151504,-0.430792661429915,0.6779993163397922,0.1666746103434702,74.0813958086966,,0.00596804610993032,-26.09193003421003,-26.09193003421003,64.66,,,9.0941501,62.6929072,20190920,185033,2019-09-20T18:50:33Z,626.714,0.72,1.16,14.55,8,7,15,0.02,0.0,0.0,,,,false,false,false,false,false,false,false,false,false,false,0,0,0,0,46,59,58,45,944,945,945,945,940,940,940,940,0.0,0.0,0.0,0.0,1506.7,1503.1,1502.5,1506.7,0.0,0.0,0.0,0.0,0,0,0,0,-45.0,0.0,0.0,,,,,,,,,,,,,,,,,,,,,,,,,,,,,,,,,,,NONE,0.0,0.0,0.0,,,,,15.166,15.166,15.244,0.9940879,0,1171,3.785,12.0,1.283,35,26.8,OK,7,0,0,0,0,0,65,100,0.0,0,0.0,589232.0,2.69E-43,0.0,0.0,0,7.3897485E-14,-7.389794E-14,9.4E-44,False,False,0,None,0.0,1.0842353E-19,
35621922,9.258,9.094148139580177,62.69290796697991,15,564.8936,564.9453,0.056469813,-0.05793936,-0.9947155,0.9980004,0.14777535,-0.07330681,-0.25954196,0.307528,39,-340,1453,1492.0,0.0014667136,-0.0032222387,0.18409453,0.18412858,0.0035403490187750214,0.025548311415528786,3.2931426498969625,3.318713115899832,74.87851022978973,74.87851022978975,-0.44653811438383295,0.6960808909426978,0.16733897002519305,73.93578154471848,,0.008254738237405107,-43.096492034234885,-43.096492034234885,64.68,,,9.0941501,62.6929072,20190920,185034,2019-09-20T18:50:34Z,626.691,0.72,1.16,14.27,8,7,15,-0.01,-0.01,-0.01,,,,false,false,false,false,false,false,false,false,false,false,0,0,0,0,46,59,58,45,944,945,945,945,940,940,940,940,0.0,0.0,0.0,0.0,1506.7,1503.1,1502.5,1506.7,0.0,0.0,0.0,0.0,0,0,0,0,-45.0,0.0,0.0,,,,,,,,,,,,,,,,,,,,,,,,,,,,,,,,,,,NONE,0.0,0.0,0.0,,,,,15.158,15.158,15.225,0.9940879,0,1171,3.785,12.0,1.283,35,26.8,OK,7,0,0,0,0,0,65,100,0.0,0,0.0,589232.0,2.69E-43,0.0,0.0,0,7.3897485E-14,-7.389794E-14,9.4E-44,False,False,0,None,0.0,1.0842353E-19,
35859986,9.320,9.094148139580177,62.69290796697991,15,564.8936,564.9453,0.056469813,-0.05793936,-0.9947155,0.9980004,0.14777535,-0.07330681,-0.25954196,0.307528,39,-340,1453,1492.0,0.0014667136,-0.0032222387,0.18409453,0.18412858,0.0035403490187750214,-0.0035403490187750214,3.2931426498969625,3.318713115899832,74.87851022978973,74.87851022978975,-0.44653811438383295,0.6960808909426978,0.16733897002519305,73.93578154471848,,0.008254738237405107,-43.096492034234885,-43.096492034234885,64.68,,,9.0941501,62.6929072,20190920,185034,2019-09-20T18:50:34Z,626.691,0.72,1.16,14.27,8,7,15,-0.01,-0.01,-0.01,,,,false,false,false,false,false,false,false,false,false,false,0,0,0,0,46,59,58,45,944,945,945,945,940,940,940,940,0.0,0.0,0.0,0.0,1506.7,1503.1,1502.5,1506.7,0.0,0.0,0.0,0.0,0,0,0,0,-45.0,0.0,0.0,,,,,,,,,,,,,,,,,,,,,,,,,,,,,,,,,,,NONE,0.0,0.0,0.0,,,,,15.158,15.158,15.225,0.9940879,0,1171,3.785,12.0,1.283,35,26.8,OK,7,0,0,0,0,0,65,100,0.0,0,0.0,589232.0,2.69E-43,0.0,0.0,0,7.3897485E-14,-7.389794E-14,9.4E-44,False,False,0,None,0.0,1.0842353E-19,
36073314,9.375,9.094148139580177,62.69290796697991,15,564.8936,564.9453,0.056469813,-0.05793936,-0.9947155,0.9980004,0.14777535,-0.07330681,-0.25954196,0.307528,39,-340,1453,1492.0,0.0014667136,-0.0032222387,0.18409453,0.18412858,0.0035403490187750214,-0.0035403490187750214,3.2931426498969625,3.318713115899832,74.87851022978973,74.87851022978975,-0.44653811438383295,0.6960808909426978,0.16733897002519305,73.93578154471848,,0.008254738237405107,-43.096492034234885,-43.096492034234885,64.68,,,9.0941501,62.6929072,20190920,185034,2019-09-20T18:50:34Z,626.691,0.72,1.16,14.27,8,7,15,-0.01,-0.01,-0.01,,,,false,false,false,false,false,false,false,false,false,false,0,0,0,0,46,59,58,45,944,945,945,945,940,940,940,940,0.0,0.0,0.0,0.0,1506.7,1503.1,1502.5,1506.7,0.0,0.0,0.0,0.0,0,0,0,0,-45.0,0.0,0.0,,,,,,,,,,,,,,,,,,,,,,,,,,,,,,,,,,,NONE,0.0,0.0,0.0,,,,,15.158,15.158,15.225,0.9940879,0,1171,3.785,12.0,1.283,35,26.8,OK,7,0,0,0,0,0,65,100,0.0,0,0.0,589232.0,2.69E-43,0.0,0.0,0,7.3897485E-14,-7.389794E-14,9.4E-44,False,False,0,None,0.0,1.0842353E-19,
36389922,9.458,9.094148139580177,62.69290796697991,15,564.8936,564.9453,0.056469813,-0.05793936,-0.9947155,0.9980004,0.14777535,-0.07330681,-0.25954196,0.307528,39,-340,1453,1492.0,0.0014667136,-0.0032222387,0.18409453,0.18412858,0.0035403490187750214,-0.0035403490187750214,3.2931426498969625,3.318713115899832,74.87851022978973,74.87851022978975,-0.44653811438383295,0.6960808909426978,0.16733897002519305,73.93578154471848,,0.008254738237405107,-43.096492034234885,-43.096492034234885,64.68,,,9.09415,62.6929071,20190920,185034,2019-09-20T18:50:34Z,626.669,0.72,1.16,14.0,8,7,15,0.0,0.0,0.0,,,,false,false,false,false,false,false,false,false,false,false,0,0,0,0,44,59,59,45,944,944,944,945,940,940,940,940,0.0,0.0,0.0,0.0,1506.7,1503.1,1503.1,1506.7,0.0,0.0,0.0,0.0,0,0,0,0,-45.0,0.0,0.0,,,,,,,,,,,,,,,,,,,,,,,,,,,,,,,,,,,NONE,0.0,0.0,0.0,,,,,15.153,15.153,15.224,1.1225724,0,1171,3.785,12.0,1.312,35,26.8,OK,8,0,0,0,0,0,65,100,0.0,0,0.0,589232.0,2.69E-43,0.0,0.0,0,7.3897485E-14,-7.389794E-14,9.4E-44,False,False,0,None,0.0,1.0842353E-19,
36628310,9.520,9.094148139580177,62.69290796697991,15,564.8936,564.9453,0.056469813,-0.05793936,-0.9947155,0.9980004,0.14777535,-0.07330681,-0.25954196,0.307528,39,-340,1453,1492.0,0.0014667136,-0.0032222387,0.18409453,0.18412858,0.0035403490187750214,-0.0035403490187750214,3.2931426498969625,3.318713115899832,74.87851022978973,74.87851022978975,-0.44653811438383295,0.6960808909426978,0.16733897002519305,73.93578154471848,,0.008254738237405107,-43.096492034234885,-43.096492034234885,64.68,,,9.09415,62.6929071,20190920,185034,2019-09-20T18:50:34Z,626.669,0.72,1.16,14.0,8,7,15,0.0,0.0,0.0,,,,false,false,false,false,false,false,false,false,false,false,0,0,0,0,44,59,59,45,944,944,944,945,940,940,940,940,0.0,0.0,0.0,0.0,1506.7,1503.1,1503.1,1506.7,0.0,0.0,0.0,0.0,0,0,0,0,-45.0,0.0,0.0,,,,,,,,,,,,,,,,,,,,,,,,,,,,,,,,,,,NONE,0.0,0.0,0.0,,,,,15.153,15.153,15.224,1.1225724,0,1171,3.785,12.0,1.312,35,26.8,OK,8,0,0,0,0,0,65,100,0.0,0,0.0,589232.0,2.69E-43,0.0,0.0,0,7.3897485E-14,-7.389794E-14,9.4E-44,False,False,0,None,0.0,1.0842353E-19,
36855467,9.579,9.094148139580177,62.69290796697991,15,564.8936,564.9453,0.056469813,-0.05793936,-0.9947155,0.9980004,0.14777535,-0.07330681,-0.25954196,0.307528,39,-340,1453,1492.0,0.0014667136,-0.0032222387,0.18409453,0.18412858,0.0035403490187750214,-0.0035403490187750214,3.2931426498969625,3.318713115899832,74.87851022978973,74.87851022978975,-0.44653811438383295,0.6960808909426978,0.16733897002519305,73.93578154471848,,0.008254738237405107,-43.096492034234885,-43.096492034234885,64.68,,,9.09415,62.6929071,20190920,185034,2019-09-20T18:50:34Z,626.669,0.72,1.16,14.0,8,7,15,0.0,0.0,0.0,,,,false,false,false,false,false,false,false,false,false,false,0,0,0,0,44,59,59,44,944,945,944,945,940,940,940,940,0.0,0.0,0.0,0.0,1505.5,1502.5,1503.1,1506.1,0.0,0.0,0.0,0.0,0,0,0,0,-45.0,0.0,0.0,,,,,,,,,,,,,,,,,,,,,,,,,,,,,,,,,,,NONE,0.0,0.0,0.0,,,,,15.153,15.153,15.224,1.1225724,0,1171,3.785,12.0,1.312,35,26.8,OK,8,0,0,0,0,0,65,100,0.0,0,0.0,589232.0,2.69E-43,0.0,0.0,0,7.3897485E-14,-7.389794E-14,9.4E-44,False,False,0,None,0.0,1.0842353E-19,
36985762,9.612,9.094149212622346,62.692907218785656,15,565.16046,564.9347,0.057778064,-0.058337174,-0.9962471,0.99962485,0.18648253,-0.17064856,-0.042163678,0.25627026,42,-343,1453,1493.0,0.0022882426,-0.0065949187,0.13689336,0.13707122,0.006980616662945799,2.933909796514682,3.3151150859002896,3.3235312794193375,74.88830251383771,74.88830251383774,-0.506761465373883,0.762801989144026,0.11864312644201758,73.67867728446114,,0.10784236627103012,146.6574062969906,146.6574062969906,64.77,,,9.09415,62.6929071,20190920,185034,2019-09-20T18:50:34Z,626.669,0.72,1.16,14.0,8,7,15,0.0,0.0,0.0,,,,false,false,false,false,false,false,false,false,false,false,0,0,0,0,44,59,59,44,944,945,944,945,940,940,940,940,0.0,0.0,0.0,0.0,1505.5,1502.5,1503.1,1506.1,0.0,0.0,0.0,0.0,0,0,0,0,-45.0,0.0,0.0,,,,,,,,,,,,,,,,,,,,,,,,,,,,,,,,,,,NONE,0.0,0.0,0.0,,,,,15.154,15.154,15.227,1.1225724,0,1171,3.785,12.0,1.312,35,26.8,OK,8,0,0,0,0,0,65,100,0.0,0,0.0,589232.0,2.69E-43,0.0,0.0,0,7.3897485E-14,-7.389794E-14,9.4E-44,False,False,0,None,0.0,1.0842353E-19,
